Event_Title,Date,Time,Venue,Address,url,Latitude,Longitude
Cash Prize POOL COMP,2024-12-10,00:00,Inkerman Hotel,"375 Inkerman St, St Kilda East VIC 3183, Australia",https://www.facebook.com/events/1056315672649917/,-37.866444,144.99799715146656
Melbourne Networking Function and Ethical Trade Reporting Update,2024-12-10,18:00,The Wharf Hotel Melbourne,"38 Siddeley Street #18 Docklands, VIC 3008",https://www.eventbrite.com.au/e/melbourne-networking-function-and-ethical-trade-reporting-update-tickets-1068452172209?aff=ebdssbdestsearch,-37.8224526,144.9538758
BOTTOMLESS SAKE DINNER,2024-12-10,19:00,Sakedokoro Namara,"360 Victoria Street North Melbourne, VIC 3051",https://www.eventbrite.com.au/e/bottomless-sake-dinner-tickets-1071509145699?aff=ebdssbdestsearch,-37.80549,144.9543455
December 10th 2024 In Person BNI Melbourne City Corporate Networking Event,2024-12-10,06:45,Rendezvous Hotel Melbourne,"328 Flinders Street Melbourne, VIC 3000",https://www.eventbrite.com.au/e/december-10th-2024-in-person-bni-melbourne-city-corporate-networking-event-tickets-952432028837?aff=ebdssbdestsearch,-37.81831330000001,144.9636251
Yoga on the beach,2024-12-10,18:00,South Melbourne Beach,"74 Beaconsfield Parade Albert Park, VIC 3206",https://www.eventbrite.com.au/e/yoga-on-the-beach-tickets-1105452892359?aff=ebdssbdestsearch,-37.8466427,144.9470376
A Toast to 2024: Celebrating Our Favourite Wines of the Year,2024-12-10,17:00,The Vincent Wine Shop,"111 Victoria Avenue Albert Park, VIC 3206",https://www.eventbrite.com/e/a-toast-to-2024-celebrating-our-favourite-wines-of-the-year-tickets-1095787181959?aff=ebdssbdestsearch,-37.8450628,144.9508168
In-Person LSSBB Exam Prep Course in Melbourne,2024-12-10,09:00,120 Collins St,"120 Collins Street Levels 31 & 50/120 Collins St Melbourne, VIC 3000",https://www.eventbrite.com/e/in-person-lssbb-exam-prep-course-in-melbourne-tickets-945850944637?aff=ebdssbdestsearch,-37.8138656,144.9695281
Adult Intermediate/Advanced Jazz Class,2024-12-10,18:30,Dance Factory,"Melbourne VIC, Australia 225 Swan St Richmond Melbourne, VIC",https://www.eventbrite.com.au/e/adult-intermediateadvanced-jazz-class-tickets-933159203297?aff=ebdssbdestsearch,-37.8257354,144.9998261
Christmas Themed Polymer Clay Workshop,2024-12-10,05:30,HEER POTTERY ART,"31 Clarice Road #unit3/29 Box Hill South, VIC 3128",https://www.eventbrite.com.au/e/christmas-themed-polymer-clay-workshop-tickets-1091850477169?aff=ebdssbdestsearch,-37.833062,145.1337404
Brava  Women Networking IN PERSON December 10th 2024 - Brighton,2024-12-10,12:00,The Deck  Brighton,"212 Bay Street Brighton, VIC 3186",https://www.eventbrite.com.au/e/brava-women-networking-in-person-december-10th-2024-brighton-tickets-853426009167?aff=ebdssbdestsearch,-37.9052818,144.999296
Skating In The Clouds,2024-12-10,19:30,Theatre Works,"Saint Leonards Avenue St Kilda, VIC 3182",https://www.eventbrite.com.au/e/skating-in-the-clouds-tickets-774953325257?aff=ebdssbdestsearch,-37.8638328,144.9768976
Term 4 SaintsPlay program RSEA Park,2024-12-10,05:30,RSEA Park - St Kilda Football Club,"60 Linton Street #32 Moorabbin, VIC 3189",https://www.eventbrite.com/e/term-4-saintsplay-program-rsea-park-registration-1013259876567?aff=ebdssbdestsearch,-37.9371005,145.0435478
Beginners Contemporary Dance (Taster Class),2024-12-10,06:30,Transit Dance Studio,"64 Dawson Street Brunswick, VIC 3056",https://www.eventbrite.com.au/e/beginners-contemporary-dance-taster-class-tickets-1092215057639?aff=ebdssbdestsearch,-37.7701752,144.9559255
Small Group Breathwork Journey,2024-12-10,19:00,Merkaba Studio,"15 Mills Street Cheltenham, VIC 3192",https://www.eventbrite.com.au/e/small-group-breathwork-journey-tickets-1036569416027?aff=ebdssbdestsearch,-37.9560125,145.0740554
Harnessing AI for Marketing Innovation | Melbourne,2024-12-10,16:00,Melbourne,"Online Event Melbourne, VIC 3000",https://www.eventbrite.com.au/e/harnessing-ai-for-marketing-innovation-melbourne-tickets-1052300297517?aff=ebdssbdestsearch,-37.8152065,144.963937
Comedy Centric Christmas Special,2024-12-10,06:30,level 25/25 Downie St,"25 Downie Street #level 25 Melbourne, VIC 3004",https://www.eventbrite.com.au/e/comedy-centric-christmas-special-tickets-1061699544919?aff=ebdssbdestsearch,-37.8202336,144.9555669
Shake It Off - Your Weekly Dose of Physical & Emotional Fitness.,2024-12-10,18:30,Centre of You,"Upstairs, 217 Chapel St Prahran Melbourne, VIC 3181",https://www.eventbrite.com.au/e/shake-it-off-your-weekly-dose-of-physical-emotional-fitness-tickets-1088437689429?aff=ebdssbdestsearch,-37.8509316,144.9933031
CME X Protagonist x Kitchen: Christmas Party,2024-12-10,16:00,St Kilda Sports Club,"66 Fitzroy Street St Kilda, VIC 3182",https://www.eventbrite.com.au/e/cme-x-protagonist-x-kitchen-christmas-party-tickets-1066516683109?aff=ebdssbdestsearch,-37.8586547,144.9780845
"Gold, Silver and Polymer Clay Ring Workshop for Beginners",2024-12-10,15:30,HEER POTTERY ART,"31 Clarice Road #unit3/29 Box Hill South, VIC 3128",https://www.eventbrite.com.au/e/gold-silver-and-polymer-clay-ring-workshop-for-beginners-tickets-1029735866697?aff=ebdssbdestsearch,-37.833062,145.1337404
Christmas Special Love Notes Candle Making Workshop,2024-12-10,02:30,"Heer Pottery - unit 3/29-31 Clarice Rd, Box Hill South VIC","29-31 Clarice Road #unit 3 Box Hill South, VIC 3128",https://www.eventbrite.com.au/e/christmas-special-love-notes-candle-making-workshop-tickets-1037630951107?aff=ebdssbdestsearch,-37.8333911,145.1339829
Launch Your Own Successful AI App | AI Startup | Workshop 2024,2024-12-10,13:00,Regus Office,"Melbourne Regus Office Melbourne, VIC",https://www.eventbrite.com/e/launch-your-own-successful-ai-app-ai-startup-workshop-2024-tickets-892931420917?aff=ebdssbdestsearch,-37.8136276,144.9630576
Church Growth International Conference Australia 2024,2024-12-10,10:00,215 Little Collins St,"215 Little Collins Street Melbourne, VIC 3000",https://www.eventbrite.co.uk/e/church-growth-international-conference-australia-2024-tickets-874160707207?aff=ebdssbdestsearch,-37.8143634,144.9668522
"Off the Record, with Cameron Hurst",2024-12-10,06:30,69 Capel St,"69 Capel Street West Melbourne, VIC 3003",https://www.eventbrite.com/e/off-the-record-with-cameron-hurst-tickets-1096855477259?aff=ebdssbdestsearch,-37.8065292,144.9547461
"Startup Mastery: Leveraging Lean Startup , Agile, and Design Thinking",2024-12-10,18:00,Online,"Melbourne Melbourne, VIC",https://www.eventbrite.com/e/startup-mastery-leveraging-lean-startup-agile-and-design-thinking-tickets-893990659127?aff=ebdssbdestsearch,-37.8136276,144.9630576
Sunset Kayak Tour| Melbourne Working Holiday Girls,2024-12-10,06:30,1 Boathouse Dr,"1 Boathouse Drive Melbourne, VIC 3004",https://www.eventbrite.com.au/e/sunset-kayak-tour-melbourne-working-holiday-girls-tickets-1086491969729?aff=ebdssbdestsearch,-37.8197779,144.971595
Xmas Kids Art Fun in Williamstown,2024-12-10,10:00,82-84 Ferguson St,"82-84 Ferguson Street Williamstown, VIC 3016",https://www.eventbrite.com.au/e/xmas-kids-art-fun-in-williamstown-tickets-1039842265207?aff=ebdssbdestsearch,-37.8586804,144.8974969
St Kilda AFL Blind Futures Clinics,2024-12-10,06:30,RSEA Park - St Kilda Football Club,"60 Linton Street #32 Moorabbin, VIC 3189",https://www.eventbrite.com/e/st-kilda-afl-blind-futures-clinics-tickets-1039372821087?aff=ebdssbdestsearch,-37.9371005,145.0435478
"CAPM Melbourne, VIC In-Person Class",2024-12-10,09:00,120 Collins St,"120 Collins Street Levels 31 & 50/120 Collins St Melbourne, VIC 3000",https://www.eventbrite.com/e/capm-melbourne-vic-in-person-class-tickets-878704868917?aff=ebdssbdestsearch,-37.8138656,144.9695281
UX Design Workshop | Launch Your UX Design Career 2024,2024-12-10,13:00,Regus Office,"Melbourne Regus Office Melbourne, VIC",https://www.eventbrite.com/e/ux-design-workshop-launch-your-ux-design-career-2024-tickets-887039899217?aff=ebdssbdestsearch,-37.8136276,144.9630576
Sound Bath in  a Stunning Heritage Building,2024-12-10,19:00,1/139 Nelson Pl,"139 Nelson Place #1 Williamstown, VIC 3016",https://www.eventbrite.com.au/e/sound-bath-in-a-stunning-heritage-building-tickets-1070107724009?aff=ebdssbdestsearch,-37.86339359999999,144.9046939
311 // Brisbane // Good Things Festival Sideshow // The Triffid,2024-12-10,20:00,Good Things Festival,"448 Epsom Rd, Flemington VIC 3031, Australia",https://www.facebook.com/events/1549571283103731/,-37.78925135,144.9127712588256
The Nth Pole   Xmas at Marvel Stadium,2024-12-10,00:00,Marvel Stadium,"740 Bourke St, Docklands VIC 3008, Australia",https://www.facebook.com/events/915043180771941/,-37.816529,144.94751697668812
TILT SHIFT TUESDAY - First Birthday - RSVP For Free Entry,2024-12-10,19:00,New Guernica,"64 Smith St, Collingwood VIC 3066, Australia",https://www.facebook.com/events/599914932366116/,-37.80624775,144.98331211946754
Spoken Word @ Bar Oussou!,2024-12-10,01:45,Bar Oussou,"653 Sydney Rd, Brunswick VIC 3056, Australia",https://www.facebook.com/events/492572360256978/?event_time_id=492572393590308,-37.7618155,144.9628753
Condensed Milk Tuesdays,2024-12-10,02:04,Section 8,"27-29 Tattersalls Ln, Melbourne VIC 3000, Australia",https://www.facebook.com/events/3806429379629971/?event_time_id=3806429506296625,-37.8117457,144.965405
Cash Prize POOL COMP,2024-12-10,02:22,Inkerman Hotel,"375 Inkerman St, St Kilda East VIC 3183, Australia",https://www.facebook.com/events/1056315672649917/?event_time_id=1056315785983239,-37.866444,144.99799715146656
Bowling For Soup // Sydney // Good Things Festival Sideshow // Metro Theatre,2024-12-10,19:00,Good Things Festival,"448 Epsom Rd, Flemington VIC 3031, Australia",https://www.facebook.com/events/2393871497613420/,-37.78925135,144.9127712588256
Grandson (USA) // Adelaide Lic AA // Good Things Festival Sideshow // Jive Bar ,2024-12-10,19:30,Good Things Festival,"448 Epsom Rd, Flemington VIC 3031, Australia",https://www.facebook.com/events/1458654338855624/,-37.78925135,144.9127712588256
SOLD OUT | Sleeping With Sirens // Brisbane // Good Things Festival Sideshow // The Tivoli,2024-12-10,20:00,Good Things Festival,"448 Epsom Rd, Flemington VIC 3031, Australia",https://www.facebook.com/events/1496168761098691/,-37.78925135,144.9127712588256
Santa Claus is Coming to Town,2024-12-10,0:00,The Clocktower Centre,"750 Mt Alexander Rd, Moonee Ponds VIC 3039, Australia",https://www.facebook.com/events/968126904794102/,-37.7656716,144.9248037207342
Rom-Com: A Celebration of Romantic Comedies,2024-12-10,03:01,Lido Cinemas,"675 Glenferrie Rd, Hawthorn VIC 3122, Australia",https://www.facebook.com/events/995394008973998/?event_time_id=995394045640661,-37.8205529,145.0355738
Crowded House | Melbourne,2024-12-10,19:00,Rod Laver Arena,"200 Batman Ave, Melbourne VIC 3004, Australia",https://www.facebook.com/events/825609872764703/,-37.8215688,144.9785875
DPR - The Dream Reborn Tour 2024,2024-12-10,19:00,Festival Hall,"300 Dudley St, West Melbourne VIC 3003, Australia",https://www.facebook.com/events/443224371939943/,-37.8098193,144.9508057
Tix at 12,2024-12-10,01:58,Arts Centre Melbourne,"100 St Kilda Rd, Southbank VIC 3004, Australia",https://www.facebook.com/events/473885795706627/?event_time_id=481829798245560,-37.8216405,144.9683143
Tix at 12,2024-12-10,00:00,Arts Centre Melbourne,"100 St Kilda Rd, Southbank VIC 3004, Australia",https://www.facebook.com/events/473885795706627/,-37.8216405,144.9683143
From Ashes To New // Sydney // Good Things Festival Sideshow // Crowbar,2024-12-10,19:00,Good Things Festival,"448 Epsom Rd, Flemington VIC 3031, Australia",https://www.facebook.com/events/538561785557431/,-37.78925135,144.9127712588256
Weekly MTG Commander at The Gaming Arena,2024-12-10,00:00,The Gaming Arena,"123 Bakers Rd, Coburg North VIC 3058, Australia",https://www.facebook.com/events/1541838383370198/,-37.72715826,144.96115535488718
Condensed Milk Tuesdays,2024-12-10,02:03,Section 8,"27-29 Tattersalls Ln, Melbourne VIC 3000, Australia",https://www.facebook.com/events/3806429379629971/?event_time_id=3806429409629968,-37.8117457,144.965405
Spoken Word @ Bar Oussou!,2024-12-10,00:00,Bar Oussou,"653 Sydney Rd, Brunswick VIC 3056, Australia",https://www.facebook.com/events/492572360256978/,-37.7618155,144.9628753
Condensed Milk Tuesdays,2024-12-10,00:00,Section 8,"27-29 Tattersalls Ln, Melbourne VIC 3000, Australia",https://www.facebook.com/events/3806429379629971/?event_time_id=3806429496296626,-37.8117457,144.965405
Rom-Com: A Celebration of Romantic Comedies,2024-12-10,00:00,Lido Cinemas,"675 Glenferrie Rd, Hawthorn VIC 3122, Australia",https://www.facebook.com/events/995394008973998/,-37.8205529,145.0355738
Rat Child & Jack Kong: Part II at Open Studio,2024-12-10,00:00,Open Studio,"204 High St, Northcote VIC 3070, Australia",https://www.facebook.com/events/2150593112001875/,-37.7742382,144.9981587
Dance with Dagogo @ Circle Afro / Reggaeton Wednesday and Hip Hop Fridays,2024-12-11,19:00,Circle.,"36 Saint Edmonds Road #Level 1 Prahran, VIC 3181",https://www.eventbrite.com/e/dance-with-dagogo-circle-afro-reggaeton-wednesday-and-hip-hop-fridays-tickets-998076482627?aff=ebdssbdestsearch,-37.8499197,144.992012
311 // Sydney // Good Things Festival Sideshow // Liberty Hall,2024-12-11,19:00,Good Things Festival,"448 Epsom Rd, Flemington VIC 3031, Australia",https://www.facebook.com/events/1687410092040577/,-37.78925135,144.9127712588256
The Mark Fitzgibbon Trio,2024-12-11,00:00,Uptown Jazz Cafe,"1/177 Brunswick St, Fitzroy VIC 3065, Australia",https://www.facebook.com/events/1350429629277235/,-37.79705404,144.97869049756974
Trivia Night,2024-12-11,00:00,Inkerman Hotel,"375 Inkerman St, St Kilda East VIC 3183, Australia",https://www.facebook.com/events/2779506008881959/,-37.866444,144.99799715146656
PLAY: Magicians at Work,2024-12-11,01:58,Arts Centre Melbourne,"100 St Kilda Rd, Southbank VIC 3004, Australia",https://www.facebook.com/events/719102477012730/,-37.8216405,144.9683143
Mums Business Networking Coffee,2024-12-11,10:00,Stables Provedore Cafe,"71 Stables Circuit Doncaster, VIC 3108",https://www.eventbrite.com/e/mums-business-networking-coffee-tickets-1094837190509?aff=ebdssbdestsearch,-37.7868438,145.1152173
Hansel and Gretel for Schools and Families,2024-12-11,11:00,"Union Theatre, Arts and Cultural Building, The University of Melbourne, Parkville","761 Swanston Street Parkville, VIC 3052",https://www.eventbrite.com.au/e/hansel-and-gretel-for-schools-and-families-tickets-940702385157?aff=ebdssbdestsearch,-37.7985202,144.9634563
Construction Industry- Meet Up (Melb)- December,2024-12-11,16:30,340-344 Victoria St,"340-344 Victoria Street Richmond, VIC 3121",https://www.eventbrite.com.au/e/construction-industry-meet-up-melb-december-registration-1013439824797?aff=ebdssbdestsearch,-37.8109316,145.0027755
Adore Händel’s Potpourri - A whimsical variety soiree,2024-12-11,19:00,The Butterfly Club,"5 Carson Place Melbourne, VIC 3000",https://www.eventbrite.co.uk/e/adore-handels-potpourri-a-whimsical-variety-soiree-tickets-1068114050879?aff=ebdssbdestsearch,-37.8154472,144.9652725
PLAY: Magicians at Work,2024-12-11,0:00,Arts Centre Melbourne,"100 St Kilda Rd, Southbank VIC 3004, Australia",https://www.facebook.com/events/7955852801173144/,-37.8216405,144.9683143
GAGTIME AT RAGTIME - Comedy Night,2024-12-11,20:00,Ragtime Tavern,"206 Tyler St, Preston VIC 3072, Australia",https://www.facebook.com/events/943040384351585/,-37.7310367,145.0142411
In Conversation with United Visual Artists,2024-12-11,10:00,130 Swanston St,"130 Swanston Street Melbourne, VIC 3000",https://www.eventbrite.com/e/in-conversation-with-united-visual-artists-tickets-999217665937?aff=ebdssbdestsearch,-37.8146168,144.9664898
CHOOF & SATANIC DOG CUNTS,2024-12-11,19:00,The Last Chance,"238 Victoria St, Melbourne VIC 3000, Australia",https://www.facebook.com/events/555497527431855/,-37.8059962,144.9585654
Checkmates: FREE Social Board Gaming Event,2024-12-11,00:00,Fortress Melbourne,"Shop 25/23 Caledonian Ln, Melbourne VIC 3000, Australia",https://www.facebook.com/events/1617677221972877/,-37.8120357,144.9642299
Hänsel und Gretel,2024-12-11,19:00,"Union Theatre, Arts and Cultural Building, The University of Melbourne, Parkville","761 Swanston Street Parkville, VIC 3052",https://www.eventbrite.com.au/e/hansel-und-gretel-tickets-940706748207?aff=ebdssbdestsearch,-37.7985202,144.9634563
5-13 Years Acro/ Cheer Classes,2024-12-11,17:15,Dance Factory,"225 Swan Street Richmond, VIC 3121",https://www.eventbrite.com.au/e/5-13-years-acro-cheer-classes-tickets-1046583638837?aff=ebdssbdestsearch,-37.8257354,144.9998261
"Next stop, creativity",2024-12-11,10:00,Deakin Burwood Corporate Centre (BCC),"221 Burwood Highway Burwood, VIC 3125",https://www.eventbrite.com.au/e/next-stop-creativity-tickets-1085075783879?aff=ebdssbdestsearch,-37.8493578,145.1148984
Learn to Sew - PJ's,2024-12-11,18:00,Sew This Pattern Sewing Studio,"26 Horne Street Elsternwick, VIC 3185",https://www.eventbrite.com.au/e/learn-to-sew-pjs-tickets-1078798678889?aff=ebdssbdestsearch,-37.885246,145.0001915
Sunrise Yoga in the park,2024-12-11,06:00,A J Burkitt Oval,"50 Beverley Road Heidelberg, VIC 3084",https://www.eventbrite.com/e/sunrise-yoga-in-the-park-tickets-1028784430927?aff=ebdssbdestsearch,-37.7509327,145.0782149
Artificial Intelligence / Machine Learning 3 Days Workshop in Melbourne,2024-12-11,09:00,"For venue details reach us at info@mangates.com, PH: + 61(0) 2 80155605","Melbourne Melbourne, VIC",https://www.eventbrite.com/e/artificial-intelligence-machine-learning-3-days-workshop-in-melbourne-tickets-883117637627?aff=ebdssbdestsearch,-37.8136276,144.9630576
Melbourne speed dating for ages 26-44 by Cheeky Events Australia.,2024-12-11,19:00,The Collection Bar,"328 Bridge Road Richmond Melbourne, VIC 3121",https://www.eventbrite.com.au/e/melbourne-speed-dating-for-ages-26-44-by-cheeky-events-australia-tickets-1064083184449?aff=ebdssbdestsearch,-37.8190331,145.0022424
Private Hand Building Workshop with Kiln Firing,2024-12-11,16:00,"Heer Pottery - unit 3/29-31 Clarice Rd, Box Hill South VIC","29-31 Clarice Road #unit 3 Box Hill South, VIC 3128",https://www.eventbrite.com.au/e/private-hand-building-workshop-with-kiln-firing-tickets-1059244391489?aff=ebdssbdestsearch,-37.8333911,145.1339829
Liner Shipping Game™ Industry Networking Workshop,2024-12-11,12:30,GHD OFFICES,"180 Lonsdale Street Level 9 Melbourne, VIC 3000",https://www.eventbrite.com.au/e/liner-shipping-gametm-industry-networking-workshop-tickets-1066404938879?aff=ebdssbdestsearch,-37.8106946,144.9667461
Private Hand Building Workshop with Glaze and Firing,2024-12-11,16:00,"Heer Pottery - unit 3/29-31 Clarice Rd, Box Hill South VIC","29-31 Clarice Road #unit 3 Box Hill South, VIC 3128",https://www.eventbrite.com.au/e/private-hand-building-workshop-with-glaze-and-firing-tickets-1059231723599?aff=ebdssbdestsearch,-37.8333911,145.1339829
Yin Yoga at Artful Yoga Gallery,2024-12-11,18:00,Artful Yoga Gallery,"1 Vale Street St Kilda, VIC 3182",https://www.eventbrite.com.au/e/yin-yoga-at-artful-yoga-gallery-tickets-1068528871619?aff=ebdssbdestsearch,-37.866167,144.981767
"Cripps & Curnow LIVE at Shoppingtown Hotel, Doncaster!",2024-12-11,19:00,Shoppingtown Hotel,"19 Williamsons Road Doncaster, VIC 3108",https://www.eventbrite.com.au/e/cripps-curnow-live-at-shoppingtown-hotel-doncaster-tickets-1075300495729?aff=ebdssbdestsearch,-37.7851283,145.1227497
St Kilda Summer Singles - Ages 25-40 ish!,2024-12-11,19:00,Jekyll & Hyde,"175 Acland Street St Kilda, VIC 3182",https://www.eventbrite.com.au/e/st-kilda-summer-singles-ages-25-40-ish-tickets-1085004189739?aff=ebdssbdestsearch,-37.8694465,144.9802119
South and St Kilda Friendmaking Social | Melbourne Working Holiday Girls,2024-12-11,18:30,Loud Mouth,"168 Acland Street St Kilda, VIC 3182",https://www.eventbrite.com.au/e/south-and-st-kilda-friendmaking-social-melbourne-working-holiday-girls-tickets-1105111882389?aff=ebdssbdestsearch,-37.86934979999999,144.9806627
Meditation and Mindfulness Session - Learn to Love Yourself,2024-12-11,19:00,"Oracle of Crystals, 228 Glenferrie Road, Malvern VIC, Australia","228 Glenferrie Road Malvern, VIC 3144",https://www.eventbrite.com.au/e/meditation-and-mindfulness-session-learn-to-love-yourself-tickets-1046611562357?aff=ebdssbdestsearch,-37.8585334,145.0292064
Pop Icon Dance / Oh Santa! (Christmas Dance Class),2024-12-11,19:00,Transit Dance Studio,"64 Dawson Street Brunswick, VIC 3056",https://www.eventbrite.com.au/e/pop-icon-dance-oh-santa-christmas-dance-class-tickets-1091859353719?aff=ebdssbdestsearch,-37.7701752,144.9559255
BNI Yarra Business Partners Breakfast & Networking Event,2024-12-11,06:45,Au79,"29 Nicholson Street #27 Abbotsford, VIC 3067",https://www.eventbrite.com.au/e/bni-yarra-business-partners-breakfast-networking-event-tickets-1095930340149?aff=ebdssbdestsearch,-37.808833,144.995982
Pop-up Christmas kids event in Altona!,2024-12-11,11:00,Bezirk Cafe,"1A Millers Road Altona, VIC 3018",https://www.eventbrite.com.au/e/pop-up-christmas-kids-event-in-altona-tickets-1039877891767?aff=ebdssbdestsearch,-37.8707121,144.8379658
St Kilda Summer Singles - Rooftop bar,2024-12-11,19:00,Jekyll & Hyde,"175 Acland Street St Kilda, VIC 3182",https://www.eventbrite.com.au/e/st-kilda-summer-singles-rooftop-bar-tickets-1085004189739?aff=ebdssbdestsearch,-37.8694465,144.9802119
ONE PIECE - OP-09 PRE-RELEASE - Gameology BRUNSWICK - 11/12/2024,2024-12-11,06:30,Gameology Brunswick,"36 Hope Street Brunswick, VIC 3056",https://www.eventbrite.com.au/e/one-piece-op-09-pre-release-gameology-brunswick-11122024-tickets-1052976219217?aff=ebdssbdestsearch,-37.7636924,144.9595539
Sound Healing - Heart Space. Release the year - Sound Bath with Romy,2024-12-11,19:30,Private Studio in St Kilda East (see email for address),"Alma Road St Kilda East, VIC 3183",https://www.eventbrite.com.au/e/sound-healing-heart-space-release-the-year-sound-bath-with-romy-tickets-1076341559579?aff=ebdssbdestsearch,-37.8626178,145.0005983
Positive Workplace Behaviour  - Lunch & Learn Aug 2023,2024-12-11,12:00,Online,Melbourne Melbourne,https://www.eventbrite.com.au/e/positive-workplace-behaviour-lunch-learn-aug-2023-tickets-1008858652387?aff=ebdssbdestsearch,-37.8136276,144.9630576
Bottomless Evening Soireé,2024-12-11,18:00,"153 Johnston Street, Collingwood VIC, Australia","153 Johnston Street Collingwood, VIC 3066",https://www.eventbrite.com/e/bottomless-evening-soiree-tickets-1093051930749?aff=ebdssbdestsearch,-37.7997248,144.9900509
Can We Talk R&B Wednesday,2024-12-11,17:00,"Top Yard Rooftop, Geddes Lane, Melbourne VIC, Australia","Geddes Lane Melbourne, VIC 3000",https://www.eventbrite.com.au/e/can-we-talk-rb-wednesday-tickets-1089450789639?aff=ebdssbdestsearch,-37.8191519,144.9574746
Private Wheel Throwing Workshop with Kiln Firing,2024-12-11,02:30,"Heer Pottery - unit 3/29-31 Clarice Rd, Box Hill South VIC","29-31 Clarice Road #unit 3 Box Hill South, VIC 3128",https://www.eventbrite.com.au/e/private-wheel-throwing-workshop-with-kiln-firing-tickets-1057774515049?aff=ebdssbdestsearch,-37.8333911,145.1339829
Electric & Four Loko Presents Summer Never Sleeps with Liam Fitzgerald,2024-12-11,19:00,Electric Bar,"265-267 Chapel st Prahran, VIC 3181",https://www.eventbrite.com.au/e/electric-four-loko-presents-summer-never-sleeps-with-liam-fitzgerald-tickets-1096876851189?aff=ebdssbdestsearch,-37.8491548,144.9935126
Speed Dating Melbourne | In-Person | Cityswoon | Ages  30-45,2024-12-11,19:00,"Public House Richmond,","433-435 Church St Richmond Melbourne, VIC 3121",https://www.eventbrite.com.au/e/speed-dating-melbourne-in-person-cityswoon-ages-30-45-tickets-1056242131649?aff=ebdssbdestsearch,-37.8262058,144.9981095
Meditation and Mindfulness Session - Letting Go Of 2024,2024-12-11,19:00,"Oracle of Crystals, 228 Glenferrie Road, Malvern VIC, Australia","228 Glenferrie Road Malvern, VIC 3144",https://www.eventbrite.com.au/e/meditation-and-mindfulness-session-letting-go-of-2024-tickets-1046611562357?aff=ebdssbdestsearch,-37.8585334,145.0292064
Musicland Community Choir in Bebe's Bar @ MUSICLAND,2024-12-11,01:27,Musicland Melbourne,"1359 Sydney Rd, Fawkner VIC 3060, Australia",https://www.facebook.com/events/392049400005701/?event_time_id=392049483339026,-37.6916774,144.9585701581541
Musicland Community Choir in Bebe's Bar @ MUSICLAND,2024-12-11,00:00,Musicland Melbourne,"1359 Sydney Rd, Fawkner VIC 3060, Australia",https://www.facebook.com/events/392049400005701/,-37.6916774,144.9585701581541
Local The Neighbour EP Launch | Live at Punters Club,2024-12-11,21:00,Punters Club,"376 Brunswick St, Fitzroy VIC 3065, Australia",https://www.facebook.com/events/922647639805908/,-37.7960561,144.9790327
Trivia Night,2024-12-11,02:23,Inkerman Hotel,"375 Inkerman St, St Kilda East VIC 3183, Australia",https://www.facebook.com/events/2779506008881959/?event_time_id=2779506112215282,-37.866444,144.99799715146656
Checkmates: FREE Social Board Gaming Event,2024-12-11,02:46,Fortress Melbourne,"Shop 25/23 Caledonian Ln, Melbourne VIC 3000, Australia",https://www.facebook.com/events/1617677221972877/?event_time_id=1789350821472182,-37.8120357,144.9642299
The Mark Fitzgibbon Trio,2024-12-11,02:29,Uptown Jazz Cafe,"1/177 Brunswick St, Fitzroy VIC 3065, Australia",https://www.facebook.com/events/1350429629277235/?event_time_id=1350429642610567,-37.79705404,144.97869049756974
Walking Football ,2024-12-11,02:38,Keilor Basketball Netball Stadium,"Stadium Dr, Keilor Park VIC 3042, Australia",https://www.facebook.com/events/314971211132118/?event_time_id=314973614465211,-37.71397544,144.85424970601656
Chase Atlantic | Melbourne,2024-12-11,19:00,Arts Centre Melbourne,"100 St Kilda Rd, Southbank VIC 3004, Australia",https://www.facebook.com/events/881500716764086/,-37.8216405,144.9683143
Bowling For Soup // Brisbane // Good Things Festival Sideshow // Princess Theatre,2024-12-11,20:00,Good Things Festival,"448 Epsom Rd, Flemington VIC 3031, Australia",https://www.facebook.com/events/1736874500485895/,-37.78925135,144.9127712588256
PLAY: Magicians at Work,2024-12-11,01:59,Arts Centre Melbourne,"100 St Kilda Rd, Southbank VIC 3004, Australia",https://www.facebook.com/events/719102477012730/?event_time_id=719102490346062,-37.8216405,144.9683143
Walking Football ,2024-12-11,00:00,Keilor Basketball Netball Stadium,"Stadium Dr, Keilor Park VIC 3042, Australia",https://www.facebook.com/events/314971211132118/,-37.71397544,144.85424970601656
Open Mic @ BAR OUSSOU! ,2024-12-11,00:00,Bar Oussou,"653 Sydney Rd, Brunswick VIC 3056, Australia",https://www.facebook.com/events/844277771021573/,-37.7618155,144.9628753
The Harmonix Experience,2024-12-11,18:00,Bird's Basement,"11 Singers Ln, Melbourne VIC 3000, Australia",https://www.facebook.com/events/385777254500813/,-37.81114416,144.95680390283175
The Nth Pole   Xmas at Marvel Stadium,2024-12-11,00:00,Marvel Stadium,"740 Bourke St, Docklands VIC 3008, Australia",https://www.facebook.com/events/941454177905756/,-37.816529,144.94751697668812
(SOLD OUT) SINGSONGS: Christmas Edition Second Show,2024-12-11,0:00,arcobar heatherton,"8 Arco Ln, Heatherton VIC 3202, Australia",https://www.facebook.com/events/1272654983734462/,-37.94673685,145.07837928457485
Open Mic @ BAR OUSSOU! ,2024-12-11,01:45,Bar Oussou,"653 Sydney Rd, Brunswick VIC 3056, Australia",https://www.facebook.com/events/844277771021573/?event_time_id=844277811021569,-37.7618155,144.9628753
Mikelangelo + Anushka in the Woods ,2024-12-11,00:00,Open Studio,"204 High St, Northcote VIC 3070, Australia",https://www.facebook.com/events/489326527495571/,-37.7742382,144.9981587
Warhammer: The Horus Heresy league night,2024-12-11,00:00,The Gaming Arena,"123 Bakers Rd, Coburg North VIC 3058, Australia",https://www.facebook.com/events/912618530441913/,-37.72715826,144.96115535488718
Star Wars Unlimited: Weekly Play - Constructed ,2024-12-11,00:00,The Gaming Arena,"123 Bakers Rd, Coburg North VIC 3058, Australia",https://www.facebook.com/events/924943862822746/,-37.72715826,144.96115535488718
Sesame Girl,2024-12-12,19:00,Stay Gold,"133 Sydney Rd Brunswick Melbourne, VIC 3056",https://www.eventbrite.com.au/e/sesame-girl-tickets-1041515319357?aff=ebdssbdestsearch,-37.7743822,144.9606172
Manningham Event ”Tips on How to Improve Your Business”,2024-12-12,10:00,Redgum Cafe,"109 Wood Street Templestowe, VIC 3106",https://www.eventbrite.com.au/e/manningham-event-tips-on-how-to-improve-your-business-tickets-1095822106419?aff=ebdssbdestsearch,-37.7555264,145.1295634
Busted Chops Annual Christmas - Open Studio Farewell Show! ,2024-12-12,00:00,Open Studio,"204 High St, Northcote VIC 3070, Australia",https://www.facebook.com/events/1259414268704921/,-37.7742382,144.9981587
LOVE & FORGETTING – Tales from a Young Mixer,2024-12-12,06:30,1806,"169 Exhibition Street Melbourne, VIC 3000",https://www.eventbrite.com.au/e/love-forgetting-tales-from-a-young-mixer-tickets-1081366368919?aff=ebdssbdestsearch,-37.8116478,144.9701118
✨Compatible Speed Dating with a Chance | Ages 24-31  | Melbourne CBD✨,2024-12-12,20:00,Fable Melbourne,"168 Lonsdale Street Level 13 Melbourne, VIC 3000",https://www.eventbrite.com.au/e/compatible-speed-dating-with-a-chance-ages-24-31-melbourne-cbd-tickets-1092173713979?aff=ebdssbdestsearch,-37.8105688,144.967374
Adult Beginner Jazz Classes,2024-12-12,07:30,Dance Factory,"Melbourne VIC, Australia 225 Swan St Richmond Melbourne, VIC",https://www.eventbrite.com.au/e/adult-beginner-jazz-classes-tickets-933189293297?aff=ebdssbdestsearch,-37.8257354,144.9998261
Kingston Collective Christmas Party!,2024-12-12,18:00,LOEV,"77 Keys Road Moorabbin, VIC 3189",https://www.eventbrite.com.au/e/kingston-collective-christmas-party-tickets-1040255631597?aff=ebdssbdestsearch,-37.9484271,145.067727
Comedy @ Sonder,2024-12-12,20:30,Sonder Bar,"438 Centre Road Bentleigh, VIC 3204",https://www.eventbrite.com.au/e/comedy-sonder-tickets-1018428806977?aff=ebdssbdestsearch,-37.918552,145.038282
ALETHIA X Vanessa Estrada X Liana Perilla,2024-12-12,07:30,Bad Decisions Bar,"46 Johnston Street Fitzroy, VIC 3065",https://www.eventbrite.com.au/e/alethia-x-vanessa-estrada-x-liana-perilla-tickets-1076311730359?aff=ebdssbdestsearch,-37.7982682,144.9762913
Rhythm Thursdays,2024-12-12,21:00,Circus Bar,"199 Commercial Road South Yarra, VIC 3141",https://www.eventbrite.com.au/e/rhythm-thursdays-tickets-1015108094637?aff=ebdssbdestsearch,-37.8465589,144.993086
City LOVE Scavenger Hunt Date Night For Couples - Melbourne Vic Area,2024-12-12,13:00,**Recommended starting point or another city spot of your choice! (MUST USE PDF TICKETS-NO QR CODES),"33 Lincoln Square South Carlton, VIC 3053",https://www.eventbrite.com/e/city-love-scavenger-hunt-date-night-for-couples-melbourne-vic-area-tickets-910283571667?aff=ebdssbdestsearch,-37.8033885,144.9623452
ASPIRE - Networking and Conversation Series 7,2024-12-12,17:30,"22 Cohen Place, Melbourne VIC 3000, Australia","22 Cohen Place Melbourne, VIC 3000",https://www.eventbrite.com/e/aspire-networking-and-conversation-series-7-tickets-1098492303049?aff=ebdssbdestsearch,-37.8107583,144.9691694
Shamanic Breathwork Journey: SPIRIT - Elemental Cycle Five-Part Series.,2024-12-12,18:30,Centre of You,"Upstairs, 217 Chapel St Prahran Melbourne, VIC 3181",https://www.eventbrite.com.au/e/shamanic-breathwork-journey-spirit-elemental-cycle-five-part-series-tickets-1042479784097?aff=ebdssbdestsearch,-37.8509316,144.9933031
Mixed Coffee Incense Making Workshop,2024-12-12,11:00,HEER POTTERY ART,"31 Clarice Road #unit3/29 Box Hill South, VIC 3128",https://www.eventbrite.com.au/e/halloween-special-mixed-coffee-incense-making-workshop-tickets-1029583460847?aff=ebdssbdestsearch,-37.833062,145.1337404
"Bottomless Cocktails at Top Yard, Melb CBD",2024-12-12,17:00,Top Yard Rooftop,"2 Geddes Lane Melbourne, VIC 3000",https://www.eventbrite.com.au/e/bottomless-cocktails-at-top-yard-melb-cbd-tickets-859288333537?aff=ebdssbdestsearch,-37.8189705,144.957155
Thursday Language Exchange at Diesel bar,2024-12-12,18:00,Diesel Bar & Eatery,"202 Little Lonsdale Street Melbourne, VIC 3000",https://www.eventbrite.com.au/e/thursday-language-exchange-at-diesel-bar-tickets-893388758827?aff=ebdssbdestsearch,-37.8107335,144.9634703
Three Course Christmas Dinner at Overnewton Castle,2024-12-12,19:00,Overnewton Castle,"51 Overnewton Road Keilor, VIC 3036",https://www.eventbrite.com.au/e/three-course-christmas-dinner-at-overnewton-castle-tickets-967216278927?aff=ebdssbdestsearch,-37.7048096,144.8209018
Women Of Westpac Christmas Event,2024-12-12,4:30,150 Collins St,"150 Collins Street Melbourne, VIC 3000",https://www.eventbrite.com/e/women-of-westpac-christmas-event-tickets-1040251228427?aff=ebdssbdestsearch,-37.8164276,144.9630757
Christmas Gift Crafting! Leather Belt or Dog Collar,2024-12-12,10:00,Leffler Leather,"171 Kensington Road West Melbourne, VIC 3003",https://www.eventbrite.com.au/e/christmas-gift-crafting-leather-belt-or-dog-collar-tickets-1102777239409?aff=ebdssbdestsearch,-37.8000316,144.9177826
Fresh Networking Doncaster - Guest Registration,2024-12-12,07:30,Salted Caramel Cafe,"6 Macedon Road Templestowe Lower, VIC 3107",https://www.eventbrite.com.au/e/fresh-networking-doncaster-guest-registration-tickets-803814529897?aff=ebdssbdestsearch,-37.7728846,145.1127765
Blossoming Couture Christmas Bouquet Workshop,2024-12-12,17:00,129 Nicholson St,"129 Nicholson Street Brunswick East, VIC 3057",https://www.eventbrite.com.au/e/blossoming-couture-christmas-bouquet-workshop-tickets-1098440468009?aff=ebdssbdestsearch,-37.7723327,144.9791115
Base Chakradance Journey,2024-12-12,19:00,Wild Grace Studio,"4a Canterbury Rd Toorak, VIC 3142",https://www.eventbrite.com.au/e/base-chakradance-journey-tickets-1088983181009?aff=ebdssbdestsearch,-37.84860159999999,145.0094229
"Allysha Joy ""The Making Of Silk"" World Tour",2024-12-12,19:30,The Night Cat,"137-141 Johnston St, Fitzroy VIC 3065, Australia",https://www.facebook.com/events/1482688682598053/,-37.7982971,144.978128
ATAR Results Party,2024-12-12,20:00,onesixone rooftop,"161 high st prahran, VIC 3181",https://www.eventbrite.com.au/e/atar-results-party-tickets-864801172587?aff=ebdssbdestsearch,-37.851542,144.9909994
ONE PIECE - OP-09 PRE-RELEASE - Gameology CLAYTON SOUTH - 12/12/2024,2024-12-12,06:30,Gameology,"12 Eileen Road Clayton South, VIC 3169",https://www.eventbrite.com.au/e/one-piece-op-09-pre-release-gameology-clayton-south-12122024-tickets-1052908627047?aff=ebdssbdestsearch,-37.9512104,145.1347381
Master of Speech Pathology Celebration and Awards Evening 2024,2024-12-12,18:00,Melbourne Business School,"200 Leicester Street Carlton, VIC 3053",https://www.eventbrite.com.au/e/master-of-speech-pathology-celebration-and-awards-evening-2024-tickets-1033125515227?aff=ebdssbdestsearch,-37.801358,144.96116515896085
Building Sexual Confidence: A workshop with Jamie Bucirde,2024-12-12,19:00,CONCIERGE,"386 Bridge Road Richmond, VIC 3121",https://www.eventbrite.com.au/e/building-sexual-confidence-a-workshop-with-jamie-bucirde-tickets-1090366659029?aff=ebdssbdestsearch,-37.819321,145.004389
Journey to Wholeness: Gong Sound Healing at Vyve Meditation Centre (EES),2024-12-12,19:00,Vyve Meditation Centre,"266 Bolton Street #1A Eltham, VIC 3095",https://www.eventbrite.com.au/e/journey-to-wholeness-gong-sound-healing-at-vyve-meditation-centre-ees-tickets-1064900589329?aff=ebdssbdestsearch,-37.720178,145.138187
Christmas Lunch at Overnewton Castle,2024-12-12,12:00,Overnewton Castle,"51 Overnewton Road Keilor, VIC 3036",https://www.eventbrite.com.au/e/christmas-lunch-at-overnewton-castle-tickets-967203139627?aff=ebdssbdestsearch,-37.7048096,144.8209018
Create Wealth Through Property,2024-12-12,18:00,379-399 Whitehorse Rd,"379-399 Whitehorse Road Nunawading, VIC 3131",https://www.eventbrite.com.au/e/create-wealth-through-property-tickets-1059313899389?aff=ebdssbdestsearch,-37.8176992,145.1816984
Pentridge Prison - H Division Night Tours November 2024 - January 2025,2024-12-12,18:30,Pentridge Prison,"1 Champ Street Coburg, VIC 3058",https://www.eventbrite.com.au/e/pentridge-prison-h-division-night-tours-november-2024-january-2025-tickets-909558482907?aff=ebdssbdestsearch,-37.7370508,144.9677596
"""FREE-ish"" LIVE JAZZ: in Melbourne's Historic Bluestone Cellar c1854",2024-12-12,19:00,"Life's Too Short Bar, Tribeca Arcade, Victoria Parade, East Melbourne VIC, Australia","412 Victoria Parade #Shop 2 East Melbourne, VIC 3002",https://www.eventbrite.com.au/e/free-ish-live-jazz-in-melbournes-historic-bluestone-cellar-c1854-tickets-805465849037?aff=ebdssbdestsearch,-37.8096207,144.985273
Birthday Parties,2024-12-12,10:00,18 St Heliers St,"18 Saint Heliers Street Abbotsford, VIC 3067",https://www.eventbrite.com/e/birthday-parties-tickets-1003393526047?aff=ebdssbdestsearch,-37.8025941,145.0053244
"FeelGoodFlows - Sunrise Yoga Thursdays - Meditation, Breathwork, & Mobility",2024-12-12,06:30,South Melbourne Life Saving Club,"72B Beaconsfield Parade Albert Park, VIC 3206",https://www.eventbrite.com.au/e/feelgoodflows-sunrise-yoga-thursdays-meditation-breathwork-mobility-tickets-1044511310447?aff=ebdssbdestsearch,-37.8471341,144.9466738
The QUO Story (formerly HEAVY TRAFFIC) direct from The U.K. with Special Guest - RICHIE MALONE,2024-12-12,19:30,Musicland Melbourne,"1359 Sydney Rd, Fawkner VIC 3060, Australia",https://www.facebook.com/events/4195097390759207/,-37.6916774,144.9585701581541
Fight Night | Fortress x CouchWarriors ,2024-12-12,00:00,Fortress Melbourne,"Shop 25/23 Caledonian Ln, Melbourne VIC 3000, Australia",https://www.facebook.com/events/1014315667116008/,-37.8120357,144.9642299
Adult Beginner Ballet Classes,2024-12-12,06:30,Dance Factory,"Melbourne VIC, Australia 225 Swan St Richmond Melbourne, VIC",https://www.eventbrite.com.au/e/adult-beginner-ballet-classes-tickets-933188220087?aff=ebdssbdestsearch,-37.8257354,144.9998261
SESAME GIRL AT STAY GOLD,2024-12-12,19:00,Stay Gold,"133 Sydney Rd, Brunswick VIC 3056, Australia",https://www.facebook.com/events/595461033014697/,-37.7743469,144.9607404
Young Dumb Immature EP Tour ,2024-12-12,00:00,The Workers Club,"51 Brunswick St, Fitzroy VIC 3065, Australia",https://www.facebook.com/events/561337243499899/,-37.8055776,144.9769450659087
Spirit HAPPY HOUR + Spin to WIN!,2024-12-12,00:00,Inkerman Hotel,"375 Inkerman St, St Kilda East VIC 3183, Australia",https://www.facebook.com/events/508452218649178/?event_time_id=508452325315834,-37.866444,144.99799715146656
"GUERNS THURS - $4 Pots, Seltzers $6 Vodkas!",2024-12-12,00:00,New Guernica,"64 Smith St, Collingwood VIC 3066, Australia",https://www.facebook.com/events/1676300169982708/,-37.80624775,144.98331211946754
The Nth Pole   Xmas at Marvel Stadium,2024-12-12,00:00,Marvel Stadium,"740 Bourke St, Docklands VIC 3008, Australia",https://www.facebook.com/events/1010954950838115/,-37.816529,144.94751697668812
Freya Josephine Hollick | Live at Punters Club,2024-12-12,21:00,Punters Club,"376 Brunswick St, Fitzroy VIC 3065, Australia",https://www.facebook.com/events/551553557515556/,-37.7960561,144.9790327
Mar Y Mar @ BAR OUSSOU!,2024-12-12,20:00,Bar Oussou,"653 Sydney Rd, Brunswick VIC 3056, Australia",https://www.facebook.com/events/485098727896380/,-37.7618155,144.9628753
Carols By The Bay,2024-12-12,21:15,Altona Sports Club,"11 Altona Rd, Altona VIC 3018, Australia",https://www.facebook.com/events/2018390251965139/,-37.85754867,144.85121805353086
Daft Punk & Leiji Matsumoto: Interstella 5555,2024-12-12,19:00,Palace Cinemas,"1 Champ St, Coburg VIC 3058, Australia",https://www.facebook.com/events/1644886876385110/,-37.736826,144.968318
Wonderland Thursdays | 1st Birthday,2024-12-12,00:00,StoryVille,"185 Lonsdale St, Melbourne VIC 3000, Australia",https://www.facebook.com/events/938160845044825/,-37.81117675,144.9668442406415
Wolf and Willie & Thursday Night Jam!,2024-12-12,0:00,Hume Blues Club Inc,"27 Ballantyne St, Thornbury VIC 3071, Australia",https://www.facebook.com/events/506055805343156/,-37.7588241,144.9985126
"GUERNS THURS - $4 Pots, Seltzers $6 Vodkas! ",2024-12-12,00:00,New Guernica,"64 Smith St, Collingwood VIC 3066, Australia",https://www.facebook.com/events/1493806701286241/,-37.80624775,144.98331211946754
HOLLY JOLLY QUEENS,2024-12-12,0:00,Murmur Piano Bar,"17 Warburton Ln, Melbourne VIC 3000, Australia",https://www.facebook.com/events/1269064844267980/,-37.8138247,144.9619345916501
The Blueberry Muffins at One2ThreeBar!,2024-12-12,19:00,One2three Bar,"123 Queens Parade, Clifton Hill VIC 3068, Australia",https://www.facebook.com/events/889334350036207/,-37.7892833,144.9901391
Business Networking - Williamstown,2024-12-12,06:45,Customs House Hotel Williamstown,"161 Nelson Place Williamstown, VIC 3016",https://www.eventbrite.com.au/e/business-networking-williamstown-tickets-906597145467?aff=ebdssbdestsearch,-37.863157,144.903962
ALETHIA X Vanessa Estrada X Liana Perilla,2024-12-12,0:00,Bad Decisions Bar,"46 Johnston St, Fitzroy VIC 3065, Australia",https://www.facebook.com/events/942622567710868/,-37.798246,144.9762881
Bowling For Soup // Melbourne // Good Things Festival Sidshow // Corner Hotel,2024-12-12,19:00,Good Things Festival,"448 Epsom Rd, Flemington VIC 3031, Australia",https://www.facebook.com/events/1287088212655863/,-37.78925135,144.9127712588256
Josh van Cuylenburg | Melbourne,2024-12-12,19:00,Northcote Social Club,"301 High St, Northcote VIC 3070, Australia",https://www.facebook.com/events/1961316231049432/,-37.771471,144.998414
Not On Your Rider Christmas Spectacular,2024-12-12,19:30,Brunswick Ballroom,"314 Sydney Rd, Brunswick VIC 3056, Australia",https://www.facebook.com/events/7074087509383207/,-37.7704205,144.9617083
Strawberry Prince & Planet Pain at the Merri Creek Tavern,2024-12-12,0:00,The Merri Creek Tavern,"111 High St, Northcote VIC 3070, Australia",https://www.facebook.com/events/967472782075826/,-37.7794356,144.996838
The Australian Ballet's The Nutcracker on the Big Screen,2024-12-12,0:00,Fed Square,"Swanston St &, Flinders St, Melbourne VIC 3000, Australia",https://www.facebook.com/events/580378198236956/,-37.81767355,144.9667825800355
"Mastering Music, Mastering Life",2024-12-12,0:00,Howler,"7-11 Dawson St, Brunswick VIC 3056, Australia",https://www.facebook.com/events/578209188089568/,-37.7720304,144.9596527
Momoko Rose  // Thursday Arvo Gig Series,2024-12-12,14:00,Kindred Bandroom,"3 Harris St, Footscray VIC 3011, Australia",https://www.facebook.com/events/429749713494539/,-37.8119001,144.9008247
"Joe Camilleri presents Bakelite Radio ""Old Friends and New Companions",2024-12-12,17:00,Bird's Basement,"11 Singers Ln, Melbourne VIC 3000, Australia",https://www.facebook.com/events/2909499569218129/,-37.81114416,144.95680390283175
"(Last Tickets!) 'Merry Christmas, Darling' The Carpenters Christmas Special Dinner & Show",2024-12-12,00:00,arcobar heatherton,"8 Arco Ln, Heatherton VIC 3202, Australia",https://www.facebook.com/events/481950451278938/,-37.94673685,145.07837928457485
Stupid F*ck Is Sick Of This Sh*t - fundraiser gig for Safe Steps,2024-12-12,19:00,The Last Chance,"238 Victoria St, Melbourne VIC 3000, Australia",https://www.facebook.com/events/1337355217675785/,-37.8059962,144.9585654
"Raise Your Frequency - A Sound, Voice and Movement Journey",2024-12-13,19:00,St Martins Hall,"120 Millswyn Street South Yarra, VIC 3141",https://www.eventbrite.com.au/e/raise-your-frequency-a-sound-voice-and-movement-journey-tickets-1086231009189?aff=ebdssbdestsearch,-37.8345297,144.9810373
Pentridge Prison - The Night Watch Tour | December 2024 - January 2025,2024-12-13,20:30,Pentridge Prison,"1 Champ Street Coburg, VIC 3058",https://www.eventbrite.com.au/e/pentridge-prison-the-night-watch-tour-december-2024-january-2025-tickets-1098498451439?aff=ebdssbdestsearch,-37.7370508,144.9677596
Business Succession Planning 1 Day Training in Melbourne,2024-12-13,09:00,For venue details reach us at info@academyforpros.com,"PH: + 61(0) 2 80155605 Melbourne, VIC 3000",https://www.eventbrite.ca/e/business-succession-planning-1-day-training-in-melbourne-tickets-805182832527?aff=ebdssbdestsearch,-37.8152065,144.963937
Software Testing Essentials For Developers 1 Day Training in Melbourne,2024-12-13,09:00,For venue details reach us at info@academyforpros.com,"PH: + 61(0) 2 80155605 Melbourne, VIC 3000",https://www.eventbrite.ca/e/software-testing-essentials-for-developers-1-day-training-in-melbourne-tickets-805255580117?aff=ebdssbdestsearch,-37.8152065,144.963937
[75% SOLD] Melbourne’s Biggest K-Pop Party [1st Release Ends Tonight!],2024-12-13,22:00,Inflation,"60 King Street Melbourne, VIC 3000",https://www.eventbrite.com.au/e/75-sold-melbournes-biggest-k-pop-party-1st-release-ends-tonight-tickets-1061781780889?aff=ebdssbdestsearch,-37.8188863,144.9571605
Business Etiquette 1 Day Training in Melbourne,2024-12-13,09:00,For venue details reach us at info@academyforpros.com,"PH: + 61(0) 2 80155605 Melbourne, VIC 3000",https://www.eventbrite.ca/e/business-etiquette-1-day-training-in-melbourne-tickets-805118279447?aff=ebdssbdestsearch,-37.8152065,144.963937
Melbourne Speed Dating | Friday Event | Ages 27-49 | Fancy A Go?,2024-12-13,19:00,The Metropolitan Hotel,"265 William Street Melbourne, VIC 3000",https://www.eventbrite.com/e/melbourne-speed-dating-friday-event-ages-27-49-fancy-a-go-tickets-1068825117699?aff=ebdssbdestsearch,-37.812902,144.9566615
Warner Brothers  at The Lomond Hotel,2024-12-13,21:00,The Lomond Hotel,"225 Nicholson Street Brunswick East, VIC 3057",https://www.eventbrite.com.au/e/warner-brothers-at-the-lomond-hotel-tickets-1070420078269?aff=ebdssbdestsearch,-37.7670861,144.9800057
Melbourne Speed Dating | Friday Event | Ages 27-49 | SpeedAustralia,2024-12-13,19:00,The Metropolitan Hotel,"265 William Street Melbourne, VIC 3000",https://www.eventbrite.com/e/melbourne-speed-dating-friday-event-ages-27-49-speedaustralia-tickets-1068820032489?aff=ebdssbdestsearch,-37.812902,144.9566615
Deep Relaxation + Gratitude Meditation & Sound Healing Journey with Sevelin,2024-12-13,19:00,Hampton Community Centre - Main Hall,"14 Willis Street Hampton, VIC 3188",https://www.eventbrite.com.au/e/deep-relaxation-gratitude-meditation-sound-healing-journey-with-sevelin-tickets-999912744937?aff=ebdssbdestsearch,-37.9366752,145.0015043
"CHEF'S TABLE: 8-course Themed Degustation ""Surprise Me""",2024-12-13,18:30,"Life's Too Short Bar, Tribeca Arcade, Victoria Parade, East Melbourne VIC, Australia","412 Victoria Parade #Shop 2 East Melbourne, VIC 3002",https://www.eventbrite.com.au/e/chefs-table-8-course-themed-degustation-surprise-me-tickets-805462920277?aff=ebdssbdestsearch,-37.8096207,144.985273
Hiit Republic Coburg Members Christmas Party,2024-12-13,18:00,Princes Park Carlton Bowls Club,"109 Bowen Crescent Carlton North, VIC 3054",https://www.eventbrite.com.au/e/hiit-republic-coburg-members-christmas-party-tickets-1086533293329?aff=ebdssbdestsearch,-37.7791598,144.9616783
Sing with Us in Arabic,2024-12-13,19:00,Town Hall Broadmeadows,"10 Dimboola Road Broadmeadows, VIC 3047",https://www.eventbrite.com/e/sing-with-us-in-arabic-tickets-1098426967629?aff=ebdssbdestsearch,-37.6826286,144.9175262
The DOT presents GOLDIE (3 Hour Set),2024-12-13,21:00,The Third Day,"290 Macaulay Road North Melbourne, VIC 3051",https://www.eventbrite.com.au/e/the-dot-presents-goldie-3-hour-set-tickets-1079170641439?aff=ebdssbdestsearch,-37.79495975,144.93665199999998
Paint  And Sip: Painting Partners | Melbourne Painting Class,2024-12-13,18:45,Paint for Fun,"252 Graham Street #Unit 1 Port Melbourne, VIC 3207",https://www.eventbrite.com.au/e/paint-and-sip-painting-partners-melbourne-painting-class-tickets-1004864686327?aff=ebdssbdestsearch,-37.8386895,144.9385483
Managing Performance 1 Day Training in Melbourne,2024-12-13,09:00,For venue details reach us at info@academyforpros.com,"PH: + 61(0) 2 80155605 Melbourne, VIC 3000",https://www.eventbrite.ca/e/managing-performance-1-day-training-in-melbourne-tickets-806236223247?aff=ebdssbdestsearch,-37.8152065,144.963937
Paint in the Dark© for Small Teams,2024-12-13,14:00,Paint for Fun,"252 Graham Street #Unit 1 Port Melbourne, VIC 3207",https://www.eventbrite.com.au/e/paint-in-the-dark-for-small-teams-tickets-1024453717647?aff=ebdssbdestsearch,-37.8386895,144.9385483
ATET Forever: The Journey,2024-12-13,19:00,Docklands,"docklands ferry Docklands, VIC 3008",https://www.eventbrite.com.au/e/atet-forever-the-journey-tickets-1093457453679?aff=ebdssbdestsearch,,
Risk Assessment 1 Day Training in Melbourne,2024-12-13,09:00,"For venue details reach us at info@academyforpros.com, PH: + 61(0) 2 80155605","Melbourne Melbourne, VIC",https://www.eventbrite.ca/e/risk-assessment-1-day-training-in-melbourne-tickets-894147528327?aff=ebdssbdestsearch,-37.8136276,144.9630576
BEST PARTY IN MELBOURNE,2024-12-13,19:00,35 Nevin Dr,"35 Nevin Drive Thomastown, VIC 3074",https://www.eventbrite.com/e/best-party-in-melbourne-tickets-1080151745949?aff=ebdssbdestsearch,-37.6958616,145.0330255
Lucy Best's Disgraceful Christmas!,2024-12-13,19:00,The Butterfly Club,"5 Carson Place Melbourne, VIC 3000",https://www.eventbrite.co.uk/e/lucy-bests-disgraceful-christmas-tickets-1007227473487?aff=ebdssbdestsearch,-37.8154472,144.9652725
Performance Management 1 Day Training in Melbourne,2024-12-13,09:00,For venue details reach us at info@academyforpros.com,"PH: + 61(0) 2 80155605 Melbourne, VIC 3000",https://www.eventbrite.ca/e/performance-management-1-day-training-in-melbourne-tickets-806288599907?aff=ebdssbdestsearch,-37.8152065,144.963937
Mother Tongue Poetry Melbourne: DECEMBER 2024: Teagan Webb,2024-12-13,07:30,St Andrews Alphington / Fairfield Uniting Church,"87 Gillies Street Fairfield, VIC 3078",https://www.eventbrite.com.au/e/mother-tongue-poetry-melbourne-december-2024-teagan-webb-tickets-852687309697?aff=ebdssbdestsearch,-37.776972,145.017551
Santa’s Naughty Pop Sleigh,2024-12-13,10:00,Chasers Nightclub,"386 Chapel Street South Yarra, VIC 3141",https://www.eventbrite.com.au/e/santas-naughty-pop-sleigh-tickets-1096964433149?aff=ebdssbdestsearch,-37.8459028,144.9947039
Loose News,2024-12-13,20:30,The Butterfly Club,"5 Carson Place Melbourne, VIC 3000",https://www.eventbrite.co.uk/e/loose-news-tickets-991601275107?aff=ebdssbdestsearch,-37.8154472,144.9652725
Microsoft Power BI for Business Users 1 Day Training in Melbourne,2024-12-13,09:00,For venue details reach us at info@mangates.com,"PH: + 61(0) 2 80155605 Melbourne, VIC 3000",https://www.eventbrite.com/e/microsoft-power-bi-for-business-users-1-day-training-in-melbourne-tickets-829798759427?aff=ebdssbdestsearch,-37.8152065,144.963937
"Acoutikiss Farewell show! Cherry Bar, FRI DEC 13th",2024-12-13,20:00,"Cherry Bar, Little Collins Street, Melbourne VIC, Australia","68 Little Collins Street Melbourne, VIC 3000",https://www.eventbrite.com.au/e/acoutikiss-farewell-show-cherry-bar-fri-dec-13th-tickets-1050152754157?aff=ebdssbdestsearch,-37.8129293,144.9714986
Melbourne Magic Show - Impossible Occurrences,2024-12-13,19:30,Melbourne Marriott Hotel,"Cnr Lonsdale & Exhibition St Melbourne, VIC 3000",https://www.eventbrite.com.au/e/melbourne-magic-show-impossible-occurrences-tickets-947627648807?aff=ebdssbdestsearch,-37.8100597,144.9697004
"Melbourne Language Exchange | Make Friends, Learn Languages & Culture",2024-12-13,17:30,215 Queen's Restaurant and Bar Melbourne,"215 Queen Street Melbourne, VIC 3000",https://www.eventbrite.com.au/e/melbourne-language-exchange-make-friends-learn-languages-culture-tickets-1059091584439?aff=ebdssbdestsearch,-37.8137947,144.9598607
"IT Social Melbourne | Data, Technology, Cybersecurity, IT",2024-12-13,17:30,215 Queen's Restaurant and Bar Melbourne,"215 Queen Street Melbourne, VIC 3000",https://www.eventbrite.com.au/e/it-social-melbourne-data-technology-cybersecurity-it-tickets-951030647267?aff=ebdssbdestsearch,-37.8137947,144.9598607
Art at Aura Cafe for Toddler and Pre-School Kids,2024-12-13,10:00,388 Malvern Rd,"388 Malvern Road Prahran, VIC 3181",https://www.eventbrite.com.au/e/art-at-aura-cafe-for-toddler-and-pre-school-kids-tickets-1001091891797?aff=ebdssbdestsearch,-37.84777,144.999497
Drago's Afterparty @ The Hawthorn Hotel,2024-12-13,19:00,The Hawthorn Hotel,"481 Burwood Road Hawthorn, VIC 3122",https://www.eventbrite.com/e/dragos-afterparty-the-hawthorn-hotel-tickets-1103433171319?aff=ebdssbdestsearch,-37.8230024,145.0399918
DETTY DECEMBER,2024-12-13,21:00,Melbourne,"1 Melbourne, VIC 3030",https://www.eventbrite.com.au/e/detty-december-tickets-1079068285289?aff=ebdssbdestsearch,-37.938058,144.6753231
Rnb Pop and Girlie Hip Hop Fridays !,2024-12-13,19:00,Circle.,"36 Saint Edmonds Road #Level 1 Prahran, VIC 3181",https://www.eventbrite.com/e/rnb-pop-and-girlie-hip-hop-fridays-tickets-1010340304047?aff=ebdssbdestsearch,-37.8499197,144.992012
BNI Horizon Networking,2024-12-13,06:45,True South,"298 Beach Road Black Rock, VIC 3193",https://www.eventbrite.com.au/e/bni-horizon-networking-tickets-1022460947217?aff=ebdssbdestsearch,-37.975729,145.0164627
Bliss Fridays- Bottomless Bliss Drinks Package at Morris Jones,2024-12-13,19:00,Inca | Morris Jones Restaurant & Cocktail Bar,"163 Chapel Street Windsor, VIC 3181",https://www.eventbrite.com/e/bliss-fridays-bottomless-bliss-drinks-package-at-morris-jones-tickets-1095914282119?aff=ebdssbdestsearch,-37.8523323,144.9930063
Data Science & Analytics meetup and chat Melbourne,2024-12-13,17:30,215 Queen's Restaurant and Bar Melbourne,"215 Queen Street Melbourne, VIC 3000",https://www.eventbrite.com.au/e/data-science-analytics-meetup-and-chat-melbourne-tickets-951030536937?aff=ebdssbdestsearch,-37.8137947,144.9598607
Meet People Social Melbourne | Cultural International Party,2024-12-13,17:30,215 Queen's Restaurant and Bar Melbourne,"215 Queen Street Melbourne, VIC 3000",https://www.eventbrite.com.au/e/meet-people-social-melbourne-cultural-international-party-tickets-951030677357?aff=ebdssbdestsearch,-37.8137947,144.9598607
"BOLLYWOOD CLUB Presents Friday Night at Crown, Melbourne",2024-12-13,21:30,Crown Melbourne,"8 Whiteman Street Southbank, VIC 3006",https://www.eventbrite.com.au/e/bollywood-club-presents-friday-night-at-crown-melbourne-tickets-999153042647?aff=ebdssbdestsearch,-37.82343669999999,144.9580861
Flamingo Club,2024-12-13,21:00,Pawn & Co,"177 Greville Street Prahran, VIC 3181",https://www.eventbrite.com.au/e/flamingo-club-tickets-934233155517?aff=ebdssbdestsearch,-37.8493266,144.9926289
Effective Communication Skills & Strategies Session for your Team-Melbourne,2024-12-13,09:00,"Training at your own premises or your preferred venue. Reach us at ""corporate@mangates.com"" for more details.","PH: + 61(0) 2 80155605 Melbourne, VIC 3000",https://www.eventbrite.com/e/effective-communication-skills-strategies-session-for-your-team-melbourne-tickets-840083962747?aff=ebdssbdestsearch,-37.8152065,144.963937
Mastering Standard Operating Procedures for Efficiency & Growth,2024-12-13,10:00,Melbourne Incubator Center - Online Event,"120 Collins Street Melbourne, VIC 3000",https://www.eventbrite.com/e/mastering-standard-operating-procedures-for-efficiency-growth-tickets-1083356832449?aff=ebdssbdestsearch,-37.8142665,144.9696592
Sleigh Girl Sleigh 2: The Sleighing,2024-12-13,22:00,The Butterfly Club,"5 Carson Place Melbourne, VIC 3000",https://www.eventbrite.co.uk/e/sleigh-girl-sleigh-2-the-sleighing-tickets-1015084253327?aff=ebdssbdestsearch,-37.8154472,144.9652725
Kindred Singles (20s-40s) Festive Edition - Dating for Conscious Relating.,2024-12-13,18:30,Centre of You,"Upstairs, 217 Chapel St Prahran Melbourne, VIC 3181",https://www.eventbrite.com.au/e/kindred-singles-20s-40s-festive-edition-dating-for-conscious-relating-tickets-1041811856307?aff=ebdssbdestsearch,-37.8509316,144.9933031
Young IT Professionals in Melbourne Social,2024-12-13,17:30,215 Queen's Restaurant and Bar Melbourne,"215 Queen Street Melbourne, VIC 3000",https://www.eventbrite.com.au/e/young-it-professionals-in-melbourne-social-tickets-951030446667?aff=ebdssbdestsearch,-37.8137947,144.9598607
"Basement Comedy Club: Friday/Saturday, December 13/14",2024-12-13,20:00,Basement Comedy Club,"120 Exhibition Street Melbourne, VIC 3000",https://www.eventbrite.com.au/e/basement-comedy-club-fridaysaturday-december-1314-tickets-1078788899639?aff=ebdssbdestsearch,-37.8128722,144.9712049
Nerve Melbourne 2024,2024-12-13,22:00,Brown Alley,"585 Lonsdale Street Melbourne, VIC 3000",https://www.eventbrite.com.au/e/nerve-melbourne-2024-tickets-949590128637?aff=ebdssbdestsearch,-37.81452000000001,144.955082
MARIOKART TOURNAMENT @ BEANS BAR,2024-12-13,19:00,Beans Bar,"325 Smith Street Fitzroy, VIC 3065",https://www.eventbrite.com/e/mariokart-tournament-beans-bar-tickets-1095022414519?aff=ebdssbdestsearch,-37.799338,144.984041
"COMEDY IN FITZROY FEAT. LUKE KIDGELL, LIZZY HOO, NICK CAPPER & FERGUS NEAL",2024-12-13,20:00,"Sugar Glider, Johnston Street, Fitzroy VIC, Australia","56 Johnston Street Fitzroy, VIC 3065",https://www.eventbrite.com.au/e/comedy-in-fitzroy-feat-luke-kidgell-lizzy-hoo-nick-capper-fergus-neal-tickets-1096043338129?aff=ebdssbdestsearch,-37.7983041,144.9765237
Building High Performing Teams 1 Day Training in Melbourne,2024-12-13,09:00,For venue details reach us at info@academyforpros.com,"PH: + 61(0) 2 80155605 Melbourne, VIC 3000",https://www.eventbrite.ca/e/building-high-performing-teams-1-day-training-in-melbourne-tickets-806484405567?aff=ebdssbdestsearch,-37.8152065,144.963937
Introduction to Web of Things 1 Day Training in Melbourne,2024-12-13,09:00,For venue details reach us at info@mangates.com,"PH: + 61(0) 2 80155605 Melbourne, VIC 3000",https://www.eventbrite.com/e/introduction-to-web-of-things-1-day-training-in-melbourne-tickets-829765871057?aff=ebdssbdestsearch,-37.8152065,144.963937
Melbourne Christmas Lunch,2024-12-13,12:00,"Q Events - Event Space Melbourne, Wedding Venue & Corporate Events Venue","123 Queen Street Melbourne, VIC 3000",https://www.eventbrite.com.au/e/melbourne-christmas-lunch-tickets-1015038636887?aff=ebdssbdestsearch,-37.8157528,144.9607103
Manningham Social Club Christmas Party 2024!,2024-12-13,19:00,Welcome to Brunswick,"408 Sydney Road Brunswick, VIC 3056",https://www.eventbrite.com.au/e/manningham-social-club-christmas-party-2024-tickets-1034646364127?aff=ebdssbdestsearch,-37.7684338,144.9621623
Spectrum Gala 2024,2024-12-13,19:00,Almina,"624 Sydney Road #1 Brunswick, VIC 3056",https://www.eventbrite.com.au/e/spectrum-gala-2024-tickets-1075331147409?aff=ebdssbdestsearch,,
R&B Takeover - Volume 1,2024-12-13,22:00,The Social Bar,"116 Chapel Street Windsor, VIC 3181",https://www.eventbrite.com.au/e/rb-takeover-volume-1-tickets-1075226213549?aff=ebdssbdestsearch,-37.8540861,144.9931502
The Mouth @ BAR OUSSOU!,2024-12-13,22:00,Bar Oussou,"653 Sydney Rd, Brunswick VIC 3056, Australia",https://www.facebook.com/events/1625892728338284/,-37.7618155,144.9628753
Ally Hocking Howe. The Tom Bell Trio,2024-12-13,19:00,One2three Bar,"123 Queens Parade, Clifton Hill VIC 3068, Australia",https://www.facebook.com/events/540905888801304/,-37.7892833,144.9901391
Tania Bosak and friends / LET'S BLOW BUBBLES! SHOW ONE >>> ,2024-12-13,00:00,Open Studio,"204 High St, Northcote VIC 3070, Australia",https://www.facebook.com/events/2009090446225970/,-37.7742382,144.9981587
Yacht Rock Revival,2024-12-13,18:00,Bird's Basement,"11 Singers Ln, Melbourne VIC 3000, Australia",https://www.facebook.com/events/1491178205098603/,-37.81114416,144.95680390283175
Maison Burlesque: Unwrapped,2024-12-13,18:30,Brunswick Ballroom,"314 Sydney Rd, Brunswick VIC 3056, Australia",https://www.facebook.com/events/1775288706342980/,-37.7704205,144.9617083
Henn & Stella Dunai @ The Merri Creek Tavern,2024-12-13,20:30,The Merri Creek Tavern,"111 High St, Northcote VIC 3070, Australia",https://www.facebook.com/events/3771032966470651/,-37.7794356,144.996838
Ally Hocking Howe and The Tom Bell Trio,2024-12-13,0:00,One2three Bar,"123 Queens Parade, Clifton Hill VIC 3068, Australia",https://www.facebook.com/events/1633404017524109/,-37.7892833,144.9901391
Tommy Sexton & The Suggestions | Live at Punters Club,2024-12-13,22:00,Punters Club,"376 Brunswick St, Fitzroy VIC 3065, Australia",https://www.facebook.com/events/554723353718456/,-37.7960561,144.9790327
DéSAINT + Greg Sara | onesixone,2024-12-13,21:00,onesixone,"161 High St, Prahran VIC 3181, Australia",https://www.facebook.com/events/1351375402507824/,-37.85425256,145.0112666323418
"BAND FROM HELL (PERTH) - The Best Of Pop-Punk, Nu-Metal & Rock | Revolver Melbourne",2024-12-13,0:00,Revolver Upstairs,"Level 2/229 Chapel St, Prahran VIC 3181, Australia",https://www.facebook.com/events/1257750862070412/,-37.8505902,144.9933469
Grandson // Melbourne // Good Things Festival Sideshow // Stay Gold,2024-12-13,19:00,Stay Gold,"133 Sydney Rd, Brunswick VIC 3056, Australia",https://www.facebook.com/events/1545532972995278/,-37.7743469,144.9607404
"CIVIC - Melbourne, Howler (+ Wet Kiss, Frenzee & Bitumen)",2024-12-13,20:00,Howler,"7-11 Dawson St, Brunswick VIC 3056, Australia",https://www.facebook.com/events/516987444632881/,-37.7720304,144.9596527
Birthday Classics ,2024-12-13,00:00,Wax Music Lounge,"250 Flinders St, Melbourne VIC 3000, Australia",https://www.facebook.com/events/1069875441550397/,-37.8176298,144.9661635
Kandy Carnival,2024-12-13,18:00,Festival Hall,"300 Dudley St, West Melbourne VIC 3003, Australia",https://www.facebook.com/events/2057102354735739/,-37.8098193,144.9508057
SPEED速度 5-Year Anniversary,2024-12-13,23:00,Sub Club Melbourne,"Flinders Ct, Melbourne VIC 3000, Australia",https://www.facebook.com/events/911240044302986/,-37.81776587,144.96433104920948
Trip To Paris Live @ Mamma Chen's with GetJaxxed and Grevillea,2024-12-13,00:00,Mamma Chen's,"42A Albert St, Footscray VIC 3011, Australia",https://www.facebook.com/events/415058874983811/,-37.8047552,144.89727240000002
Huminal (NL) — Ugenius & Revolver Fridays,2024-12-13,0:00,Revolver Upstairs,"Level 2/229 Chapel St, Prahran VIC 3181, Australia",https://www.facebook.com/events/533490512993807/,-37.8505902,144.9933469
An Evening With Malcura - Celebrating 'Flamenco Metal' ,2024-12-13,19:30,Mantra Studio Kitchen and Bar,"10 Campbell St, Yarraville VIC 3013, Australia",https://www.facebook.com/events/1767594000445805/,-37.820684,144.8947691
Jumpin Jack Jordan & Friends,2024-12-13,00:00,Ragtime Tavern,"206 Tyler St, Preston VIC 3072, Australia",https://www.facebook.com/events/1281547133032696/,-37.7310367,145.0142411
Melbourne Bar Crawl | The #1 Friday Night Out! (Bonus 5 VENUES),2024-12-13,00:00,On The Rocks Bar Crawl Melbourne,"The Joint, 35 Elizabeth St, Melbourne VIC 3000, Australia",https://www.facebook.com/events/302113586202741/,-37.8172989,144.9643996
Dellacoma LIVE in Melbourne,2024-12-13,19:00,The Workers Club,"51 Brunswick St, Fitzroy VIC 3065, Australia",https://www.facebook.com/events/1035778840931110/,-37.8055776,144.9769450659087
Malcura at Mantra Studio on Friday December 13,2024-12-13,0:00,Mantra Studio Kitchen and Bar,"10 Campbell St, Yarraville VIC 3013, Australia",https://www.facebook.com/events/582500237655454/,-37.820684,144.8947691
THE SHARP 31st Anniversary of “This is the Sharp” | MEMO Music Hall,2024-12-13,19:00,MEMO Music Hall,"88 Acland St, St Kilda VIC 3182, Australia",https://www.facebook.com/events/774965141251480/,-37.8671902,144.9786817
Melbourne Speed Dating | Friday Event | Ages 27-49 | Do You Relish?,2024-12-13,19:00,The Metropolitan Hotel,"265 William Street Melbourne, VIC 3000",https://www.eventbrite.com/e/melbourne-speed-dating-friday-event-ages-27-49-do-you-relish-tickets-1068862770319?aff=ebdssbdestsearch,-37.812902,144.9566615
"R.M.F.C, The Shifters, Sleeper & Snake live at the last chance",2024-12-13,19:00,The Last Chance,"238 Victoria St, Melbourne VIC 3000, Australia",https://www.facebook.com/events/1255920595431921/,-37.8059962,144.9585654
House of Light with Penny Ikinger's Marbles+Esse & Nilstock @ Cactus (last gig in Australia for HoL),2024-12-13,8:00,Cactus Room,"614 High St, Thornbury VIC 3071, Australia",https://www.facebook.com/events/1504513676928278/,-37.76125825,145.00041662186553
Andrea Keller Transients Trio plus Stephen Magnusson !,2024-12-13,19:30,Uptown Jazz Cafe,"1/177 Brunswick St, Fitzroy VIC 3065, Australia",https://www.facebook.com/events/1628654924694708/,-37.79705404,144.97869049756974
Nerve - Teletech Australia After Party,2024-12-13,00:00,Brown Alley,"585 Lonsdale St, Melbourne VIC 3000, Australia",https://www.facebook.com/events/1957949238032832/,-37.8146155,144.9552495
(SOLD OUT) THE RUSTY NAILS - Headlining Our Seventh Arcobar Christmas Party!,2024-12-13,00:00,arcobar heatherton,"8 Arco Ln, Heatherton VIC 3202, Australia",https://www.facebook.com/events/1057241329138236/,-37.94673685,145.07837928457485
VU Change of Preference Event,2024-12-13,14:00,Victoria University Community Sports Stadium,"417 Barkly St, Footscray VIC 3011, Australia",https://www.facebook.com/events/1352155955794485/,-37.79902293,144.8929566901096
Rat Pack - Summer Shenanigans@Musicland,2024-12-13,00:00,Musicland Melbourne,"1359 Sydney Rd, Fawkner VIC 3060, Australia",https://www.facebook.com/events/892755099584206/,-37.6916774,144.9585701581541
Tequila Brothers & Jenn Allas,2024-12-13,00:00,Altona Sports Club,"11 Altona Rd, Altona VIC 3018, Australia",https://www.facebook.com/events/8393226990782248/,-37.85754867,144.85121805353086
MANGO CLUB | 13.12.24 | FRIDAY THE 13TH ,2024-12-13,00:00,Mango Club,"577 Little Bourke St Docklands VIC 3000, Australia",https://www.facebook.com/events/1109518157345633/,-37.81578222,144.95396129427266
Warhammer Age of Sigmar: Spearhead - League Night,2024-12-13,00:00,The Gaming Arena,"123 Bakers Rd, Coburg North VIC 3058, Australia",https://www.facebook.com/events/1617564228827173/,-37.72715826,144.96115535488718
Friday Night Magic at The Gaming Arena ,2024-12-13,00:00,The Gaming Arena,"123 Bakers Rd, Coburg North VIC 3058, Australia",https://www.facebook.com/events/839736281375843/,-37.72715826,144.96115535488718
Social Pickleball ,2024-12-13,00:00,Keilor Basketball Netball Stadium,"Stadium Dr, Keilor Park VIC 3042, Australia",https://www.facebook.com/events/408883291671962/,-37.71397544,144.85424970601656
RMIT Change of Preference event,2024-12-13,10:00, RMIT University,"Building 16 336/348 Swanston St, Melbourne VIC 3000, Australia",https://www.facebook.com/events/464995586617974/,-37.8091922,144.9639727
Bebe's Bar - DJ ANDY P! (1980's til Today),2024-12-13,00:00,Musicland Melbourne,"1359 Sydney Rd, Fawkner VIC 3060, Australia",https://www.facebook.com/events/2828887803956051/,-37.6916774,144.9585701581541
QM Presents: A Taylor Swiftmas Party,2024-12-13,00:00,Bergy Bandroom,"64 Sydney Rd, Brunswick VIC 3056, Australia",https://www.facebook.com/events/515965951327592/,-37.776327,144.9607158
GROOVE DIMENSION 70s Funk RnB Disco,2024-12-13,20:00,Lucky 13 Garage,"8 Cochranes Rd, Moorabbin VIC 3189, Australia",https://www.facebook.com/events/1059289125439758/,-37.94349189,145.07036236060654
twin turbo > friday 13.12,2024-12-13,22:00,turbo422,"422 Little Collins Street Melbourne, VIC 3000",https://www.eventbrite.com.au/e/twin-turbo-friday-1312-tickets-1105115713849?aff=ebdssbdestsearch,-37.8160523,144.9603782
TestingConf - Melbourne on 13 December 2024,2024-12-13,09:30,Melbourne Clifton Collins St,"Collins Street Melbourne, VIC 3000",https://www.eventbrite.com/e/testingconf-melbourne-on-13-december-2024-tickets-1000514223977?aff=ebdssbdestsearch,-37.816995,144.9615245
Public Speaking 1 Day Training in Melbourne on 13th December 2024,2024-12-13,09:00,For venue details reach us at eventbrite@mountskills.com,"Melbourne Melbourne, VIC 3000",https://www.eventbrite.com/e/public-speaking-1-day-training-in-melbourne-on-13th-december-2024-tickets-1037803376837?aff=ebdssbdestsearch,-37.8152065,144.963937
The Nth Pole   Xmas at Marvel Stadium,2024-12-13,00:00,Marvel Stadium,"740 Bourke St, Docklands VIC 3008, Australia",https://www.facebook.com/events/1332384491506063/,-37.816529,144.94751697668812
BNI QUANTUM - In Person Networking Event,2024-12-13,06:30,SNA CAFE,"480 Saint Kilda Road Melbourne, VIC 3004",https://www.eventbrite.com.au/e/bni-quantum-in-person-networking-event-tickets-1040236233577?aff=ebdssbdestsearch,-37.8427264,144.9773176
20 Years of Hot Fuss,2024-12-13,23:00,Stay Gold,"133 Sydney Rd Brunswick Melbourne, VIC 3056",https://www.eventbrite.com.au/e/20-years-of-hot-fuss-tickets-1097805879939?aff=ebdssbdestsearch,-37.7743822,144.9606172
Telephone Debt Collection 1 Day Training in Melbourne,2024-12-13,09:00,For venue details reach us at info@mangates.com,"PH: + 61(0) 2 80155605 Melbourne, VIC 3000",https://www.eventbrite.com/e/telephone-debt-collection-1-day-training-in-melbourne-tickets-829829330867?aff=ebdssbdestsearch,-37.8152065,144.963937
Taylor Swift's Birthday Party Celebration! Yah Yahs FRI DEC 13th,2024-12-13,21:00,Yah Yahs,"99 Smith Street Fitzroy, VIC 3065",https://www.eventbrite.com.au/e/taylor-swifts-birthday-party-celebration-yah-yahs-fri-dec-13th-tickets-1097741266679?aff=ebdssbdestsearch,-37.8058545,144.982966
Software Testing Essentials 1 Day Training in Melbourne,2024-12-13,09:00,For venue details reach us at info@academyforpros.com,"PH: + 61(0) 2 80155605 Melbourne, VIC 3000",https://www.eventbrite.ca/e/software-testing-essentials-1-day-training-in-melbourne-tickets-805236974467?aff=ebdssbdestsearch,-37.8152065,144.963937
Marketing Essentials 1 Day Training in Melbourne,2024-12-13,09:00,For venue details reach us at info@mangates.com,"PH: + 61(0) 2 80155605 Melbourne, VIC 3000",https://www.eventbrite.com/e/marketing-essentials-1-day-training-in-melbourne-tickets-829786552917?aff=ebdssbdestsearch,-37.8152065,144.963937
"Bollywood Club-HABIBI : The Arabian Bollywood Party at Crown, Melbourne",2024-12-13,21:30,Crown Melbourne,"8 Whiteman Street Southbank, VIC 3006",https://www.eventbrite.com.au/e/bollywood-club-habibi-the-arabian-bollywood-party-at-crown-melbourne-tickets-1054787189879?aff=ebdssbdestsearch,-37.82343669999999,144.9580861
[90% SOLD] Melbourne’s Biggest K-Pop Party [3rd Release Sale Ends Tonight!],2024-12-13,22:00,Inflation,"60 King Street Melbourne, VIC 3000",https://www.eventbrite.com.au/e/90-sold-melbournes-biggest-k-pop-party-3rd-release-sale-ends-tonight-tickets-1061781780889?aff=ebdssbdestsearch,-37.8188863,144.9571605
THE BANDS EXPLODE - Bigger Boot w/ Mondo Cane + SHIRKHER,2024-12-13,19:30,280 Sydney Rd,"280 Sydney Road Brunswick, VIC 3056",https://www.eventbrite.com.au/e/the-bands-explode-bigger-boot-w-mondo-cane-shirkher-tickets-1066205462239?aff=ebdssbdestsearch,-37.7711488,144.9616353
Opera Salon Series: Beautiful Music in Historic Venues - Como House,2024-12-13,18:30,Como House and Garden,"Cnr Wiliams Road and Lechlade Ave South Yarra, VIC",https://www.eventbrite.com.au/e/opera-salon-series-beautiful-music-in-historic-venues-como-house-tickets-902064628587?aff=ebdssbdestsearch,-37.8385449,145.0050826
Melbourne Speed Dating | Friday Event | Ages 27-49 | SpeedMelbourne,2024-12-13,19:00,The Metropolitan Hotel,"265 William Street Melbourne, VIC 3000",https://www.eventbrite.com/e/melbourne-speed-dating-friday-event-ages-27-49-speedmelbourne-tickets-1068808899189?aff=ebdssbdestsearch,-37.812902,144.9566615
Mingle +Match: Connections at the Pullman,2024-12-13,04:30,Pullman Melbourne On The Park,"192 Wellington Parade East Melbourne, VIC 3002",https://www.eventbrite.com.au/e/mingle-match-connections-at-the-pullman-tickets-1098528461199?aff=ebdssbdestsearch,-37.8158404,144.9833174
"COMEDY IN FITZROY W/ LUKE KIDGELL, RAY O'LEARY, NICK CAPPER & FERGUS NEAL",2024-12-13,20:00,"Sugar Glider, Johnston Street, Fitzroy VIC, Australia","56 Johnston Street Fitzroy, VIC 3065",https://www.eventbrite.com.au/e/comedy-in-fitzroy-w-luke-kidgell-ray-oleary-nick-capper-fergus-neal-tickets-1096043338129?aff=ebdssbdestsearch,-37.7983041,144.9765237
Sacred Sound Journey,2024-12-13,19:30,"Oshun Yoga - Yoga Classes, Pilates and Meditation Reservoir","20 Gellibrand Crescent Reservoir, VIC 3072",https://www.eventbrite.com.au/e/sacred-sound-journey-tickets-1100638101189?aff=ebdssbdestsearch,-37.7038553,145.0067149
DCCEEW End of Year Party,2024-12-13,13:00,Champagne Problems,"238 Little Collins Street Melbourne, VIC 3000",https://www.eventbrite.com.au/e/dcceew-end-of-year-party-tickets-1046519637407?aff=ebdssbdestsearch,-37.8142781,144.9666247
Internet of Things - Business Perspectives Training in Melbourne,2024-12-13,09:00,For venue details reach us at info@mangates.com,"PH: + 61(0) 2 80155605 Melbourne, VIC 3000",https://www.eventbrite.com/e/internet-of-things-business-perspectives-training-in-melbourne-tickets-828794886817?aff=ebdssbdestsearch,-37.8152065,144.963937
Bubble x New Guernica Pres. OLDBOY (UK) & DJ COSWORTH (UK),2024-12-13,0:00,New Guernica,"64 Smith St, Collingwood VIC 3066, Australia",https://www.facebook.com/events/501350539568850/,-37.80624775,144.98331211946754
Brian Cadd @ Oakleigh Music Hall,2024-12-13,20:30,Oakleigh Carnegie RSL,"95/97 Drummond St, Oakleigh VIC 3166, Australia",https://www.facebook.com/events/2309359212746084/,-37.8968576,145.08963741959553
Quality Management 1 Day Training in Melbourne,2024-12-13,09:00,For venue details reach us at info@mangates.com,"PH: + 61(0) 2 80155605 Melbourne, VIC 3000",https://www.eventbrite.com/e/quality-management-1-day-training-in-melbourne-tickets-829821918697?aff=ebdssbdestsearch,-37.8152065,144.963937
Cumbia Clash,2024-12-13,21:00,The Night Cat,"137-141 Johnston St, Fitzroy VIC 3065, Australia",https://www.facebook.com/events/8868965189791858/,-37.7982971,144.978128
20 Years of Hot Fuss,2024-12-13,23:00,Stay Gold,"133 Sydney Rd, Brunswick VIC 3056, Australia",https://www.facebook.com/events/1519870032062882/,-37.7743469,144.9607404
Mayfield Ceramic Wares Christmas Sale!,2024-12-13,17:00,305 Victoria St,"305 Victoria Street Abbotsford, VIC 3067",https://www.eventbrite.com/e/mayfield-ceramic-wares-christmas-sale-tickets-1082672305009?aff=ebdssbdestsearch,-37.8098644,144.9949863
Motivating People 1 Day Training in Melbourne,2024-12-13,09:00,For venue details reach us at info@academyforpros.com,"PH: + 61(0) 2 80155605 Melbourne, VIC 3000",https://www.eventbrite.ca/e/motivating-people-1-day-training-in-melbourne-tickets-806359973387?aff=ebdssbdestsearch,-37.8152065,144.963937
MSA Mental Health First Aid: Refresher Course,2024-12-13,10:00,"Room G02, 15 Ancora Imparo Way (Law building)","15 Ancora Imparo Way Monash University, VIC 3800",https://www.eventbrite.com.au/e/msa-mental-health-first-aid-refresher-course-registration-998113132247?aff=ebdssbdestsearch,-37.9130754,145.1318984
Close Counters (DJ) with Surana & Afrodisiac,2024-12-13,20:00,Kindred Bandroom,"3 Harris St, Footscray VIC 3011, Australia",https://www.facebook.com/events/1075618370725761/,-37.8119001,144.9008247
Power Query for Excel and Power BI Desktop Training in Melbourne,2024-12-13,09:00,For venue details reach us at info@mangates.com,"PH: + 61(0) 2 80155605 Melbourne, VIC 3000",https://www.eventbrite.com/e/power-query-for-excel-and-power-bi-desktop-training-in-melbourne-tickets-829814015057?aff=ebdssbdestsearch,-37.8152065,144.963937
Introduction to Agile 1 Day Training in Melbourne,2024-12-13,09:00,For venue details reach us at info@mangates.com,"PH: + 61(0) 2 80155605 Melbourne, VIC 3000",https://www.eventbrite.com/e/introduction-to-agile-1-day-training-in-melbourne-tickets-829741969567?aff=ebdssbdestsearch,-37.8152065,144.963937
Battle of the Bravest,2024-12-13,18:00,Melbourne Pavilion,"135-157 Racecourse Road Kensington, VIC 3031",https://www.eventbrite.com.au/e/battle-of-the-bravest-tickets-1086662088559?aff=ebdssbdestsearch,-37.7890068,144.936461
Microsoft Power BI for Report Developers 1 Day Training in Melbourne,2024-12-13,09:00,For venue details reach us at info@mangates.com,"PH: + 61(0) 2 80155605 Melbourne, VIC 3000",https://www.eventbrite.com/e/microsoft-power-bi-for-report-developers-1-day-training-in-melbourne-tickets-829806984027?aff=ebdssbdestsearch,-37.8152065,144.963937
150 BPM @ MY AEON // FRI DEC 13,2024-12-13,21:00,my aeon,"791 Sydney Road Brunswick, VIC 3056",https://www.eventbrite.com.au/e/150-bpm-my-aeon-fri-dec-13-tickets-1094351527879?aff=ebdssbdestsearch,-37.7581868,144.9633301
One More Tune #30 - Hot Summer Shindig,2024-12-13,19:00,Joey Smalls,"284 Sydney Road Brunswick, VIC 3056",https://www.eventbrite.com.au/e/one-more-tune-30-hot-summer-shindig-tickets-1080224222729?aff=ebdssbdestsearch,-37.7710648,144.9616319
Bloody Ripper 'I Hardly Know Her' Album Launch,2024-12-14,19:00,Stay Gold,"133 Sydney Rd Brunswick Melbourne, VIC 3056",https://www.eventbrite.com.au/e/bloody-ripper-i-hardly-know-her-album-launch-tickets-1079982359309?aff=ebdssbdestsearch,-37.7743822,144.9606172
Handmade Gems:  Clay Earrings  & Keychains,2024-12-14,14:00,Unassigned Gallery,"55 Edward Street Brunswick, VIC 3056",https://www.eventbrite.com.au/e/handmade-gems-clay-earrings-keychains-tickets-1098434841179?aff=ebdssbdestsearch,-37.7738302,144.9609793
Xclusive  The Show | By MenXclusive Melbourne 14 DEC CHRISTMAS HORRAA,2024-12-14,19:00,Platform One,"375 Flinders Street Melbourne, VIC 3000",https://www.eventbrite.com.au/e/xclusive-the-show-by-menxclusive-melbourne-14-dec-christmas-horraa-tickets-922726899997?aff=ebdssbdestsearch,-37.8191789,144.9621961
Pilates and Prosecco at Health104,2024-12-14,03:30,Health104 Middle Park,"104 Canterbury Road Middle Park, VIC 3180",https://www.eventbrite.com.au/e/pilates-and-prosecco-at-health104-tickets-1077161401749?aff=ebdssbdestsearch,-37.8501007,144.9651687
Reveal your radiance -  Ayurvedic Rituals for Summer Workshop,2024-12-14,16:00,Moss Studios,"101 Evans Street Brunswick, VIC 3056",https://www.eventbrite.com.au/e/reveal-your-radiance-ayurvedic-rituals-for-summer-workshop-tickets-1096825036209?aff=ebdssbdestsearch,-37.77035559999999,144.9709215
St Kilda Bar Crawl| Melbourne Working Holiday Girls,2024-12-14,06:30,Red Eye Bar,"17 Carlisle Street St Kilda, VIC 3182",https://www.eventbrite.com.au/e/st-kilda-bar-crawl-melbourne-working-holiday-girls-tickets-1097035044349?aff=ebdssbdestsearch,-37.8672306,144.9801502
Live jazz at the VJC with the Des Camm Jazz Band,2024-12-14,20:00,Clayton RSL,"171 Carinish Road Clayton, VIC 3168",https://www.eventbrite.com.au/e/live-jazz-at-the-vjc-with-the-des-camm-jazz-band-tickets-1063996364769?aff=ebdssbdestsearch,-37.9253129,145.1225275
"ARTISA CHEESE, CHOCOLATE & Wine Matching",2024-12-14,15:30,"Life's Too Short Bar, Tribeca Arcade, Victoria Parade, East Melbourne VIC, Australia","412 Victoria Parade #Shop 2 East Melbourne, VIC 3002",https://www.eventbrite.com.au/e/artisa-cheese-chocolate-wine-matching-tickets-855003958857?aff=ebdssbdestsearch,-37.8096207,144.985273
SLACK SOUND SYSTEM,2024-12-14,13:00,Carlton Brewhouse,"24 Thompson Street Abbotsford, VIC 3067",https://www.eventbrite.com.au/e/slack-sound-system-tickets-1095928384299?aff=ebdssbdestsearch,-37.8096501,145.0041255
"Xmas Dinner Singles Over 40, 50 60+ | ""Mingle & Jingle"" |  Dining package",2024-12-14,05:30,Sandbelt Club Hotel,"630 South Road Moorabbin, VIC 3189",https://www.eventbrite.com.au/e/xmas-dinner-singles-over-40-50-60-mingle-jingle-dining-package-tickets-1089712261709?aff=ebdssbdestsearch,-37.9397775,145.069408
Kimchi making cooking class,2024-12-14,11:00,79 Sunshine Rd,"79 Sunshine Road West Footscray, VIC 3012",https://www.eventbrite.com.au/e/kimchi-making-cooking-class-tickets-875808656267?aff=ebdssbdestsearch,-37.800945,144.8690151
DATES OR MATES,2024-12-14,15:00,Beans Bar,"325 Smith Street Fitzroy, VIC 3065",https://www.eventbrite.com/e/dates-or-mates-tickets-1095020548939?aff=ebdssbdestsearch,-37.799338,144.984041
Last Man Standing at Strathmore CC,2024-12-14,20:00,"Lebanon Reserve, Mascoma Street, Strathmore VIC, Australia","10 Mascoma Street Strathmore, VIC 3041",https://www.eventbrite.com.au/e/last-man-standing-at-strathmore-cc-tickets-1072839615169?aff=ebdssbdestsearch,-37.7278328,144.9207629
The Humbuckin' Pickups  at The Lomond Hotel,2024-12-14,16:30,The Lomond Hotel,"225 Nicholson Street Brunswick East, VIC 3057",https://www.eventbrite.com.au/e/the-humbuckin-pickups-at-the-lomond-hotel-tickets-1092957016859?aff=ebdssbdestsearch,-37.7670861,144.9800057
Pop Icon Dance / Oh Santa! (Christmas Dance Class),2024-12-14,14:00,Glow Dance - North Fitzroy - Dance Fitness,"Fergie Street Fitzroy North, VIC 3068",https://www.eventbrite.com.au/e/pop-icon-dance-oh-santa-christmas-dance-class-tickets-1093208067759?aff=ebdssbdestsearch,-37.7839152,144.9845867
"Bollywood Grand Masti at Inflation Nightclub, Melbourne",2024-12-14,22:00,Inflation Entertainment Complex,"60 King Street Melbourne, VIC 3000",https://www.eventbrite.com.au/e/bollywood-grand-masti-at-inflation-nightclub-melbourne-tickets-1082877568959?aff=ebdssbdestsearch,-37.8188863,144.9571605
Edo Club Awareness Day Celebration 2024,2024-12-14,17:00,Collingwood Town Hall,"140 Hoddle Street Abbotsford, VIC 3067",https://www.eventbrite.com.au/e/edo-club-awareness-day-celebration-2024-tickets-1015096068667?aff=ebdssbdestsearch,-37.8039527,144.9929394
National Startup Championship 2024 for kids and youth,2024-12-14,8:00,"Harbour Kitchen - Functions, Party and Events Venue","800 Bourke Street #Shop1 Docklands, VIC 3008",https://www.eventbrite.com.au/e/national-startup-championship-2024-for-kids-and-youth-registration-1077691276619?aff=ebdssbdestsearch,-37.8191708,144.9453257
Arcoíris Queer Latin Party: Santa en Verano,2024-12-14,22:00,Inflation Entertainment Complex,"60 King Street Melbourne, VIC 3000",https://www.eventbrite.com.au/e/arcoiris-queer-latin-party-santa-en-verano-tickets-1088590335999?aff=ebdssbdestsearch,-37.8188863,144.9571605
"Sound Healing, Full Moon in Gemini Ritual & Sound Bath",2024-12-14,19:30,Private Studio St Kilda East (see email for address),"Lansdowne street St Kilda East, VIC 3183",https://www.eventbrite.com.au/e/sound-healing-full-moon-in-gemini-ritual-sound-bath-tickets-1086269634719?aff=ebdssbdestsearch,-37.812027,144.9778953
Strength & Inversion Yoga Masterclass,2024-12-14,14:00,Radiant Sol Yoga,"418 Bay Street Port Melbourne, VIC 3207",https://www.eventbrite.com.au/e/strength-inversion-yoga-masterclass-tickets-800584970197?aff=ebdssbdestsearch,-37.8351246,144.9462521
SERÜM. - 14/12/24,2024-12-14,21:00,134 Greville St,"134 Greville Street Prahran, VIC 3181",https://www.eventbrite.com.au/e/serum-141224-tickets-1089575071369?aff=ebdssbdestsearch,-37.8493753,144.9912467
Cheese 101: Behind the Rind DECEMBER 2024,2024-12-14,14:00,Maker and Monger,"163 Commercial Road #Stall 98 South Yarra, VIC 3141",https://www.eventbrite.com.au/e/cheese-101-behind-the-rind-december-2024-tickets-1079911878499?aff=ebdssbdestsearch,-37.8460264,144.992686
Tim Burton Emo Christmas - Emo Night Melbourne,2024-12-14,20:00,Deluxe Bar,"595 Mount Alexander Road Moonee Ponds, VIC 3039",https://www.eventbrite.com/e/tim-burton-emo-christmas-emo-night-melbourne-tickets-921351786997?aff=ebdssbdestsearch,-37.768313,144.925046
Christmas@ZCK,2024-12-14,5:30,ZEE CHENG KHOR COMMUNITY CENTRE,"14-26 Audsley Street #1 Clayton South, VIC 3169",https://www.eventbrite.com.au/e/christmaszck-tickets-1090295094979?aff=ebdssbdestsearch,-37.931192,145.122415
Butt Hole,2024-12-14,20:30,The Butterfly Club,"5 Carson Place Melbourne, VIC 3000",https://www.eventbrite.co.uk/e/butt-hole-tickets-952511015087?aff=ebdssbdestsearch,-37.8154472,144.9652725
$79 Great Ocean Rd & 12 Apostles Adventure! (super low price!),2024-12-14,09:00,Old Melbourne Gaol,"377 Russell Street Melbourne, VIC 3000",https://www.eventbrite.com.au/e/79-great-ocean-rd-12-apostles-adventure-super-low-price-tickets-1104158470709?aff=ebdssbdestsearch,-37.8079389,144.9650674
"Soul Warrior: Forge Your Future, Unleash Your Potential.",2024-12-14,09:30,Centre of You,"Upstairs, 217 Chapel St Prahran Melbourne, VIC 3181",https://www.eventbrite.com.au/e/soul-warrior-forge-your-future-unleash-your-potential-tickets-1061849062129?aff=ebdssbdestsearch,-37.8509316,144.9933031
Soothing Sounds: Sound Bath with Yoga  Nidra,2024-12-14,16:30,Wild Grace Studio,"4a Canterbury Rd Toorak, VIC 3142",https://www.eventbrite.com.au/e/soothing-sounds-sound-bath-with-yoga-nidra-tickets-1104887039879?aff=ebdssbdestsearch,-37.84860159999999,145.0094229
Bollywood Club presents TAMASHA Saturdays at Platform One,2024-12-14,22:00,Platform One,"375 Flinders Street Melbourne, VIC 3000",https://www.eventbrite.com.au/e/bollywood-club-presents-tamasha-saturdays-at-platform-one-tickets-1104356312459?aff=ebdssbdestsearch,-37.8191789,144.9621961
BROOKLYN SATURDAYS - RNB HIPHOP THROWBACKS PARTY LATIN,2024-12-14,21:00,The Black Rabbit,"85 Queen Street Melbourne, VIC 3000",https://www.eventbrite.com/e/brooklyn-saturdays-rnb-hiphop-throwbacks-party-latin-tickets-932351106257?aff=ebdssbdestsearch,-37.81636779999999,144.9611486
"Bollywood Saturdays at Decibles Nightclub, Melbourne",2024-12-14,22:00,Inflation Entertainment Complex,"60 King Street Melbourne, VIC 3000",https://www.eventbrite.com.au/e/bollywood-saturdays-at-decibles-nightclub-melbourne-tickets-1083851883159?aff=ebdssbdestsearch,-37.8188863,144.9571605
Reiki Level One Training | Awaken Your Psychic Senses,2024-12-14,10:00,Anahata Reiki & Wellness,"Avelin Street Hampton, VIC 3188",https://www.eventbrite.com.au/e/reiki-level-one-training-awaken-your-psychic-senses-tickets-1105930641319?aff=ebdssbdestsearch,-37.9319964,145.0116914
"December @ The Graveyard w/ Anyway, Thug & Blood In The Champagne",2024-12-14,18:00,The Graveyard Bar,"942 Sydney Road Coburg North, VIC 3058",https://www.eventbrite.com.au/e/december-the-graveyard-w-anyway-thug-blood-in-the-champagne-tickets-1100836955969?aff=ebdssbdestsearch,-37.7236554,144.9638725
"SATURDAY - Fitzroy Market (October, November, December 2024)",2024-12-14,09:00,Fitzroy Mills Market,"75 Rose Street Fitzroy, VIC 3065",https://www.eventbrite.com.au/e/saturday-fitzroy-market-october-november-december-2024-tickets-1003297017387?aff=ebdssbdestsearch,-37.7956693,144.9779514
Pentridge Prison B Division Tours - November  2024 - January 2025,2024-12-14,10:30,Pentridge,"1 Champ Street Coburg, VIC 3058",https://www.eventbrite.com.au/e/pentridge-prison-b-division-tours-november-2024-january-2025-tickets-909565925167?aff=ebdssbdestsearch,-37.7370508,144.9677596
Bendigo Day Trip with Bondaroo,2024-12-14,08:30,Southern Cross,"Spencer Street Docklands, VIC 3008",https://www.eventbrite.com.au/e/bendigo-day-trip-with-bondaroo-registration-1104209834339?aff=ebdssbdestsearch,-37.8169397,144.9531037
BODYACTIVE WORKOUT '25,2024-12-14,08:30,65 Dover St,"65 Dover Street Cremorne, VIC 3121",https://www.eventbrite.com.au/e/bodyactive-workout-25-tickets-1105140166989?aff=ebdssbdestsearch,-37.827334,144.9920779
Singles Over 40 | Naughty OR Nice Xmas Party with DJ Dave hilarious games,2024-12-14,19:00,Sandbelt Club Hotel,"630 South Road Moorabbin, VIC 3189",https://www.eventbrite.com.au/e/singles-over-40-naughty-or-nice-xmas-party-with-dj-dave-hilarious-games-tickets-1067234239339?aff=ebdssbdestsearch,-37.9397775,145.069408
Mindful Calligraphy Workshop for Beginners,2024-12-14,10:00,HEER POTTERY ART,"31 Clarice Road #unit3/29 Box Hill South, VIC 3128",https://www.eventbrite.com.au/e/mindful-calligraphy-workshop-for-beginners-tickets-1029466370627?aff=ebdssbdestsearch,-37.833062,145.1337404
Bakery Hill Distillery Tour & Tasting,2024-12-14,11:00,411 Macaulay Rd,"411 Macaulay Road Kensington, VIC 3031",https://www.eventbrite.com.au/e/bakery-hill-distillery-tour-tasting-tickets-800417238507?aff=ebdssbdestsearch,-37.7949212,144.9331042
All You Can Eat Afro Buffet,2024-12-14,15:00,350 Arden St,"350 Arden Street Kensington, VIC 3031",https://www.eventbrite.com.au/e/all-you-can-eat-afro-buffet-tickets-1105051110619?aff=ebdssbdestsearch,-37.7989143,144.9343983
Celeste V2 - A night Unscripted,2024-12-14,18:00,400 City Rd,"400 City Road Southbank, VIC 3006",https://www.eventbrite.com/e/celeste-v2-a-night-unscripted-registration-1044577067127?aff=ebdssbdestsearch,-37.829386,144.9556897
Warg presents Stef Mendesidis [LIVE],2024-12-14,19:00,The Third Day,"290 Macaulay Road North Melbourne, VIC 3051",https://www.eventbrite.com.au/e/warg-presents-stef-mendesidis-live-tickets-1075324327009?aff=ebdssbdestsearch,-37.79495975,144.93665199999998
Drum Circle,2024-12-14,13:00,Studley Park Boathouse,"1 Boathouse Road Kew, VIC 3101",https://www.eventbrite.com/e/drum-circle-tickets-1091937256729?aff=ebdssbdestsearch,-37.8012864,145.0074981
Twitch DJs Presents Energize - 14.12.24 @ Laundry Bar,2024-12-14,20:00,Laundry Bar,"50 Johnston Street Fitzroy, VIC 3065",https://www.eventbrite.com.au/e/twitch-djs-presents-energize-141224-laundry-bar-tickets-1086657554999?aff=ebdssbdestsearch,-37.79831,144.976368
"Absolutely 80's Xmas Show - Scott Carne, Ally Fowler, Brian Mannix",2024-12-14,21:00,Missing Gorilla,"70 Commercial Place #1 Eltham, VIC 3095",https://www.eventbrite.com.au/e/absolutely-80s-xmas-show-scott-carne-ally-fowler-brian-mannix-tickets-929548112427?aff=ebdssbdestsearch,-37.7127434,145.1494258
Eat The Beat : Elevate,2024-12-14,22:00,New Guernica,"64 Smith Street Collingwood, VIC 3066",https://www.eventbrite.com.au/e/eat-the-beat-elevate-tickets-1097844284809?aff=ebdssbdestsearch,-37.8062529,144.9832565
Xmas Wreath Workshop,2024-12-14,13:30,Lucy Loves Charlie Weddings and Events,"142 Auburn Road Hawthorn, VIC 3122",https://www.eventbrite.com/e/xmas-wreath-workshop-tickets-1081482636679?aff=ebdssbdestsearch,-37.8229414,145.0447403
MAGPIE SINGLE LAUNCH + FLOWER FIELD FOLLY & DEAR MATILDA,2024-12-14,19:30,280 Sydney Rd,"280 Sydney Road Brunswick, VIC 3056",https://www.eventbrite.com.au/e/magpie-single-launch-flower-field-folly-dear-matilda-tickets-1089647297399?aff=ebdssbdestsearch,-37.7711488,144.9616353
Adventures in Neverland,2024-12-14,09:30,St Kilda Botanical Gardens,"11 Herbert Street St Kilda, VIC 3182",https://www.eventbrite.com.au/e/adventures-in-neverland-tickets-1054826597749?aff=ebdssbdestsearch,-37.8713506,144.9824183
RESTART YOUR LIFE -  REACH YOUR GOALS IN 2025,2024-12-14,09:00,Novotel Melbourne Preston,"215 Bell Street Preston, VIC 3072",https://www.eventbrite.com.au/e/restart-your-life-reach-your-goals-in-2025-tickets-1056404697889?aff=ebdssbdestsearch,-37.7463305,145.008329
Spank **FELICITA ** ITALIAN &  80s 90s Euro NIGHT-Under the Riviera Sun,2024-12-14,18:30,"Riviera Beach Club, Marine Parade, Elwood VIC, Australia","42B Marine Parade Elwood, VIC 3184",https://www.eventbrite.com.au/e/spank-felicita-italian-80s-90s-euro-night-under-the-riviera-sun-tickets-1076821765889?aff=ebdssbdestsearch,-37.8754261,144.9750806
AGE Of LOVE - P!NK Party,2024-12-14,21:00,The Nashaa Club,"8 Jackson Street Toorak, VIC 3142",https://www.eventbrite.com.au/e/age-of-love-pnk-party-tickets-964336274757?aff=ebdssbdestsearch,-37.8399924,145.0075974
DESIRE'S FINAL EVENT FOR 2024 (FIRE & DESIRE),2024-12-14,22:00,Club Pandora,"127 Dorcas Street South Melbourne, VIC 3205",https://www.eventbrite.com/e/desires-final-event-for-2024-fire-desire-tickets-1079095185749?aff=ebdssbdestsearch,-37.831769,144.96557
"Clayton Childbirth education-Labour, Birth & Baby: 14th of Dec, 2024",2024-12-14,08:30,246 Clayton Rd,"246 Clayton Road Clayton, VIC 3168",https://www.eventbrite.com/e/clayton-childbirth-education-labour-birth-baby-14th-of-dec-2024-tickets-1036562996827?aff=ebdssbdestsearch,-37.9205757,145.1227608
Macleod Village Christmas Fair and Market - $15 UNLIMITED RIDES WRIST BANDS,2024-12-14,10:00,Macleod Village Rotunda,"Aberdeen Road Macleod, VIC 3085",https://www.eventbrite.com.au/e/macleod-village-christmas-fair-and-market-15-unlimited-rides-wrist-bands-tickets-1061855250639?aff=ebdssbdestsearch,-37.7273508,145.0701041
Seasons Greetings - Sustainable Wreath Making Classes with Rita Feldmann,2024-12-14,12:30,Como House and Garden,"Cnr Wiliams Road and Lechlade Ave South Yarra, VIC",https://www.eventbrite.com.au/e/seasons-greetings-sustainable-wreath-making-classes-with-rita-feldmann-tickets-1020345901057?aff=ebdssbdestsearch,-37.8385449,145.0050826
TRIBE: FOREVER | DECEMBER 14th | Bourke Street Courtyard,2024-12-14,22:00,Bourke Street Courtyard,"629 Bourke Street Melbourne, VIC 3004",https://www.eventbrite.com.au/e/tribe-forever-december-14th-bourke-street-courtyard-tickets-1082890888799?aff=ebdssbdestsearch,-37.8168528,144.9552468
Dance Factory's End of Year Performance,2024-12-14,18:30,Doncaster Secondary College,"123 Church Road Doncaster, VIC 3108",https://www.eventbrite.com.au/e/dance-factorys-end-of-year-performance-tickets-1049291839137?aff=ebdssbdestsearch,-37.783848,145.1381318
MTG - Chaos Draft Event - Gameology CLAYTON SOUTH - 14/12/2024,2024-12-14,01:30,Gameology,"12 Eileen Road Clayton South, VIC 3169",https://www.eventbrite.com.au/e/mtg-chaos-draft-event-gameology-clayton-south-14122024-tickets-1052932037067?aff=ebdssbdestsearch,-37.9512104,145.1347381
Sake x Ghibli Jazz (Special Robata lunch set menu),2024-12-14,12:30,KURA,"30 Lygon Street #Shop 1/22 Brunswick East, VIC 3057",https://www.eventbrite.com.au/e/sake-x-ghibli-jazz-special-robata-lunch-set-menu-tickets-1061202066949?aff=ebdssbdestsearch,-37.7778396,144.970932
Christmas Cookie Swap,2024-12-14,10:00,Co.Bake Space,"239 Swan Street Richmond, VIC 3121",https://www.eventbrite.com/e/christmas-cookie-swap-tickets-1076332572699?aff=ebdssbdestsearch,-37.825764,145.000489
UPRT Workshop | Loss of Control Prevention for Pilots,2024-12-14,08:00,19 Second Ave,"19 Second Avenue Moorabbin Airport, VIC 3194",https://www.eventbrite.com.au/e/uprt-workshop-loss-of-control-prevention-for-pilots-tickets-1059258724359?aff=ebdssbdestsearch,-37.97581760000001,145.0902258
2024 TEAM TAEKWONDO MEMBERS PRESENTATION & FAMILY,2024-12-14,15:00,Team Taekwondo and Fitness Centre,"128 Sussex Street Pascoe Vale, VIC 3044",https://www.eventbrite.com.au/e/2024-team-taekwondo-members-presentation-family-tickets-1061190903559?aff=ebdssbdestsearch,-37.7312222,144.9501433
Movies Under the Stars — Home Alone,2024-12-14,18:00,Sir Douglas Nicholls Oval,"Watt Street Thornbury, VIC 3071",https://www.eventbrite.com.au/e/movies-under-the-stars-home-alone-tickets-1040342080167?aff=ebdssbdestsearch,-37.7534508,144.996446
SKUX | Melbourne Pop Up Show,2024-12-14,20:00,Laundry Bar,"50 Johnston Street Fitzroy, VIC 3065",https://www.eventbrite.com.au/e/skux-melbourne-pop-up-show-tickets-1097806953149?aff=ebdssbdestsearch,-37.79831,144.976368
What happens when we... - An exploration of Authentic Relating.,2024-12-14,06:30,Centre of You,"Upstairs, 217 Chapel St Prahran Melbourne, VIC 3181",https://www.eventbrite.com.au/e/what-happens-when-we-an-exploration-of-authentic-relating-tickets-1095817984089?aff=ebdssbdestsearch,-37.8509316,144.9933031
Eucalyptus Botanical Dye Workshop,2024-12-14,11:00,NECCHi East Coburg Neighbourhood House,"32 Nicholson Street Coburg, VIC 3058",https://www.eventbrite.com.au/e/eucalyptus-botanical-dye-workshop-tickets-1091048077169?aff=ebdssbdestsearch,-37.7541036,144.976162
"SHOOTERS SHOOT: 4TH MAJOR CHARITY BASKETBALL EVENT, 4 OURS",2024-12-14,10:00,Seaworks Maritime Precinct,"82 Nelson Place #82 Williamstown, VIC 3016",https://www.eventbrite.com/e/shooters-shoot-4th-major-charity-basketball-event-4-ours-tickets-1054456871889?aff=ebdssbdestsearch,,
Whispering Sky,2024-12-14,19:00,The Open Space,"11 Acacia Place Abbotsford, VIC 3067",https://www.eventbrite.com.au/e/whispering-sky-tickets-1080325636059?aff=ebdssbdestsearch,-37.8117719,145.0141432
Pentridge Prison B & H Division COMBO Tours - November 2024 - January 2025,2024-12-14,10:30,Pentridge,"1 Champ Street Coburg, VIC 3058",https://www.eventbrite.com.au/e/pentridge-prison-b-h-division-combo-tours-november-2024-january-2025-tickets-909603627937?aff=ebdssbdestsearch,-37.7370508,144.9677596
"Littlefoot live at Cherry Bar, FRI Dec 14th",2024-12-14,20:00,"Cherry Bar, Little Collins Street, Melbourne VIC, Australia","68 Little Collins Street Melbourne, VIC 3000",https://www.eventbrite.com.au/e/littlefoot-live-at-cherry-bar-fri-dec-14th-tickets-1043391681607?aff=ebdssbdestsearch,-37.8129293,144.9714986
Sweetie & Friends | Rooftop Vinyl Sessions,2024-12-14,17:00,Punters Club,"376 Brunswick St, Fitzroy VIC 3065, Australia",https://www.facebook.com/events/2464824730538042/,-37.7960561,144.9790327
Roller One w' Cahill Kelly,2024-12-14,20:30,The Merri Creek Tavern,"111 High St, Northcote VIC 3070, Australia",https://www.facebook.com/events/431676783333932/,-37.7794356,144.996838
The Tram Tracks Tour 2024 @ The Toff In Town,2024-12-14,0:00,The Toff,"2f/252 Swanston St, Melbourne VIC 3000, Australia",https://www.facebook.com/events/1759618528161451/,-37.80660325,144.9628141258931
Adam Mendum & Carl Winfield @ The Thornbury Local,2024-12-14,20:00,The Thornbury Local,"635 High St, Thornbury VIC 3071, Australia",https://www.facebook.com/events/2097495117354005/,-37.76165125,144.99987967655426
SKUX | Melbourne Pop Up Show,2024-12-14,20:00,Laundry Bar,"50 Johnston St, Fitzroy VIC 3065, Australia",https://www.facebook.com/events/1582216312415453/,-37.7983139,144.9764962
Vibe Studios 20th Anniversary Spectacular,2024-12-14,17:00,Palais Theatre,"Lower Esplanade, St Kilda VIC 3182, Australia",https://www.facebook.com/events/454960054288747/,-37.86708671,144.97599656199426
"“The Patients” Matinee, Workers Club Fitzroy Healiner",2024-12-14,13:00,The Workers Club,"51 Brunswick St, Fitzroy VIC 3065, Australia",https://www.facebook.com/events/475159474978809/,-37.8055776,144.9769450659087
"(Sat, Dec 14) ALICE ANDERSEN + Beacs (George Lane Matinee Sessions)",2024-12-14,0:00,George Lane St Kilda,"1 George Ln, St Kilda VIC 3182, Australia",https://www.facebook.com/events/1612034022998514/,-37.85997305,144.9780306
ЁЛКА в Русском доме,2024-12-14,14:00,Russian House Melbourne,"118 Greeves St, Fitzroy VIC 3065, Australia",https://www.facebook.com/events/402934646152959/,-37.79982794,144.97840274927256
Toy Tonics Jam ft. Sam Ruffillo & Gee Lane,2024-12-14,00:00,The Night Cat,"137-141 Johnston St, Fitzroy VIC 3065, Australia",https://www.facebook.com/events/2008324862967084/,-37.7982971,144.978128
Twitch DJs Presents Energize,2024-12-14,00:00,Laundry Bar,"50 Johnston St, Fitzroy VIC 3065, Australia",https://www.facebook.com/events/1090723345621150/,-37.7983139,144.9764962
CHRISTMAS GARAGE SALE ,2024-12-14,12:00,Northcote Social Club,"301 High St, Northcote VIC 3070, Australia",https://www.facebook.com/events/1249490449674175/,-37.771471,144.998414
The Blues Brothers Show @ Oakleigh Music Hall,2024-12-14,20:00,Oakleigh Carnegie RSL,"95/97 Drummond St, Oakleigh VIC 3166, Australia",https://www.facebook.com/events/536992059054981/,-37.8968576,145.08963741959553
Collectivision MUSIC at CERES,2024-12-14,00:00,CERES Environment Park,"Stewart St & Roberts St East, Brunswick VIC 3056, Australia",https://www.facebook.com/events/2784070731752381/,-37.765454,144.9831564
RINI - Somewhere in Time Tour | Naarm/Melbourne,2024-12-14,19:30,Forum Melbourne,"154 Flinders St, Melbourne VIC 3000, Australia",https://www.facebook.com/events/1326177275419144/,-37.81644145,144.9693768124984
Voyager 2024,2024-12-14,0:00,24 Moons,"2 Arthurton Rd, Northcote VIC 3070, Australia",https://www.facebook.com/events/2331006080585343/,-37.7691418,144.9982614
Into The Mystic - The Music Of Van Morrison | MEMO Music Hall,2024-12-14,19:00,MEMO Music Hall,"88 Acland St, St Kilda VIC 3182, Australia",https://www.facebook.com/events/3316631251978846/,-37.8671902,144.9786817
Exek / R.M.F.C / G2g Live at The Curtin,2024-12-14,20:00,THE CURTIN (John Curtin hotel),"29 Lygon St, Carlton VIC 3053, Australia",https://www.facebook.com/events/1283234586029942/,-37.8061581,144.9657057
Songs at the Lake,2024-12-14,18:30,Darebin City Brass,"Mary Street, Cramer St, Preston VIC 3072, Australia",https://www.facebook.com/events/1084737716253804/,-37.7403983,145.002136
