Event_Title,Date,Time,Venue,Address,url,Latitude,Longitude
T-REK | onesixone Thursdays,2025-04-10,00:00,onesixone,"161 High St, Prahran VIC 3181, Australia",https://www.facebook.com/events/965138862345100/,-37.85425256,145.0112666323418
JOHN CRAIGIE with KASSI VALAZZA - ST KILDA,2025-04-10,19:00,George Lane St Kilda,"1 George Ln, St Kilda VIC 3182, Australia",https://www.facebook.com/events/1429640821757535/,-37.85997305,144.9780306
Jonathan Shaw @ Bar 303,2025-04-10,20:00,Bar 303,"303 High St, Northcote VIC 3070, Australia",https://www.facebook.com/events/1084309287068950/,-37.7713296,144.99828116650363
Raga Saga // Thur Arvo Gig Series,2025-04-10,14:00,Kindred Bandroom,"3 Harris St, Footscray VIC 3011, Australia",https://www.facebook.com/events/1001766721383154/,-37.8119001,144.9008247
"Mary Ocher (Berlin, Germany) at The Curtin",2025-04-10,19:30,THE CURTIN (John Curtin hotel),"29 Lygon St, Carlton VIC 3053, Australia",https://www.facebook.com/events/613149951538767/,-37.8061581,144.9657057
Open Decks @ Bar Oussou,2025-04-10,00:00,Bar Oussou,"653 Sydney Rd, Brunswick VIC 3056, Australia",https://www.facebook.com/events/1135129411697256/?event_time_id=1135130875030443,-37.7618155,144.9628753
"Anti-Sapien (USA), Bludger & Grim Ripper @ Last Chance ",2025-04-10,19:00,The Last Chance,"238 Victoria St, Melbourne VIC 3000, Australia",https://www.facebook.com/events/485840344392150/,-37.8059962,144.9585654
House of Funk @ BAR OUSSOU,2025-04-10,22:30,Bar Oussou,"653 Sydney Rd, Brunswick VIC 3056, Australia",https://www.facebook.com/events/2646350822400767/,-37.7618155,144.9628753
Heat: 30th Anniversary,2025-04-10,15:20,Cinema Nova,"380 Lygon St, Carlton VIC 3053, Australia",https://www.facebook.com/events/672299738669830/,-37.7978092,144.9680124
"GUERNS THURS : Ft N*** F*** (DJ Set) $4 Pots, Seltzers $6 Vodkas!",2025-04-10,00:00,New Guernica,"64 Smith St, Collingwood VIC 3066, Australia",https://www.facebook.com/events/534379486436349/,-37.80624775,144.98331211946754
Rosa Luxemburg and I,2025-04-10,18:45,The Convent,"The Oratory Abbotsford, VIC 3067",https://www.eventbrite.com/e/rosa-luxemburg-and-i-tickets-1274173951589?aff=ebdssbdestsearch,-37.80210950000001,145.0019064
Cheers to Connections,2025-04-10,05:30,Bourke Street Green,"501 Bourke Street Melbourne, VIC 3000",https://www.eventbrite.com.au/e/cheers-to-connections-tickets-1278955302739?aff=ebdssbdestsearch,-37.8158734,144.9596569
Nature Panel - MSN Professional Networking Series 1/3,2025-04-10,17:30,Deloitte Melbourne,"477 Collins Street Melbourne, VIC 3000",https://www.eventbrite.com.au/e/nature-panel-msn-professional-networking-series-13-tickets-1254087121339?aff=ebdssbdestsearch,-37.8181573,144.9585526
Clean Architecture Superpowers - Melbourne,2025-04-10,09:00,SSW Melbourne - Enterprise Software Development,"370 Little Bourke Street #Level 1 Melbourne, VIC 3000",https://www.eventbrite.com.au/e/clean-architecture-superpowers-melbourne-tickets-920649065137?aff=ebdssbdestsearch,-37.8132971,144.9615923
LK Europe Party,2025-04-10,10:00,231 Chapel St,"231 Chapel Street Prahran, VIC 3181",https://www.eventbrite.com/e/lk-europe-party-tickets-928274242247?aff=ebdssbdestsearch,-37.8505625,144.9930859
MELBOURNE SPEED DATING FOR AGES 35-45 BY CHEEKY EVENTS AUSTRALIA!,2025-04-10,19:00,Lona St Kilda,"66 Acland Street St Kilda Melbourne, VIC 3182",https://www.eventbrite.com.au/e/melbourne-speed-dating-for-ages-35-45-by-cheeky-events-australia-tickets-1208149009209?aff=ebdssbdestsearch,-37.8667192,144.9782504
Keys to Infant Caregiving,2025-04-10,09:30,49-71 Adelaide St,"49-71 Adelaide Street Footscray, VIC 3011",https://www.eventbrite.com.au/e/keys-to-infant-caregiving-tickets-1169017646249?aff=ebdssbdestsearch,-37.7974259,144.8872627
CAB Evening Experience for Members Only 10th April 2025,2025-04-10,17:30,UE Clubhouse,"8 La Trobe Melbourne, VIC 3000",https://www.eventbrite.com.au/e/cab-evening-experience-for-members-only-10th-april-2025-tickets-1086860060699?aff=ebdssbdestsearch,-37.80765239999999,144.9693135
Construction Industry- Meet Up (Melb)- April 2025,2025-04-10,16:30,340-344 Victoria St,"340-344 Victoria Street Richmond, VIC 3121",https://www.eventbrite.com.au/e/construction-industry-meet-up-melb-april-2025-registration-1118327159639?aff=ebdssbdestsearch,-37.81092719999999,145.0027905
April 10th | Serves & Sparks:  A Pickleball Social for Singles,2025-04-10,18:00,PicklePlay Indoor Pickleball,"1 South Drive Bentleigh East, VIC 3165",https://www.eventbrite.com.au/e/april-10th-serves-sparks-a-pickleball-social-for-singles-tickets-1278775946279?aff=ebdssbdestsearch,-37.9106715,145.0613664
Serves & Sparks:  A Pickleball Social for Singles 10th of April,2025-04-10,18:00,PicklePlay Indoor Pickleball,"1 South Drive Bentleigh East, VIC 3165",https://www.eventbrite.com.au/e/serves-sparks-a-pickleball-social-for-singles-10th-of-april-tickets-1278775946279?aff=ebdssbdestsearch,-37.9106715,145.0613664
MBN Monthly Networking and Catch-Up:  Thursday 10 April 2025,2025-04-10,17:00,The Wharf Hotel  - World Trade Centre,"18-38 Siddeley Street Melbourne, VIC 3000",https://www.eventbrite.com.au/e/mbn-monthly-networking-and-catch-up-thursday-10-april-2025-tickets-1256122689779?aff=ebdssbdestsearch,-37.8229471,144.9536277
Melbourne: RubberAmmo Double Documentary Tour,2025-04-10,18:30,Cinema Nova,"380 Lygon Street Carlton, VIC 3053",https://www.eventbrite.com.au/e/melbourne-rubberammo-double-documentary-tour-tickets-1291006107019?aff=ebdssbdestsearch,-37.7981335,144.9677286
Michters at Beneath Driver Lane,2025-04-10,18:00,Beneath Driver Lane,"3 Driver Lane Melbourne, VIC 3000",https://www.eventbrite.com.au/e/michters-at-beneath-driver-lane-tickets-1266720849159?aff=ebdssbdestsearch,-37.8128619,144.9629909
Flow Motion with Kindred Super Band,2025-04-10,19:00,Kindred Bandroom,"3 Harris St, Footscray VIC 3011, Australia",https://www.facebook.com/events/1214478340269400/,-37.8119001,144.9008247
"Amy, Amy",2025-04-10,18:00,Bird's Basement,"11 Singers Ln, Melbourne VIC 3000, Australia",https://www.facebook.com/events/1002520701682532/,-37.81114416,144.95680390283175
BAD THURSDAYS APRIL 10,2025-04-10,12:00,Bad Decisions Bar,"46 Johnston St, Fitzroy VIC 3065, Australia",https://www.facebook.com/events/949806280298542/,-37.798246,144.9762881
The Seven Ups - Thursdays in April @ Shotkickers,2025-04-10,00:00,Shotkickers,"744 High St, Thornbury VIC 3071, Australia",https://www.facebook.com/events/651992823986157/,-37.75592655,145.0013923
Stay Gold Battle Of The Bands - Heat 4,2025-04-10,19:00,Stay Gold,"133 Sydney Rd, Brunswick VIC 3056, Australia",https://www.facebook.com/events/1003638248372307/,-37.7743469,144.9607404
Melbourne: You Am I 'Hi Fi Daily Double Down' - Forum Theatre - Second Show!,2025-04-10,19:00,Forum Melbourne,"154 Flinders St, Melbourne VIC 3000, Australia",https://www.facebook.com/events/1394916785009977/,-37.81644145,144.9693768124984
REVERSE HAPPY HOUR THURSDAYS,2025-04-10,00:00,Inkerman Hotel,"375 Inkerman St, St Kilda East VIC 3183, Australia",https://www.facebook.com/events/416365071539239/,-37.866444,144.99799715146656
Stormchasers,2025-04-10,00:00,Altona Sports Club,"11 Altona Rd, Altona VIC 3018, Australia",https://www.facebook.com/events/1395654478535737/,-37.85754867,144.85121805353086
Rachel Morton: The Sun Was Electric Light,2025-04-10,00:00,The Wheeler Centre,"176 Little Lonsdale St, Melbourne VIC 3000, Australia",https://www.facebook.com/events/9620934864633854/,-37.8101765,144.9652219
Sculpting in Time: The Films of Andrei Tarkovsky,2025-04-10,00:00,Lido Cinemas,"675 Glenferrie Rd, Hawthorn VIC 3122, Australia",https://www.facebook.com/events/1246560979775077/,-37.8205529,145.0355738
Paper Daisies and honeybeam(solo) at The Merri Creek Tavern ,2025-04-10,20:00,The Merri Creek Tavern,"111 High St, Northcote VIC 3070, Australia",https://www.facebook.com/events/656462903445619/,-37.7794356,144.996838
Gary & Hummingbirds & Thursday Night Jam!,2025-04-10,00:00,Hume Blues Club Inc,"27 Ballantyne St, Thornbury VIC 3071, Australia",https://www.facebook.com/events/482997084883223/,-37.7588241,144.9985126
"(Thu, Apr 10) Love Police Presents JOHN CRAIGIE (USA) + KASSI VALAZZA",2025-04-10,00:00,George Lane St Kilda,"1 George Ln, St Kilda VIC 3182, Australia",https://www.facebook.com/events/501152666340422/,-37.85997305,144.9780306
SUCCULENT THURSDAYS,2025-04-10,00:00,Cactus Room,"614 High St, Thornbury VIC 3071, Australia",https://www.facebook.com/events/1396655064837679/,-37.76125825,145.00041662186553
Firefly Horns Paris Cat Jazz Club - DEBUT SHOW!!,2025-04-10,00:00,Paris Cat Jazz Club,"6 Goldie Pl, Melbourne VIC 3000, Australia",https://www.facebook.com/events/1202634191424335/,-37.8133262,144.96060714767358
Ups and Downs 40th Anniversary Show - Marrickville ,2025-04-10,19:30,The Flying Saucer Club,"979-985 Nepean Hwy, Moorabbin VIC 3189, Australia",https://www.facebook.com/events/1206888597048281/,-37.9369432,145.0373674
Turge towing community fair,2025-04-10,20:30,Bar Open,"317 Brunswick St, Fitzroy VIC 3065, Australia",https://www.facebook.com/events/1139626191234368/,-37.79773,144.978425
Best of the Edinburgh Fest,2025-04-10,19:45,Melbourne International Comedy Festival,Melbourne,https://www.facebook.com/events/546441441530207/,-37.8136,144.9631
One Piece TCG Freeplay - Free Event!,2025-04-10,06:00,Fortress Melbourne,"Shop 25/23 Caledonian Ln, Melbourne VIC 3000, Australia",https://www.facebook.com/events/1385556329104071/,-37.8120357,144.9642299
Katankin live at The Drunken Poet,2025-04-10,00:00,The Drunken Poet,"65 Peel St, West Melbourne VIC 3003, Australia",https://www.facebook.com/events/1034707225376865/,-37.8066759,144.9555612
Max König | The Ember Lounge,2025-04-10,19:30,MEMO Music Hall,"88 Acland St, St Kilda VIC 3182, Australia",https://www.facebook.com/events/1579656826084460/,-37.8671902,144.9786817
Jade Paw @ BAR OUSSOU!,2025-04-10,20:00,Bar Oussou,"653 Sydney Rd, Brunswick VIC 3056, Australia",https://www.facebook.com/events/1017000743659581/,-37.7618155,144.9628753
The Penguin Lessons: Matinee Film Club,2025-04-10,10:30,Cinema Nova,"380 Lygon St, Carlton VIC 3053, Australia",https://www.facebook.com/events/650298021322914/,-37.7978092,144.9680124
BURNING RED - The Australian Taylor Tribute Show,2025-04-10,00:00,Musicland Melbourne,"1359 Sydney Rd, Fawkner VIC 3060, Australia",https://www.facebook.com/events/1150227996494254/,-37.6916774,144.9585701581541
Michter's Cocktail Party,2025-04-10,00:00,Beneath Driver Lane,"Shop/3 Little Bourke St, Melbourne VIC 3000, Australia",https://www.facebook.com/events/631362963153951/,-37.81355072,144.96171479034044
Euro Under18s - Balkan Edition,2025-04-10,17:00,Chasers Nightclub,"386 Chapel Street South Yarra, VIC 3141",https://www.eventbrite.com.au/e/euro-under18s-balkan-edition-tickets-1123357234729?aff=ebdssbdestsearch,-37.8459028,144.9947039
AC2ZZ (and everything in between),2025-04-11,00:00,Musicland Melbourne,"1359 Sydney Rd, Fawkner VIC 3060, Australia",https://www.facebook.com/events/912852357561773/,-37.6916774,144.9585701581541
BEYONCÉ COWBOY CARTER PARTY - Melbourne,2025-04-11,23:00,The Night Cat,"137-141 Johnston St, Fitzroy VIC 3065, Australia",https://www.facebook.com/events/623562673821689/,-37.7982971,144.978128
We're Riding With the Kings,2025-04-11,19:00,MEMO Music Hall,"88 Acland St, St Kilda VIC 3182, Australia",https://www.facebook.com/events/2409901682681835/,-37.8671902,144.9786817
You Am I - The Hi Fi Daily Double Down Tour,2025-04-11,12:00,Forum Melbourne,"150 Flinders St, Melbourne VIC 3000, Australia",https://premier.ticketek.com.au/shows/show.aspx?sh=YOUAM25,-37.8166268,144.9695761
Carpe Noctem Vampire Ball,2025-04-11,19:30,"400 Sydney Road, Brunswick VIC, Australia","400 Sydney Road Brunswick, VIC 3056",https://www.eventbrite.com.au/e/carpe-noctem-vampire-ball-tickets-1039755465587?aff=ebdssbdestsearch,-37.768527,144.9621946
Asanti Beats MEGA SHOW @ BAR OUSSOU!,2025-04-11,19:00,Bar Oussou,"653 Sydney Rd, Brunswick VIC 3056, Australia",https://www.facebook.com/events/1030940565554909/,-37.7618155,144.9628753
JJ Lin,2025-04-11,12:00,Rod Laver Arena,"200 Batman Ave, Melbourne VIC 3000, Australia",https://premier.ticketek.com.au/shows/show.aspx?sh=JJLIN25,-37.8216161,144.9785584
SUFIYANA,2025-04-11,21:00,The Promenade Docklands,"78 Newquay Promenade #Suite 2, Level 1 Docklands, VIC 3008",https://www.eventbrite.com.au/e/sufiyana-tickets-1301925437029?aff=ebdssbdestsearch,-37.8145014,144.9392306
Ancient Methods (Berlin) – Exclusive Melbourne • Industrial Techno Rave,2025-04-11,22:00,"New Guernica, Smith Street, Collingwood VIC, Australia","64 Smith Street Collingwood, VIC 3066",https://www.eventbrite.com.au/e/ancient-methods-berlin-exclusive-melbourne-industrial-techno-rave-tickets-1290666090019?aff=ebdssbdestsearch,-37.8062529,144.9832565
SubVerse,2025-04-11,21:00,My Aeon,"791 Sydney Rd, Brunswick Melbourne, VIC 3056",https://www.eventbrite.com.au/e/subverse-tickets-1298858914979?aff=ebdssbdestsearch,-37.7581868,144.9633301
"Prom Alt-Femme Disco Party, FRI April 11",2025-04-11,21:00,Yah Yahs,"99 Smith Street Fitzroy, VIC 3065",https://www.eventbrite.com.au/e/prom-alt-femme-disco-party-fri-april-11-tickets-1309249062189?aff=ebdssbdestsearch,-37.8058635,144.9829641
Ancient Methods (Berlin) – 3-Hour Set - Doom Gen Melbourne Exclusive,2025-04-11,22:00,"New Guernica, Smith Street, Collingwood VIC, Australia","64 Smith Street Collingwood, VIC 3066",https://www.eventbrite.com.au/e/ancient-methods-berlin-3-hour-set-doom-gen-melbourne-exclusive-tickets-1290666090019?aff=ebdssbdestsearch,-37.8062529,144.9832565
KODAK - RUNWAY PT. 2,2025-04-11,20:00,345 Clarendon St,"345 Clarendon Street South Melbourne, VIC 3205",https://www.eventbrite.com.au/e/kodak-runway-pt-2-tickets-1286002912329?aff=ebdssbdestsearch,-37.83531900000001,144.9619407
Inked Expo 2025,2025-04-11,10:00,Melbourne Convention and Exhibition Centre (MCEC),"1 Convention Centre Place South Wharf, VIC 3006",https://www.eventbrite.com.au/e/inked-expo-2025-tickets-1081421263109?aff=ebdssbdestsearch,-37.82520299999999,144.952251
Conscious Connection | Pour Decisions Club (ages 25-40),2025-04-11,19:00,Northside Wines,"543-545 High Street Northcote, VIC 3070",https://www.eventbrite.com.au/e/conscious-connection-pour-decisions-club-ages-25-40-tickets-1289151740559?aff=ebdssbdestsearch,-37.764227,144.9994439
MTech - Employability Workshop for Tech Consulting,2025-04-11,17:00,Infrastructure Engineering Building,"Room 428, Level 4 Infrastructure Engineering Building - Block C (Building 174) Parkville, VIC 3052",https://www.eventbrite.com/e/mtech-employability-workshop-for-tech-consulting-tickets-1292246497059?aff=ebdssbdestsearch,-37.7998566,144.9614187
MCA 2025 Worlds Showoffs,2025-04-11,18:30,1/37-39 Lexton Rd,"37-39 Lexton Road #1 Box Hill North, VIC 3129",https://www.eventbrite.com.au/e/mca-2025-worlds-showoffs-tickets-1281856229489?aff=ebdssbdestsearch,-37.811902,145.135888
ELI & FUR at Circus - Seeing Double Fridays,2025-04-11,22:00,Circus Bar,"199 Commercial Road South Yarra, VIC 3141",https://www.eventbrite.com.au/e/eli-fur-at-circus-seeing-double-fridays-tickets-1292400949029?aff=ebdssbdestsearch,-37.8465589,144.993086
D.A.T.A Day Experience 11th April 2025,2025-04-11,12:00,Hotel Esplanade (Pharmacy Room),"11 The Esplanade St Kilda, VIC 3182",https://www.eventbrite.com.au/e/data-day-experience-11th-april-2025-tickets-1248194656819?aff=ebdssbdestsearch,-37.8641604,144.9730092
"IZZI, The Pulse Begins! Live at The Central Club Hotel, Richmond",2025-04-11,19:00,The Central Club Hotel,"293 Swan Street Richmond, VIC 3121",https://www.eventbrite.com.au/e/izzi-the-pulse-begins-live-at-the-central-club-hotel-richmond-tickets-1281990842119?aff=ebdssbdestsearch,-37.8261341,145.0028911
Source Pro Melbourne,2025-04-11,08:00,Melbourne Convention and Exhibition Centre (MCEC),"1 Convention Centre Place South Wharf, VIC 3006",https://www.eventbrite.com.au/e/source-pro-melbourne-tickets-1247052360179?aff=ebdssbdestsearch,-37.82520299999999,144.952251
"FULL MOON: Sound Immersion & Guided Meditation (Moorabbin, Vic)",2025-04-11,19:00,Southern Yoga and Health Centre,"24 Station Street Moorabbin, VIC 3189",https://www.eventbrite.com.au/e/full-moon-sound-immersion-guided-meditation-moorabbin-vic-tickets-1141944670249?aff=ebdssbdestsearch,-37.9344228,145.037409
Kindred Singles (20s - 40s) - A Speed Dating Event for Conscious Relating.,2025-04-11,18:30,Centre of You,"Upstairs, 217 Chapel St Prahran Melbourne, VIC 3181",https://www.eventbrite.com.au/e/kindred-singles-20s-40s-a-speed-dating-event-for-conscious-relating-tickets-1149093753349?aff=ebdssbdestsearch,-37.8509316,144.9933031
Barbarion W/ Porcus vs Equus - Last Chance Bar,2025-04-11,20:00,The Last Chance,"238 Victoria St, Melbourne VIC 3000, Australia",https://www.facebook.com/events/1651363419084550/,-37.8059962,144.9585654
BABY BLUE + DOBERWOMANN + MADELINE LEMAN AT THE RETREAT,2025-04-11,19:30,280 Sydney Rd,"280 Sydney Road Brunswick, VIC 3056",https://www.eventbrite.com.au/e/baby-blue-doberwomann-madeline-leman-at-the-retreat-tickets-1256205657939?aff=ebdssbdestsearch,-37.7711488,144.9616353
BABY BLUE + LACKY BAND + MADELINE LEMAN AT THE RETREAT,2025-04-11,00:00,Retreat Hotel,"Level 1/280 Sydney Rd, Brunswick VIC 3056, Australia",https://www.facebook.com/events/935141405269504/,-37.7711487,144.9615949
ARCOBAR'S 7TH BIRTHDAY CELEBRATION | Marty Rose Band Dinner & Show,2025-04-11,00:00,arcobar heatherton,"8 Arco Ln, Heatherton VIC 3202, Australia",https://www.facebook.com/events/1571914446846702/,-37.94673685,145.07837928457485
Origami Angel // Melbourne // Australia Tour 2025 // Stay Gold,2025-04-11,18:30,Stay Gold,"133 Sydney Rd, Brunswick VIC 3056, Australia",https://www.facebook.com/events/2398525303814506/,-37.7743469,144.9607404
Tequila Brothers & Jenn Allas,2025-04-11,00:00,Altona Sports Club,"11 Altona Rd, Altona VIC 3018, Australia",https://www.facebook.com/events/641275838773169/,-37.85754867,144.85121805353086
Shelter Pres - Camoufly | Melbourne ,2025-04-11,20:00,Howler,"7-11 Dawson St, Brunswick VIC 3056, Australia",https://www.facebook.com/events/1966812780482277/,-37.7720304,144.9596527
Le POLICE Rocks Lucky 13 Garage,2025-04-11,00:00,Lucky 13 Garage,"8 Cochranes Rd, Moorabbin VIC 3189, Australia",https://www.facebook.com/events/1703073573751031/,-37.94349189,145.07036236060654
"(Fri, Apr 11) THE KEVIN BORICH EXPRESS",2025-04-11,00:00,George Lane St Kilda,"1 George Ln, St Kilda VIC 3182, Australia",https://www.facebook.com/events/2026873321111816/,-37.85997305,144.9780306
Peter Combe in his Greatest Hits Show,2025-04-11,14:00,Melbourne Recital Centre,"31 Sturt St, Southbank VIC 3006, Australia",https://www.facebook.com/events/980689713645545/,-37.82408485,144.96758763141432
Jumpin Jack Jordan & Friends @ The Ragtime Tavern,2025-04-11,00:00,Ragtime Tavern,"206 Tyler St, Preston VIC 3072, Australia",https://www.facebook.com/events/1408501790284404/,-37.7310367,145.0142411
"Psychedelic Porn Crumpets @ Corner Hotel, Melbourne - Friday 11th April 2025",2025-04-11,19:00,The Corner Hotel,"57 Swan St, Richmond VIC 3121",https://www.facebook.com/events/627463410242008/,-37.82464307,144.9926962
'VARIOUS WAYS TO SEE THE LIGHT' EP LAUNCH @ THE BERGY BANDROOM,2025-04-11,00:00,Bergy Bandroom,"64 Sydney Rd, Brunswick VIC 3056, Australia",https://www.facebook.com/events/1324996605493110/,-37.776327,144.9607158
Mana on Tap: Magic the Gathering ,2025-04-11,00:00,Fortress Melbourne,"Shop 25/23 Caledonian Ln, Melbourne VIC 3000, Australia",https://www.facebook.com/events/897086662507640/?event_time_id=942148388001467,-37.8120357,144.9642299
The Civilians | Punters DJ sessions,2025-04-11,23:59,Punters Club,"376 Brunswick St, Fitzroy VIC 3065, Australia",https://www.facebook.com/events/629460776595428/,-37.7960561,144.9790327
COOL OUT SUN | Live at Punters Club,2025-04-11,22:00,Punters Club,"376 Brunswick St, Fitzroy VIC 3065, Australia",https://www.facebook.com/events/1193614088826953/,-37.7960561,144.9790327
Climate Watch Walk - Cranbourne,2025-04-11,00:00,Botanic gardens,"Birdwood Ave Melbourne VIC 3004, Australia",https://www.facebook.com/events/929601699239963/,-37.82683271,144.97238679810675
King Of Spain w/ Jay Jarome & Your Girl Pho @ Cactus Room | Friday April 11,2025-04-11,20:00,Cactus Room,"614 High St, Thornbury VIC 3071, Australia",https://www.facebook.com/events/470696559455407/,-37.76125825,145.00041662186553
Cult Classics at Lido,2025-04-11,00:00,Lido Cinemas,"675 Glenferrie Rd, Hawthorn VIC 3122, Australia",https://www.facebook.com/events/1004435021237025/,-37.8205529,145.0355738
MANGO CLUB | 11.04.25 | MANG-CHELLA 2025,2025-04-11,00:00,Mango Club,"577 Little Bourke St Docklands VIC 3000, Australia",https://www.facebook.com/events/1878226849612913/,-37.81578222,144.95396129427266
Memory Palace / Noise Vows / Palpitations ,2025-04-11,00:00,Mamma Chen's,"42A Albert St, Footscray VIC 3011, Australia",https://www.facebook.com/events/1004450901596905/,-37.8047552,144.89727240000002
USER - MIRA IMPOSTA album tour with special guests HARRY HOWARD’S Slight Pavilions and Long Hours ,2025-04-11,00:00,The Old Bar,"74-76 Johnston St, Fitzroy VIC 3065, Australia",https://www.facebook.com/events/1818662578954383/,-37.79833,144.97711
AMITY | onesixone Friday,2025-04-11,21:00,onesixone,"161 High St, Prahran VIC 3181, Australia",https://www.facebook.com/events/668298289471121/,-37.85425256,145.0112666323418
"Andrew Swift at Mantra Studio Kitchen & Bar, Yarraville VIC",2025-04-11,08:00,Mantra Studio Kitchen and Bar,"10 Campbell St, Yarraville VIC 3013, Australia",https://www.facebook.com/events/2357163314644173/,-37.820684,144.8947691
"Battlesnake with Peach Fuzz, Milk After Sex & Destrends DJs",2025-04-11,19:30,Kindred Bandroom,"3 Harris St, Footscray VIC 3011, Australia",https://www.facebook.com/events/937858608241738/,-37.8119001,144.9008247
Fat'azz for the great 'Azzer Sound,2025-04-11,19:30,One2three Bar,"123 Queens Parade, Clifton Hill VIC 3068, Australia",https://www.facebook.com/events/1582530932405946/,-37.7892833,144.9901391
Bebe's Bar - RadioActive - Direct from CANADA,2025-04-11,00:00,Musicland Melbourne,"1359 Sydney Rd, Fawkner VIC 3060, Australia",https://www.facebook.com/events/636005322297309/,-37.6916774,144.9585701581541
 ANDREW SWIFT with Special Guest DAKOTA EAST AT MANTRA STUDIO ON FRIDAY 11 APRIL FROM 8.00PM,2025-04-11,00:00,Mantra Studio Kitchen and Bar,"10 Campbell St, Yarraville VIC 3013, Australia",https://www.facebook.com/events/1232092341613409/,-37.820684,144.8947691
Ancient Methods (Berlin) – 3-Hour Set - DOOM GEN x New Guernica – Melbourne Exclusive,2025-04-11,00:00,New Guernica,"64 Smith St, Collingwood VIC 3066, Australia",https://www.facebook.com/events/993427519397635/,-37.80624775,144.98331211946754
FADS QUEER RAVE,2025-04-11,20:00,Bad Decisions Bar,"46 Johnston St, Fitzroy VIC 3065, Australia",https://www.facebook.com/events/651103717624321/,-37.798246,144.9762881
KIRSTY WEBECK - Everything I Need To Say About Sea Creatures | MELBOURNE (Thornbury Theatre Shows),2025-04-11,00:00,The Thornbury Theatre,"859 High St, Thornbury VIC 3071, Australia",https://www.facebook.com/events/3907495069525197/,-37.754662,145.0011167
Roda de Samba @ 303 ,2025-04-11,00:00,Bar 303,"303 High St, Northcote VIC 3070, Australia",https://www.facebook.com/events/649518227668628/,-37.7713296,144.99828116650363
Arj Barker: The Mind Field | MICF 2025,2025-04-11,00:00,Palladium at Crown,"Level 1 Crown Towers, Crown Melbourne, 8 Whiteman St, Southbank VIC 3006, Australia",https://www.facebook.com/events/573144425370526/,-37.822181,144.959875
[SOLD OUT] Henry Wagons | Stories From The Road Tour | Melbourne Night 2,2025-04-11,20:30,The Merri Creek Tavern,"111 High St, Northcote VIC 3070, Australia",https://www.facebook.com/events/1763563277708017/,-37.7794356,144.996838
Oppaacha + Dilby — Ugenius x Valiant x Revolver Fridays,2025-04-11,00:00,Revolver Upstairs,"Level 2/229 Chapel St, Prahran VIC 3181, Australia",https://www.facebook.com/events/1162858831782467/,-37.8505902,144.9933469
[SOLD OUT] Melbourne: You Am I 'Hi Fi Daily Double Down'  - Forum Melbourne,2025-04-11,19:30,Forum Melbourne,"154 Flinders St, Melbourne VIC 3000, Australia",https://www.facebook.com/events/998464181828792/,-37.81644145,144.9693768124984
"The Second High Album Launch Tour 2025 - The Night Cat, Fitzroy VIC",2025-04-11,20:00,The Night Cat,"137-141 Johnston St, Fitzroy VIC 3065, Australia",https://www.facebook.com/events/991401629547934/,-37.7982971,144.978128
Jade MacRae,2025-04-11,18:00,Bird's Basement,"11 Singers Ln, Melbourne VIC 3000, Australia",https://www.facebook.com/events/1532987804052715/,-37.81114416,144.95680390283175
sugarush: Pink Pony Club - Chappell Roan Night - Melbourne,2025-04-11,23:00,Stay Gold,"133 Sydney Rd, Brunswick VIC 3056, Australia",https://www.facebook.com/events/1855943271844731/,-37.7743469,144.9607404
GROSSOMODDO Live in Melbourne,2025-04-11,21:00,Howler,"7-11 Dawson St, Brunswick VIC 3056, Australia",https://www.facebook.com/events/1798149397794104/,-37.7720304,144.9596527
Ablaze 'Next Train Out' Single Launch - Melbourne w/ Atomic Riot & El Bebe,2025-04-11,20:00,Northcote Social Club,"301 High St, Northcote VIC 3070, Australia",https://www.facebook.com/events/630578399575380/,-37.771471,144.998414
Kool Kids Easter Wonderland,2025-04-12,10:00,Royal Melbourne Hotel,"629 Bourke Street Melbourne, VIC 3000",https://www.eventbrite.com.au/e/kool-kids-easter-wonderland-tickets-1255221173319?aff=ebdssbdestsearch,-37.8168528,144.9552468
"Clayton Childbirth education-Labour, Birth & Baby: 12th April, 2025",2025-04-12,08:30,246 Clayton Rd,"246 Clayton Road Clayton, VIC 3168",https://www.eventbrite.com/e/clayton-childbirth-education-labour-birth-baby-12th-april-2025-tickets-1247653427989?aff=ebdssbdestsearch,-37.9105091,145.122742
On Purpose,2025-04-12,10:00,The Man Cave,"20 Ovens Street Brunswick, VIC 3056",https://www.eventbrite.com/e/on-purpose-tickets-1285668441919?aff=ebdssbdestsearch,-37.76512719999999,144.961697
Heritage Collective X Transported  VOL 1,2025-04-12,16:00,Joey Smalls,"284 Sydney Road Brunswick, VIC 3056",https://www.eventbrite.com/e/heritage-collective-x-transported-vol-1-tickets-1300315070379?aff=ebdssbdestsearch,-37.7710648,144.9616319
"Elvis by Anthony Petrucci | Live at Amphora, Docklands",2025-04-12,17:00,Amphora,"740 Bourke Street #Level 1 Docklands, VIC 3008",https://www.eventbrite.com/e/elvis-by-anthony-petrucci-live-at-amphora-docklands-tickets-1252600113659?aff=ebdssbdestsearch,-37.8165422,144.9463855
ARCANE: LEAGUE OF LEGENDS RAVE Melbourne - ON SALE,2025-04-12,20:00,Deluxe Bar,"595 Mount Alexander Road Moonee Ponds, VIC 3039",https://www.eventbrite.com.au/e/arcane-league-of-legends-rave-melbourne-on-sale-registration-1256126982619?aff=ebdssbdestsearch,-37.768313,144.925046
JesseMelancholy Kiss The Sky Release Party,2025-04-12,19:00,Stay Gold,"133 Sydney Road Brunswick, VIC 3056",https://www.eventbrite.com.au/e/jessemelancholy-kiss-the-sky-release-party-tickets-1261878615909?aff=ebdssbdestsearch,-37.77435880000001,144.9606103
turbo422 > 12.04,2025-04-12,22:00,turbo422,"422 Little Collins Street Melbourne, VIC 3000",https://www.eventbrite.com.au/e/turbo422-1204-tickets-1301706833179?aff=ebdssbdestsearch,-37.8160523,144.9603782
Holi Festival Melbourne 12 April,2025-04-12,13:30,Ivanhoe Library and Cultural Hub,"275 Upper Heidelberg Road Ivanhoe, VIC 3079",https://www.eventbrite.com.au/e/holi-festival-melbourne-12-april-tickets-1280357717399?aff=ebdssbdestsearch,-37.7662297,145.0455745
Rock on down  to Beena  with  the Fabulous 4 piece Bruno Band !,2025-04-12,19:00,Murrumbeena Park Bowls Club,"26-28 Gerald Street Murrumbeena, VIC 3163",https://www.eventbrite.com.au/e/rock-on-down-to-beena-with-the-fabulous-4-piece-bruno-band-tickets-1274917997049?aff=ebdssbdestsearch,-37.8963156,145.0699258
"SNAP!, CeCe Peniston, D:Ream",2025-04-12,12:00,Forum Melbourne,"180 Flinders St, Melbourne VIC 3000, Australia",https://premier.ticketek.com.au/shows/show.aspx?sh=SNAP25,-37.816602,144.9694678
Slowly Slowly,2025-04-12,12:00,Margaret Court Arena,"5XHH+G3 Melbourne VIC, Australia",https://premier.ticketek.com.au/shows/show.aspx?sh=SLOWSLOW25,-37.8211276,144.9776364
Healing 101,2025-04-12,14:00,"Oracle of Crystals, 228 Glenferrie Road, Malvern VIC, Australia","228 Glenferrie Road Malvern, VIC 3144",https://www.eventbrite.com.au/e/healing-101-tickets-1271860160979?aff=ebdssbdestsearch,-37.8585334,145.0292064
Olaf Scott’s Hammond Party Time at The Lomond Hotel.,2025-04-12,21:00,The Lomond Hotel,"225 Nicholson Street Brunswick East, VIC 3057",https://www.eventbrite.com.au/e/olaf-scotts-hammond-party-time-at-the-lomond-hotel-tickets-1304894788439?aff=ebdssbdestsearch,-37.7670861,144.9800057
"Mind Body Balance: Cacao, Breathwork & Yin Yoga (Session Two)",2025-04-12,15:00,Brighton - Exact Location shared with ticket,"North Brighton North Brighton, VIC 3186",https://www.eventbrite.com/e/mind-body-balance-cacao-breathwork-yin-yoga-session-two-registration-1297722405649?aff=ebdssbdestsearch,-37.903623,145.004905
Matcha Temple Party!,2025-04-12,18:00,Temple Arden,"135 Arden Street North Melbourne, VIC 3051",https://www.eventbrite.com.au/e/matcha-temple-party-tickets-1309527956369?aff=ebdssbdestsearch,-37.8006807,144.9454354
Australian Distillers Festival 2025,2025-04-12,12:00,Abbotsford Convent,"1 Saint Heliers Street Abbotsford, VIC 3067",https://www.eventbrite.com.au/e/australian-distillers-festival-2025-tickets-1004879661117?aff=ebdssbdestsearch,-37.8026835,145.0027506
MenXclusive  The Show Melbourne 12 April,2025-04-12,19:00,Platform One,"375 Flinders Street Melbourne, VIC 3000",https://www.eventbrite.com.au/e/menxclusive-the-show-melbourne-12-april-tickets-1275628040809?aff=ebdssbdestsearch,-37.8192278,144.9622577
MSA Trips: Werribee Open Range Zoo,2025-04-12,10:00,Robert Blackwood Hall,"49 Scenic Boulevard Monash University, VIC 3800",https://www.eventbrite.com.au/e/msa-trips-werribee-open-range-zoo-tickets-1247706747469?aff=ebdssbdestsearch,-37.9127953,145.1352488
Eat The Beat : Connect,2025-04-12,22:00,New Guernica,"64 Smith Street Collingwood, VIC 3066",https://www.eventbrite.com.au/e/eat-the-beat-connect-tickets-1292350628519?aff=ebdssbdestsearch,-37.8062529,144.9832565
“MVMNT”,2025-04-12,16:00,Lucky Schmuck,"719 High Street Thornbury, VIC 3071",https://www.eventbrite.com/e/mvmnt-tickets-1259166574119?aff=ebdssbdestsearch,-37.759026,145.000313
"The Funk Factory - Ft Moontricks, Boydex & Friends + MORE!",2025-04-12,18:00,Bourke Street Courtyard,"629 Bourke Street Melbourne, VIC 3004",https://www.eventbrite.com/e/the-funk-factory-ft-moontricks-boydex-friends-more-tickets-1235147181469?aff=ebdssbdestsearch,-37.8168528,144.9552468
EUPHORIA @ Trak,2025-04-12,21:00,Trak Lounge Bar,"445 Toorak Road Toorak, VIC 3142",https://www.eventbrite.com.au/e/euphoria-trak-tickets-1271859639419?aff=ebdssbdestsearch,-37.840708,145.0077887
ISABELLE DAVIS | ‘BREAK’ MUSIC VIDEO PREMIERE SCREENING & SINGLE LAUNCH,2025-04-12,16:00,Thornbury Picture House,"802 High Street Thornbury, VIC 3071",https://www.eventbrite.com.au/e/isabelle-davis-break-music-video-premiere-screening-single-launch-tickets-1278986726729?aff=ebdssbdestsearch,-37.7539537,145.0017483
毛冬脱口秀专场 - 墨尔本国际喜剧节,2025-04-12,07:30,Building 16 (Storey Hall) - RMIT University,"348 Swanston Street #Building 16 336 Melbourne, VIC 3000",https://www.eventbrite.com/e/1190009503459?aff=ebdssbdestsearch,-37.8091922,144.9639727
LUX VIP MELB : Super Yacht Party,2025-04-12,16:00,Docklands,"Marina Docklands, VIC 3008",https://www.eventbrite.com.au/e/lux-vip-melb-super-yacht-party-tickets-1013297769907?aff=ebdssbdestsearch,-37.8170652,144.9419122
Wellness through Meditation,2025-04-12,10:00,Glen Eira City Council,"420 Glen Eira Road Caulfield, VIC 3162",https://www.eventbrite.com.au/e/wellness-through-meditation-tickets-1221932365599?aff=ebdssbdestsearch,-37.8803378,145.0223932
Where Love Lives ~ EARTH ~ Feat: Per QX (Sweden / Bali),2025-04-12,15:00,The Emerson Rooftop Bar and Club,"141-145 Commercial Road South Yarra, VIC 3141",https://www.eventbrite.com.au/e/where-love-lives-earth-feat-per-qx-sweden-bali-tickets-1279688706369?aff=ebdssbdestsearch,-37.8462997,144.9911964
Sweetnotes Music Live in Melbourne,2025-04-12,18:30,Club Italia Sunshine,"128-152 Furlong Road Sunshine, VIC 3020",https://www.eventbrite.com.au/e/sweetnotes-music-live-in-melbourne-tickets-1143972154509?aff=ebdssbdestsearch,-37.7609008,144.8180579
Sun & Moon Heart Circle,2025-04-12,12:00,29 Ruskin St,"29 Ruskin Street Elwood, VIC 3184",https://www.eventbrite.com.au/e/sun-moon-heart-circle-tickets-1255425464359?aff=ebdssbdestsearch,-37.8752812,144.9827616
"LOEV's Trivia Night Plus- April 12th, Moorabbin",2025-04-12,19:00,LOEV,"77 Keys Road Moorabbin, VIC 3189",https://www.eventbrite.com.au/e/loevs-trivia-night-plus-april-12th-moorabbin-tickets-1256231846269?aff=ebdssbdestsearch,-37.9484271,145.067727
The Advantages of Creating 2 v 1's in the Modern Game - Dr Ron Smith,2025-04-12,09:30,The Home of The Matildas & Victorian State Football Centre,"Sports Drive Bundoora, VIC 3083",https://www.eventbrite.com.au/e/the-advantages-of-creating-2-v-1s-in-the-modern-game-dr-ron-smith-tickets-1304945760899?aff=ebdssbdestsearch,-37.7252236,145.044919
Pugs 'n' Stripes Collection Launch Pawty,2025-04-12,14:00,Bark Park,"48 Roberna Street Moorabbin, VIC 3189",https://www.eventbrite.com.au/e/pugs-n-stripes-collection-launch-pawty-tickets-1300229995919?aff=ebdssbdestsearch,-37.9433315,145.0683866
Brunswick in the Great Depression History Walk,2025-04-12,11:00,61 Lydia St,"61 Lydia Street Brunswick, VIC 3056",https://www.eventbrite.com.au/e/brunswick-in-the-great-depression-history-walk-tickets-1306095880939?aff=ebdssbdestsearch,-37.7712728,144.9674864
That kid kearve dirty money aroma Melbourne,2025-04-12,19:00,Laundry Bar,"50 Johnston Street Fitzroy, VIC 3065",https://www.eventbrite.com.au/e/that-kid-kearve-dirty-money-aroma-melbourne-tickets-1256139018619?aff=ebdssbdestsearch,-37.79831,144.976368
Friends On Purpose: Puppy Yoga,2025-04-12,13:30,Studio 14,"14 Pakington Street #Level 1 St Kilda, VIC 3182",https://www.eventbrite.com.au/e/friends-on-purpose-puppy-yoga-tickets-1298746859819?aff=ebdssbdestsearch,-37.8655601,144.9873231
Melbourne  SCIENCE FANTASY RAVE,2025-04-12,20:00,Deluxe Bar,"595 Mount Alexander Road Moonee Ponds, VIC 3039",https://www.eventbrite.com.au/e/melbourne-science-fantasy-rave-registration-1256126982619?aff=ebdssbdestsearch,-37.768313,144.925046
Golden Hour 'Nine Lives' Album Launch ft. G Tano and Minluv,2025-04-12,19:30,280 Sydney Rd,"280 Sydney Road Brunswick, VIC 3056",https://www.eventbrite.com.au/e/golden-hour-nine-lives-album-launch-ft-g-tano-and-minluv-tickets-1288945995169?aff=ebdssbdestsearch,-37.7711488,144.9616353
Journey Of Sound pres. HENRY SAIZ (ESP) - Melbourne 2025,2025-04-12,18:00,Howler,"7-11 Dawson St, Brunswick VIC 3056, Australia",https://www.facebook.com/events/1798601604264267/,-37.7720304,144.9596527
"Ausecuma Beats with Immy Owusu, AKA Zeb (live), Dom Carpenter Trio & more",2025-04-12,19:30,Kindred Bandroom,"3 Harris St, Footscray VIC 3011, Australia",https://www.facebook.com/events/2347916118923486/,-37.8119001,144.9008247
Melbourne Bar Crawl | #1 Saturday Night Out,2025-04-12,00:00,On The Rocks Bar Crawl Melbourne,"The Joint, 35 Elizabeth St, Melbourne VIC 3000, Australia",https://www.facebook.com/events/1358139498520971/,-37.8172989,144.9643996
"(Sat, Apr 12) NOAH TATE (BEL) (George Lane Matinee Sessions)",2025-04-12,00:00,George Lane St Kilda,"1 George Ln, St Kilda VIC 3182, Australia",https://www.facebook.com/events/1590429428283865/,-37.85997305,144.9780306
Robin Boyd's Neighbourhood Walking Tour,2025-04-12,10:30,Botanic gardens,"Birdwood Ave Melbourne VIC 3004, Australia",https://www.facebook.com/events/631225982605786/,-37.82683271,144.97238679810675
Dreaming Of Saturn: SZA Appreciation Night - Melbourne,2025-04-12,23:00,Stay Gold,"133 Sydney Rd, Brunswick VIC 3056, Australia",https://www.facebook.com/events/1791345814976041/,-37.7743469,144.9607404
Horns of Leroy | April Residency | Live at Punters Club,2025-04-12,00:00,Punters Club,"376 Brunswick St, Fitzroy VIC 3065, Australia",https://www.facebook.com/events/613094115030510/,-37.7960561,144.9790327
TASTE OF IRELAND ,2025-04-12,00:00,Inkerman Hotel,"375 Inkerman St, St Kilda East VIC 3183, Australia",https://www.facebook.com/events/494748156796361/,-37.866444,144.99799715146656
"(Sat, Apr 12) THE RESIGNATORS (Single Launch) + LOIN GROIN",2025-04-12,00:00,George Lane St Kilda,"1 George Ln, St Kilda VIC 3182, Australia",https://www.facebook.com/events/1067628558738026/,-37.85997305,144.9780306
Lorcana Weekly Limited - Sealed,2025-04-12,00:00,The Gaming Arena,"123 Bakers Rd, Coburg North VIC 3058, Australia",https://www.facebook.com/events/529361729949752/,-37.72715826,144.96115535488718
Swinging Doors: A Celebration of Merle Haggard,2025-04-12,20:30,The Gem Bar and Dining,"289 Wellington St, Collingwood VIC 3066, Australia",https://www.facebook.com/events/1018896066772619/,-37.7963837,144.9875917
Society of Beggars 'Levitator' Tour (Album Launch) - W/ Palpitations & Great Australian Bank,2025-04-12,20:00,The Old Bar,"74-76 Johnston St, Fitzroy VIC 3065, Australia",https://www.facebook.com/events/1284072262701321/,-37.79833,144.97711
Rudi Sound @Bar303,2025-04-12,00:00,Bar 303,"303 High St, Northcote VIC 3070, Australia",https://www.facebook.com/events/1162585731662922/,-37.7713296,144.99828116650363
SuperTrouper - The ABBA Tribute @ Oakleigh Music Hall,2025-04-12,00:00,Oakleigh Carnegie RSL,"95/97 Drummond St, Oakleigh VIC 3166, Australia",https://www.facebook.com/events/4081483035509946/,-37.8968576,145.08963741959553
Out on the Deck with Big Cat,2025-04-12,13:00,Kindred Bandroom,"3 Harris St, Footscray VIC 3011, Australia",https://www.facebook.com/events/1254444282682144/,-37.8119001,144.9008247
Eat The Beat : Connect,2025-04-12,00:00,New Guernica,"64 Smith St, Collingwood VIC 3066, Australia",https://www.facebook.com/events/1359649548512973/,-37.80624775,144.98331211946754
Push the Trigger & friends: Rock'n'Roll Triple Threat,2025-04-12,00:00,Mr Boogie Man Bar,"160 Hoddle St, Abbotsford VIC 3067, Australia",https://www.facebook.com/events/1506602090311301/,-37.80245,144.99295304614787
(SELLING FAST!) ANDREW SWIFT | CMAA Golden Male Artist of the Year | Exclusive Melbourne Show,2025-04-12,00:00,arcobar heatherton,"8 Arco Ln, Heatherton VIC 3202, Australia",https://www.facebook.com/events/566405922900025/,-37.94673685,145.07837928457485
The PMDD Gig,2025-04-12,19:00,Mamma Chen's,"42A Albert St, Footscray VIC 3011, Australia",https://www.facebook.com/events/1738666350198392/,-37.8047552,144.89727240000002
"Smoked Salmon (Kim Salmon), Dan Kelly, Rosie Westbrook ",2025-04-12,20:00,Northcote Social Club,"301 High St, Northcote VIC 3070, Australia",https://www.facebook.com/events/3602073566768805/,-37.771471,144.998414
THE LOST DEITY,2025-04-12,19:00,Bad Decisions Bar,"46 Johnston St, Fitzroy VIC 3065, Australia",https://www.facebook.com/events/3881048228834203/,-37.798246,144.9762881
"Pierce Brothers - The Corner Hotel, Melbourne - 'The Night Tree' 10th Anniversary Tour",2025-04-12,20:30,The Corner Hotel,"57 Swan St, Richmond VIC 3121",https://www.facebook.com/events/868216408525283/,-37.82464307,144.9926962
BCR* - Brunswick City Radio,2025-04-12,00:00,Howler,"7-11 Dawson St, Brunswick VIC 3056, Australia",https://www.facebook.com/events/1645850589358217/,-37.7720304,144.9596527
Morgan Seatree | Melbourne ,2025-04-12,23:00,The Night Cat,"137-141 Johnston St, Fitzroy VIC 3065, Australia",https://www.facebook.com/events/662998462818701/,-37.7982971,144.978128
"Trix William ""Dilemma of I"" EP LAUNCH",2025-04-12,21:00,Laundry Bar,"50 Johnston St, Fitzroy VIC 3065, Australia",https://www.facebook.com/events/1858098268092732/,-37.7983139,144.9764962
"Qona Presents // GhostSeeker 'Divergence' Tour | Melbourne with Revoid, Weightless, Everlyne",2025-04-12,19:30,Bergy Bandroom,"64 Sydney Rd, Brunswick VIC 3056, Australia",https://www.facebook.com/events/1148126990149735/,-37.776327,144.9607158
TOTALLY 80s......EXTRAVAGANZA !!,2025-04-12,20:00,Lucky 13 Garage,"8 Cochranes Rd, Moorabbin VIC 3189, Australia",https://www.facebook.com/events/2250249062038282/,-37.94349189,145.07036236060654
Mondo Freaks | Bells Are Ringing EP Launch Party @ The Night Cat,2025-04-12,19:30,The Night Cat,"137-141 Johnston St, Fitzroy VIC 3065, Australia",https://www.facebook.com/events/1160003315796549/,-37.7982971,144.978128
Fermented Sodas Workshop,2025-04-12,00:00,CERES Environment Park,"Stewart St & Roberts St East, Brunswick VIC 3056, Australia",https://www.facebook.com/events/3927583130904635/,-37.765454,144.9831564
Total Recall Live - Altona Sports Club,2025-04-12,00:00,Altona Sports Club,"11 Altona Rd, Altona VIC 3018, Australia",https://www.facebook.com/events/986860173410935/,-37.85754867,144.85121805353086
"BLANK FACE - with Blake Pavey, Drest, The Clones",2025-04-12,20:00,Cactus Room,"614 High St, Thornbury VIC 3071, Australia",https://www.facebook.com/events/1315678846385217/,-37.76125825,145.00041662186553
Birds in the Australian Garden Tour,2025-04-12,00:00,Botanic gardens,"Birdwood Ave Melbourne VIC 3004, Australia",https://www.facebook.com/events/1354314292251830/,-37.82683271,144.97238679810675
UMBRA MOON SINGLE LAUNCH,2025-04-12,20:00,The Workers Club,"51 Brunswick St, Fitzroy VIC 3065, Australia",https://www.facebook.com/events/2560757764128189/,-37.8055776,144.9769450659087
Robin Boyd's Neighbourhood Walking Tour,2025-04-12,13:30,Botanic gardens,"Birdwood Ave Melbourne VIC 3004, Australia",https://www.facebook.com/events/1135231741105086/,-37.82683271,144.97238679810675
Jazz Mates debut at Ragtime Tavern!,2025-04-12,00:00,Ragtime Tavern,"206 Tyler St, Preston VIC 3072, Australia",https://www.facebook.com/events/4003402723241198/,-37.7310367,145.0142411
We Prefer to Swing,2025-04-12,12:30,Brunswick Ballroom,"314 Sydney Rd, Brunswick VIC 3056, Australia",https://www.facebook.com/events/1304724687514947/,-37.7704205,144.9617083
Rosario De Marco at Thornbury Local,2025-04-12,00:00,The Thornbury Local,"635 High St, Thornbury VIC 3071, Australia",https://www.facebook.com/events/623540920338372/,-37.76165125,144.99987967655426
Biro ‘Magic Manatee Band’ album launch!,2025-04-12,20:00,The Merri Creek Tavern,"111 High St, Northcote VIC 3070, Australia",https://www.facebook.com/events/652296773862631/,-37.7794356,144.996838
"SNAP!, CECE PENISTON, D:REAM and DJ PDULA",2025-04-12,00:00,Forum Melbourne,"154 Flinders St, Melbourne VIC 3000, Australia",https://www.facebook.com/events/1676237096258006/,-37.81644145,144.9693768124984
Taylor Swift Ice Skating Night  MELBOURNE ,2025-04-12,00:00,iceHQ,"1 Blake St, Reservoir VIC 3073, Australia",https://www.facebook.com/events/642167572075725/,-37.7314154,145.03178994980806
The Eagles Story | MEMO Music Hall,2025-04-12,19:00,MEMO Music Hall,"88 Acland St, St Kilda VIC 3182, Australia",https://www.facebook.com/events/496859402741026/,-37.8671902,144.9786817
Sweetie & Friends,2025-04-12,00:00,Punters Club,"376 Brunswick St, Fitzroy VIC 3065, Australia",https://www.facebook.com/events/961113802863013/,-37.7960561,144.9790327
Vanilla Gorilla live at the Brunswick ballroom in Melbourne ,2025-04-12,00:00,Brunswick Ballroom,"314 Sydney Rd, Brunswick VIC 3056, Australia",https://www.facebook.com/events/584708217889956/,-37.7704205,144.9617083
Goddess Of Pop - A Tribute to CHER,2025-04-12,00:00,Musicland Melbourne,"1359 Sydney Rd, Fawkner VIC 3060, Australia",https://www.facebook.com/events/1269414490934583/,-37.6916774,144.9585701581541
Arkangel EP Release Show Melbourne @ LAST CHANCE,2025-04-12,15:00,The Last Chance,"238 Victoria St, Melbourne VIC 3000, Australia",https://www.facebook.com/events/463760610149500/,-37.8059962,144.9585654
VIC Registration Day - Your Shot 2025 ,2025-04-12,00:00,Prince Bandroom,"29 Fitzroy St, St Kilda VIC 3182, Australia",https://www.facebook.com/events/1144806507140858/,-37.85747233,144.98140261298386
The BoomBabies - Dutch Club Carnegie,2025-04-12,20:30,Carnegie Hall,"60 Rosstown Rd, Carnegie VIC 3163, Australia",https://www.facebook.com/events/618380537274540/,-37.8864262,145.05686284914034
The Jamie Oehlers Quartet featuring The Sam Keevers Trio!,2025-04-12,19:30,Uptown Jazz Cafe,"1/177 Brunswick St, Fitzroy VIC 3065, Australia",https://www.facebook.com/events/1355874178747526/,-37.79705404,144.97869049756974
Mature Themes – ‘Sweet Release’ Single Launch,2025-04-12,20:00,Shotkickers,"744 High St, Thornbury VIC 3071, Australia",https://www.facebook.com/events/1126838259131164/,-37.75592655,145.0013923
STARS,2025-04-12,18:00,Bird's Basement,"11 Singers Ln, Melbourne VIC 3000, Australia",https://www.facebook.com/events/1113253830173672/,-37.81114416,144.95680390283175
Kulture Show - Boiler Room Experience,2025-04-12,00:00,The Toff,"2f/252 Swanston St, Melbourne VIC 3000, Australia",https://www.facebook.com/events/1042855627892655/,-37.80660325,144.9628141258931
That kid kearve Melbourne tour- laundry bar,2025-04-12,19:00,Laundry Bar,"50 Johnston St, Fitzroy VIC 3065, Australia",https://www.facebook.com/events/596860506507117/,-37.7983139,144.9764962
Uncanny -Men with the androids,2025-04-13,13:00,The Corner Hotel,"57 Swan St, Richmond VIC 3121",https://www.facebook.com/events/1250298772715608/,-37.82464307,144.9926962
SOUL OF FITZROY | ROOFTOP JAZZ & SOUL PARTY | WITH NORTHSIDE RECORDS,2025-04-13,00:00,Punters Club,"376 Brunswick St, Fitzroy VIC 3065, Australia",https://www.facebook.com/events/1217154460008624/,-37.7960561,144.9790327
The Punters | Every Sunday at Punters Club,2025-04-13,00:00,Punters Club,"376 Brunswick St, Fitzroy VIC 3065, Australia",https://www.facebook.com/events/1173145007722321/,-37.7960561,144.9790327
Tom Morello + Special guest Big Noter | The Forum,2025-04-13,19:00,Forum Melbourne,"154 Flinders St, Melbourne VIC 3000, Australia",https://www.facebook.com/events/858094479720420/,-37.81644145,144.9693768124984
Celebrating Easter with Inferno Duet,2025-04-13,00:00,Altona Sports Club,"11 Altona Rd, Altona VIC 3018, Australia",https://www.facebook.com/events/2421853898153280/,-37.85754867,144.85121805353086
Slice Of Laughter Week 4 With Special Guests To Be Announced,2025-04-13,00:00,Stay Gold,"133 Sydney Rd, Brunswick VIC 3056, Australia",https://www.facebook.com/events/1697898111141662/,-37.7743469,144.9607404
BAND-A-OKE Live band Karaoke,2025-04-13,00:00,Musicland Melbourne,"1359 Sydney Rd, Fawkner VIC 3060, Australia",https://www.facebook.com/events/1744777073050218/,-37.6916774,144.9585701581541
Domingo Latino - Quarter Street,2025-04-13,18:45,The Night Cat,"137-141 Johnston St, Fitzroy VIC 3065, Australia",https://www.facebook.com/events/1108498031290864/,-37.7982971,144.978128
Velvet Bloom Album Tour - Mamma Chen’s (All Ages Show),2025-04-13,14:00,Mamma Chen's,"42A Albert St, Footscray VIC 3011, Australia",https://www.facebook.com/events/1457942935179652/,-37.8047552,144.89727240000002
KEVIN BORICH,2025-04-13,14:00,Way Out West Roots Music Club,"4 Market St, Newport VIC 3015, Australia",https://www.facebook.com/events/539682779093925/,-37.8439028,144.8823845
"ARSELESS CHAPS | SUNDAY 13TH APRIL | HOWLER, MELBOURNE",2025-04-13,19:00,Howler,"7-11 Dawson St, Brunswick VIC 3056, Australia",https://www.facebook.com/events/1856626188415262/,-37.7720304,144.9596527
Grassy Strings (INDIA) & Les Thomas @ LAST CHANCE,2025-04-13,15:00,The Last Chance,"238 Victoria St, Melbourne VIC 3000, Australia",https://www.facebook.com/events/1190880282378826/,-37.8059962,144.9585654
Tony Lyall - Not Another New Zealand Comedian (MICF_,2025-04-13,17:00,Fad Gallery Bar,"14 Corrs Ln, Melbourne VIC 3000, Australia",https://www.facebook.com/events/1299280631133535/,-37.8112208,144.9684346
PSI PHI at the Retreat,2025-04-13,19:30,Retreat Hotel,"Level 1/280 Sydney Rd, Brunswick VIC 3056, Australia",https://www.facebook.com/events/1350850392766476/,-37.7711487,144.9615949
STUPID FUCK SINGLE LAUNCH AT OLD BAR WITH CULACCINO AND W.O.M.B.A.T,2025-04-13,21:00,The Old Bar,"74-76 Johnston St, Fitzroy VIC 3065, Australia",https://www.facebook.com/events/994862972588926/,-37.79833,144.97711
SUNDAY COME DOWN APRIL 13TH,2025-04-13,12:00,Bad Decisions Bar,"46 Johnston St, Fitzroy VIC 3065, Australia",https://www.facebook.com/events/628752106804783/,-37.798246,144.9762881
Palm Sunday,2025-04-13,19:00,The Workers Club,"51 Brunswick St, Fitzroy VIC 3065, Australia",https://www.facebook.com/events/651296343995220/,-37.8055776,144.9769450659087
Sparkling Preview: THE CORRESPONDENT,2025-04-13,13:15,Palace Cinemas,"1 Champ St, Coburg VIC 3058, Australia",https://www.facebook.com/events/653324693987427/,-37.736826,144.968318
Trench Crusade - Campaign League,2025-04-13,00:00,The Gaming Arena,"123 Bakers Rd, Coburg North VIC 3058, Australia",https://www.facebook.com/events/579100334568344/,-37.72715826,144.96115535488718
Nikon Experience: Creative Portraiture & Light Painting,2025-04-13,14:00,Got Next Studios,"Suit 4/105 Whitehall st, Footscray Melbourne, VIC 3011",https://www.eventbrite.com.au/e/nikon-experience-creative-portraiture-light-painting-tickets-1232343836589?aff=ebdssbdestsearch,-37.8069293,144.9036935
Sunday Fundays - BROWN SUGAR 'Rollin' the Stones',2025-04-13,00:00,Musicland Melbourne,"1359 Sydney Rd, Fawkner VIC 3060, Australia",https://www.facebook.com/events/1108281940995499/,-37.6916774,144.9585701581541
Dungeons and Flagons - D&D One Shot Campaigns,2025-04-13,00:00,Fortress Melbourne,"Shop 25/23 Caledonian Ln, Melbourne VIC 3000, Australia",https://www.facebook.com/events/462112836967415/,-37.8120357,144.9642299
Tom Morello,2025-04-13,12:00,Forum Melbourne,"150 Flinders St, Melbourne VIC 3000, Australia",https://premier.ticketek.com.au/shows/show.aspx?sh=TOMMO25,-37.8166268,144.9695761
FREE KARAOKE @ Mamma Chen's / hosted by Prue Brown,2025-04-13,00:00,Mamma Chen's,"42A Albert St, Footscray VIC 3011, Australia",https://www.facebook.com/events/2185705431886985/,-37.8047552,144.89727240000002
Harold Holt Search Party Album Release Show @ LAST CHANCE,2025-04-13,19:00,The Last Chance,"238 Victoria St, Melbourne VIC 3000, Australia",https://www.facebook.com/events/1363365734683076/,-37.8059962,144.9585654
Easter  Wonderland High Tea - Kids Event,2025-04-13,11:00,Sunshine Social - BBQ,"64 Glengala Road Sunshine West, VIC 3020",https://www.eventbrite.com.au/e/easter-wonderland-high-tea-kids-event-tickets-1288133254239?aff=ebdssbdestsearch,-37.79020089999999,144.818292
WELCOME TO 82 - NEPALESE NEW YEAR EVE 2082,2025-04-13,19:00,Diesel Bar & Eatery,"202 Little Lonsdale Street Melbourne, VIC 3000",https://www.eventbrite.com.au/e/welcome-to-82-nepalese-new-year-eve-2082-tickets-1298813599439?aff=ebdssbdestsearch,-37.8107335,144.9634703
SECOND LIFE MARKETS: Melbourne 13th April,2025-04-13,10:30,Younghusband,"50 Elizabeth Street #2 Kensington, VIC 3031",https://www.eventbrite.com.au/e/second-life-markets-melbourne-13th-april-tickets-1289560342699?aff=ebdssbdestsearch,-37.7966691,144.9323642
"LOEV's Women Speed Dating- The Brunch Edition: April 13th, Moorabbin",2025-04-13,13:00,LOEV,"77 Keys Road Moorabbin, VIC 3189",https://www.eventbrite.com.au/e/loevs-women-speed-dating-the-brunch-edition-april-13th-moorabbin-tickets-1234223107539?aff=ebdssbdestsearch,-37.9484271,145.067727
Friends On Purpose: Puppy Yoga,2025-04-13,14:00,Puppy Yoga,"Bondi Studio Sydney, NSW 2016",https://www.eventbrite.com.au/e/friends-on-purpose-puppy-yoga-tickets-1298762526679?aff=ebdssbdestsearch,-33.892215,151.205873
"9D Breathwork ""Unleash Your Power""",2025-04-13,14:00,infinite co studio,"14 Pakington Street St Kilda, VIC 3182",https://www.eventbrite.com.au/e/9d-breathwork-unleash-your-power-tickets-1289494586019?aff=ebdssbdestsearch,-37.8655601,144.9873231
SIMPLIFIED STRENGTH - Melbourne,2025-04-13,10:00,Iron Revolution Gym,"22 Disney Avenue #Unit 11 Keilor East, VIC 3033",https://www.eventbrite.com/e/simplified-strength-melbourne-tickets-1209444303469?aff=ebdssbdestsearch,-37.73328900000001,144.8546905
SUNDAY SINGLES SESSION 35’s+,2025-04-13,13:00,Fitzroy Gardens,"Wellington Parade East Melbourne, VIC 3002",https://www.eventbrite.com.au/e/sunday-singles-session-35s-tickets-1298430784429?aff=ebdssbdestsearch,-37.8162335,144.983392
Pasifika Movement & Intentional Cacao,2025-04-13,06:30,Hatt Reserve,"Esplanade Williamstown, VIC 3016",https://www.eventbrite.com.au/e/pasifika-movement-intentional-cacao-tickets-1288965102319?aff=ebdssbdestsearch,-37.8679435,144.8943935
Lunch Club,2025-04-13,13:30,Old Palm Liquor,"133B Lygon Street Brunswick East, VIC 3057",https://www.eventbrite.com.au/e/lunch-club-tickets-1105145452799?aff=ebdssbdestsearch,-37.7739559,144.9709987
Mindful Meetup April - Circle & Yap,2025-04-13,11:30,She'll Space,"8 McIver Street Brunswick, VIC 3056",https://www.eventbrite.com.au/e/mindful-meetup-april-circle-yap-tickets-1304951798959?aff=ebdssbdestsearch,-37.768709,144.963746
Friends On Purpose: Wine Tasting,2025-04-13,15:00,Sapphirus Cafe and Bar,"289 Huntingdale road Oakleigh, VIC 3166",https://www.eventbrite.com.au/e/friends-on-purpose-wine-tasting-tickets-1298749347259?aff=ebdssbdestsearch,-37.9096592,145.103597
Aura Numerology Workshop at The Vegan Market,2025-04-13,10:00,Coburg Town Hall,"90 Bell Street Coburg, VIC 3058",https://www.eventbrite.com/e/aura-numerology-workshop-at-the-vegan-market-tickets-1128169468249?aff=ebdssbdestsearch,-37.7408943,144.9695726
Friends On Purpose: Wine Mixer,2025-04-13,13:00,Sapphirus Cafe and Bar,"289 Huntingdale road Oakleigh, VIC 3166",https://www.eventbrite.com.au/e/friends-on-purpose-wine-mixer-tickets-1298749347259?aff=ebdssbdestsearch,-37.9096592,145.103597
Ryan Sterling High Road Album Launch (SOLD OUT),2025-04-13,17:00,The Merri Creek Tavern,"111 High St, Northcote VIC 3070, Australia",https://www.facebook.com/events/679437277881820/,-37.7794356,144.996838
Tarot Club,2025-04-13,16:30,Shellspace,"8 McIver Street Brunswick, VIC 3056",https://www.eventbrite.com.au/e/tarot-club-tickets-1306287484029?aff=ebdssbdestsearch,-37.768709,144.963746
Sip & Paint: Nothing but Vibes!,2025-04-13,15:00,Geelong Road,"Geelong Road West Footscray, VIC 3012",https://www.eventbrite.com.au/e/sip-paint-nothing-but-vibes-tickets-1252604657249?aff=ebdssbdestsearch,-37.8088693,144.8734801
Manchester Unity Building Tour,2025-04-13,12:00,Manchester Unity Building,"Ground Floor 220 Collins Street Melbourne, VIC 3000",https://www.eventbrite.com.au/e/manchester-unity-building-tour-tickets-1115104681119?aff=ebdssbdestsearch,-37.8152473,144.9661527
BarterJar,2025-04-13,14:00,Bridge Darebin - Preston,"218 High Street Preston, VIC 3072",https://www.eventbrite.com.au/e/barterjar-tickets-1255205115289?aff=ebdssbdestsearch,-37.744297,145.003275
State Trial 1: Women's Artistic and Trampoline Gymnastics,2025-04-13,08:00,Gymnastics Victoria: State Gymnastics Centre,"41 Green Street #Fl 3 Windsor, VIC 3181",https://www.eventbrite.com.au/e/state-trial-1-womens-artistic-and-trampoline-gymnastics-tickets-1298645857719?aff=ebdssbdestsearch,-37.8528559,144.9912179
Broadway Bound | MELB | School Holiday Workshop,2025-04-14,10:00,Australian Institute of Music Melbourne,"120 King Street Melbourne, VIC 3000",https://www.eventbrite.com.au/e/broadway-bound-melb-school-holiday-workshop-tickets-1227131235559?aff=ebdssbdestsearch,-37.81714789999999,144.9564705
"‘Social Sanctuary’ with Think About You, Hot Glue + Greer Clemens Band",2025-04-14,19:00,Northcote Social Club,"301 High St, Northcote VIC 3070, Australia",https://www.facebook.com/events/3128099070672825/,-37.771471,144.998414
ANTI-SAPIEN (USA) w/ Ratlörd & Circle Of Blood,2025-04-14,19:00,The Old Bar,"74-76 Johnston St, Fitzroy VIC 3065, Australia",https://www.facebook.com/events/984870337108217/,-37.79833,144.97711
OUR WEEKENDS END ON MONDAYS | with The Heart Shaped Aces,2025-04-14,00:00,Punters Club,"376 Brunswick St, Fitzroy VIC 3065, Australia",https://www.facebook.com/events/1179016663622476/,-37.7960561,144.9790327
Marc Broussard | Northcote Theatre,2025-04-14,18:00,Northcote Theatre,"216 High St, Northcote VIC 3070, Australia",https://www.facebook.com/events/819817473568812/,-37.7737068,144.9982706
CIRCADIAN RHYTHMS,2025-04-14,00:00,Wax Music Lounge,"250 Flinders St, Melbourne VIC 3000, Australia",https://www.facebook.com/events/584862551173325/?event_time_id=584862611173319,-37.8176298,144.9661635
the stamps Residency at Merri Creek Tavern w/ Nick Keogh,2025-04-14,20:00,The Merri Creek Tavern,"111 High St, Northcote VIC 3070, Australia",https://www.facebook.com/events/1836633980470636/,-37.7794356,144.996838
LEAP - Sacred Circle Full Moon Flow,2025-04-14,18:30,South Melbourne Life Saving Club,"72B Beaconsfield Parade Albert Park, VIC 3206",https://www.eventbrite.com.au/e/leap-sacred-circle-full-moon-flow-tickets-1254090752199?aff=ebdssbdestsearch,-37.84710949999999,144.9465725
Anne-Marie Te Whiu: Mettle,2025-04-14,00:00,The Wheeler Centre,"176 Little Lonsdale St, Melbourne VIC 3000, Australia",https://www.facebook.com/events/651982544149433/,-37.8101765,144.9652219
The Libertines,2025-04-15,12:00,Forum Melbourne,"150 Flinders St, Melbourne VIC 3000, Australia",https://premier.ticketek.com.au/shows/show.aspx?sh=LIBERTIN25,-37.8166268,144.9695761
MSEP Emergency Birth program for Paramedics,2025-04-15,08:00,Kathleen Syme Library and Community Centre,"251 Faraday Street Carlton, VIC 3053",https://www.eventbrite.com.au/e/msep-emergency-birth-program-for-paramedics-tickets-1261871905839?aff=ebdssbdestsearch,-37.7986481,144.9652272
Small Group Breathwork Journey,2025-04-15,19:00,Merkaba Studio,"15 Mills Street Cheltenham, VIC 3192",https://www.eventbrite.com.au/e/small-group-breathwork-journey-tickets-1252865768239?aff=ebdssbdestsearch,-37.9560125,145.0740554
Sensory Tray Session- EASTER EVENT,2025-04-15,10:00,Janefield Community Centre,"2 Manchester Crescent Bundoora, VIC 3083",https://www.eventbrite.com.au/e/sensory-tray-session-easter-event-tickets-1288751934729?aff=ebdssbdestsearch,-37.6830538,145.0745348
Prokick Australia - MELBOURNE TRY-OUTS NFL/COLLEGE *MULTIPLE DATES*,2025-04-15,11:30,Paul Wade Field,"Aughtie Drive St Kilda, VIC 3182",https://www.eventbrite.com/e/prokick-australia-melbourne-try-outs-nflcollege-multiple-dates-tickets-1272181662599?aff=ebdssbdestsearch,-37.8528059,144.9724569
North West Melb Launch Event ”Business growth through womanhood”,2025-04-15,10:00,Mamma Lina's Bar Cafe,"1057 Mount Alexander Road Essendon, VIC 3040",https://www.eventbrite.com.au/e/north-west-melb-launch-event-business-growth-through-womanhood-tickets-1292669492249?aff=ebdssbdestsearch,-37.7460977,144.9107018
Youth Athlete Development Workshop: Strength & Nutrition,2025-04-15,13:00,17A Showers St,"17A Showers Street Preston, VIC 3072",https://www.eventbrite.com.au/e/youth-athlete-development-workshop-strength-nutrition-tickets-1260492199099?aff=ebdssbdestsearch,-37.7487879,145.0004162
Allison Russell,2025-04-15,19:30,Melbourne Recital Centre,"31 Sturt St, Southbank VIC 3006, Australia",https://www.facebook.com/events/500513579513591/,-37.82408485,144.96758763141432
Yarra Banks Jam @ Bar 303,2025-04-15,00:00,Bar 303,"303 High St, Northcote VIC 3070, Australia",https://www.facebook.com/events/589465910770603/?event_time_id=589468110770383,-37.7713296,144.99828116650363
The Libertines | Melbourne | SOLD OUT,2025-04-15,19:00,Forum Melbourne,"154 Flinders St, Melbourne VIC 3000, Australia",https://www.facebook.com/events/875602187999941/,-37.81644145,144.9693768124984
Mastering Health Communication with Bianca Nogrady,2025-04-16,08:45,WeWork,"120 Spencer Street Level 22 Melbourne, VIC 3000",https://www.eventbrite.com.au/e/mastering-health-communication-with-bianca-nogrady-tickets-1285481793649?aff=ebdssbdestsearch,-37.8182394,144.9542081
Board Game Social Night,2025-04-16,00:00,Fortress Melbourne,"Shop 25/23 Caledonian Ln, Melbourne VIC 3000, Australia",https://www.facebook.com/events/2385724768449287/,-37.8120357,144.9642299
BJ The Chicago Kid | Northcote Theatre,2025-04-16,19:00,Northcote Theatre,"216 High St, Northcote VIC 3070, Australia",https://www.facebook.com/events/1063980875268595/,-37.7737068,144.9982706
Claire Chase – Sex Magic,2025-04-16,00:00,Melbourne Recital Centre,"31 Sturt St, Southbank VIC 3006, Australia",https://www.facebook.com/events/581621174642328/,-37.82408485,144.96758763141432
Riot Underage • April 16th 2025,2025-04-16,17:00,Chasers Venue,"386 Chapel Street South Yarra, VIC 3141",https://www.eventbrite.com.au/e/riot-underage-april-16th-2025-tickets-1217467491039?aff=ebdssbdestsearch,-37.8459028,144.9947039
AI Adoption Stories - From Australian Red Cross Lifeblood & Transurban,2025-04-16,18:00,Kathleen Syme Library and Community Centre,"251 Faraday Street Carlton, VIC 3053",https://www.eventbrite.com.au/e/ai-adoption-stories-from-australian-red-cross-lifeblood-transurban-tickets-1302441771399?aff=ebdssbdestsearch,-37.7986481,144.9652272
Performance & Songwriting| MELB | School Holiday Workshop,2025-04-16,10:00,Australian Institute of Music,"120 King Street Melbourne, VIC 3000",https://www.eventbrite.com.au/e/performance-songwriting-melb-school-holiday-workshop-tickets-1227133412069?aff=ebdssbdestsearch,-37.81714789999999,144.9564705
FITZROY SPEED DATING FOR AGES 25-39,2025-04-16,19:00,Polly Bar,"401 Brunswick Street Melbourne, VIC 3065",https://www.eventbrite.com.au/e/fitzroy-speed-dating-for-ages-25-39-tickets-1204315342609?aff=ebdssbdestsearch,-37.7950784,144.9786736
Sektion Sound Presents: Ewake Masterclass,2025-04-16,19:00,18 Dawson St,"18 Dawson Street Brunswick, VIC 3056",https://www.eventbrite.com.au/e/sektion-sound-presents-ewake-masterclass-tickets-1302827123999?aff=ebdssbdestsearch,-37.77119820000001,144.9590141
Comedy Night ft Peter Helliar and Peter Rowsthorn hosted by Kirsty Webeck!,2025-04-16,19:00,Welcome to Brunswick,"408 Sydney Road Brunswick, VIC 3056",https://www.eventbrite.com.au/e/comedy-night-ft-peter-helliar-and-peter-rowsthorn-hosted-by-kirsty-webeck-tickets-1279037588859?aff=ebdssbdestsearch,-37.7684338,144.9621623
DO MASTAANE – A Comedy Special by Abhishek Upmanyu & Devesh Dixit,2025-04-16,07:30,The Comic's Lounge,"26 Errol Street #1 North Melbourne, VIC 3051",https://www.eventbrite.com.au/e/do-mastaane-a-comedy-special-by-abhishek-upmanyu-devesh-dixit-tickets-1234533144869?aff=ebdssbdestsearch,-37.8045082,144.9495239
Heritage Hobsons Bay Trivia Night,2025-04-16,18:00,Royal Yacht Club of Victoria,"120 Nelson Place Williamstown, VIC 3016",https://www.eventbrite.com.au/e/heritage-hobsons-bay-trivia-night-tickets-1250739749259?aff=ebdssbdestsearch,-37.8626458,144.9063544
"'I Love You, Man' Film Screening",2025-04-16,20:00,Northcote Social Club,"301 High St, Northcote VIC 3070, Australia",https://www.facebook.com/events/1161149365412605/,-37.771471,144.998414
Frequency,2025-04-16,00:00,Arts Centre Melbourne,"100 St Kilda Rd, Southbank VIC 3004, Australia",https://www.facebook.com/events/1263910184912897/,-37.8216405,144.9683143
Toto,2025-04-16,12:00,John Cain Arena,"35 Olympic Blvd, Melbourne VIC 3000, Australia",https://premier.ticketek.com.au/shows/show.aspx?sh=TOTO25,-37.8227725,144.9819687
Pollyman: Appearing At The Bergy Bandroom (with special guests: Lucy Lorenne and Angus Legg),2025-04-16,19:30,Bergy Bandroom,"64 Sydney Rd, Brunswick VIC 3056, Australia",https://www.facebook.com/events/527376233757544/,-37.776327,144.9607158
MID-WEEK CRISIS AT THE LAST CHANCE - W/ HEMATEMESIS + VIOLET DREAD,2025-04-16,19:00,The Last Chance,"238 Victoria St, Melbourne VIC 3000, Australia",https://www.facebook.com/events/1333531907764036/,-37.8059962,144.9585654
Novel presents The Trip (UK),2025-04-17,22:00,Sub Club Melbourne,"Flinders Court Melbourne, VIC 3000",https://www.eventbrite.com.au/e/novel-presents-the-trip-uk-tickets-1278965513279?aff=ebdssbdestsearch,-37.8179755,144.9644539
Conscious Connection | House Party (ages 20-40),2025-04-17,19:00,Northside Wines,"543-545 High Street Northcote, VIC 3070",https://www.eventbrite.com.au/e/conscious-connection-house-party-ages-20-40-tickets-1289124067789?aff=ebdssbdestsearch,-37.764227,144.9994439
"Freak Out, Billie Jean.. It's Easter Thursday!!! xo",2025-04-17,20:00,Club Retro,"383 Lonsdale Street Melbourne, VIC 3000",https://www.eventbrite.com.au/e/freak-out-billie-jean-its-easter-thursday-xo-tickets-1300289293279?aff=ebdssbdestsearch,-37.8128025,144.9611855
MAMI & FRIENDS - GOOD FRIDAY EVE,2025-04-17,22:00,199 Commercial Rd,"199 Commercial Road South Yarra, VIC 3141",https://www.eventbrite.com.au/e/mami-friends-good-friday-eve-tickets-1301708959539?aff=ebdssbdestsearch,-37.8465589,144.993086
Mid Semester PJ Party,2025-04-17,21:00,Love Machine,"228a Malvern Rd Prahran, VIC 3181",https://www.eventbrite.com.au/e/mid-semester-pj-party-tickets-1295311133469?aff=ebdssbdestsearch,-37.8471331,144.9948088
Tromba Latin Fiesta Easter Thursday - Bad Bunny Wonderland,2025-04-17,21:00,Ms Collins,"425 Collins Street Melbourne, VIC 3000",https://www.eventbrite.com.au/e/tromba-latin-fiesta-easter-thursday-bad-bunny-wonderland-tickets-1302956210099?aff=ebdssbdestsearch,-37.8174565,144.9606326
LUX VIP MELB : BRAND PARTNER : Cinder Private Dining,2025-04-17,06:30,Cinder,"18 Brennand Street Fitzroy North, VIC 3068",https://www.eventbrite.com.au/e/lux-vip-melb-brand-partner-cinder-private-dining-tickets-1271770552959?aff=ebdssbdestsearch,-37.7850103,144.9945336
MELBOURNE EMO EASTER GOOD FRIDAY EVE  THURS 17TH APRIL 2025,2025-04-17,20:00,Deluxe Bar,"595 Mount Alexander Road Moonee Ponds, VIC 3039",https://www.eventbrite.com.au/e/melbourne-emo-easter-good-friday-eve-thurs-17th-april-2025-tickets-1287233944379?aff=ebdssbdestsearch,-37.768313,144.925046
SUNDAYLICIOUS RnB | EASTER LONG WEEKEND | THURSDAY EVE APRIL 17 | 9pm - 3am,2025-04-17,21:00,La Di Da,"577 Little Bourke Street Melbourne, VIC 3000",https://www.eventbrite.com.au/e/sundaylicious-rnb-easter-long-weekend-thursday-eve-april-17-9pm-3am-tickets-1080058186109?aff=ebdssbdestsearch,-37.8154693,144.9556119
Good Friday Eve Rooftop Party,2025-04-17,20:00,onesixone rooftop,"161 High St Prahran, VIC 3181",https://www.eventbrite.com.au/e/good-friday-eve-rooftop-party-tickets-1303700777119?aff=ebdssbdestsearch,-37.85173229999999,144.9936589
MASS Trivia Night 2025,2025-04-17,18:00,The Promenade Docklands,"78 Newquay Promenade #Suite 2, Level 1 Docklands, VIC 3008",https://www.eventbrite.com.au/e/mass-trivia-night-2025-tickets-1305689565639?aff=ebdssbdestsearch,-37.8145014,144.9392306
Gigi Rooftop - Farewell Summer Closing Party,2025-04-17,18:00,Gigi Rooftop,"917 High Street Level 2 Thornbury, VIC 3071",https://www.eventbrite.com.au/e/gigi-rooftop-farewell-summer-closing-party-tickets-1295282106649?aff=ebdssbdestsearch,-37.752655,145.001404
Brava  Women Networking IN PERSON April 17th 2025 - Chadstone,2025-04-17,10:00,LXD Business Centre,"1341 Dandenong Road #Tower 1,Ground Level Chadstone, VIC 3148",https://www.eventbrite.com.au/e/brava-women-networking-in-person-april-17th-2025-chadstone-tickets-1277799545839?aff=ebdssbdestsearch,-37.8859034,145.085521
MIRROR CLIPPERS TULLAMARINE SINGLE LAUNCH - OLD BAR - GOOD FRIDAY EVE  - THURSDAY 17/04/2025 ,2025-04-17,00:00,The Old Bar,"74-76 Johnston St, Fitzroy VIC 3065, Australia",https://www.facebook.com/events/1355026822518234/,-37.79833,144.97711
MAMI & FRIENDS - GOOD FRIDAY EVE,2025-04-17,00:00,Circus Bar,"199 Commercial Rd, South Yarra VIC 3141, Australia",https://www.facebook.com/events/1468358027476619/,-37.84659833,144.99210205798175
daezy EP LAUNCH,2025-04-17,19:00,The Workers Club,"51 Brunswick St, Fitzroy VIC 3065, Australia",https://www.facebook.com/events/973146771618326/,-37.8055776,144.9769450659087
Stay Gold Battle Of The Bands - Heat 5,2025-04-17,00:00,Stay Gold,"133 Sydney Rd, Brunswick VIC 3056, Australia",https://www.facebook.com/events/553949387711177/,-37.7743469,144.9607404
Norman Jay (MBE) Pres. Good Times Melbourne,2025-04-17,00:00,The Night Cat,"137-141 Johnston St, Fitzroy VIC 3065, Australia",https://www.facebook.com/events/1822385528561497/,-37.7982971,144.978128
Opening Day Offer: WARFARE,2025-04-17,16:00,Palace Cinemas,"1 Champ St, Coburg VIC 3058, Australia",https://www.facebook.com/events/9252996461462653/,-37.736826,144.968318
(THREE TABLES LEFT) NORMIE ROWE & The Playboys | ONLY MELBOURNE Dinner & Show,2025-04-17,00:00,arcobar heatherton,"8 Arco Ln, Heatherton VIC 3202, Australia",https://www.facebook.com/events/594219616645254/,-37.94673685,145.07837928457485
Neil Young: Coastal. Limited Season,2025-04-17,19:10,Cinema Nova,"380 Lygon St, Carlton VIC 3053, Australia",https://www.facebook.com/events/1368501210758722/,-37.7978092,144.9680124
LOUIE & The PARTY BOYZ,2025-04-17,00:00,Musicland Melbourne,"1359 Sydney Rd, Fawkner VIC 3060, Australia",https://www.facebook.com/events/1705687117022095/,-37.6916774,144.9585701581541
"Bollywood Club - GULABO at Spice Market, Melbourne",2025-04-17,22:00,Spice Market,"Beaney Lane Melbourne, VIC 3000",https://www.eventbrite.com.au/e/bollywood-club-gulabo-at-spice-market-melbourne-tickets-1292422483439?aff=ebdssbdestsearch,-37.8150914,144.9692403
TATTOOROSE LIVE!! EASTER BASH,2025-04-17,00:00,Mr Boogie Man Bar,"160 Hoddle St, Abbotsford VIC 3067, Australia",https://www.facebook.com/events/981120313983787/,-37.80245,144.99295304614787
Era of Sound with Inferno Duet @ASC,2025-04-17,00:00,Altona Sports Club,"11 Altona Rd, Altona VIC 3018, Australia",https://www.facebook.com/events/9442646549136150/,-37.85754867,144.85121805353086
SOFT CELL // Melbourne // Non Stop Erotic Cabaret // Palais Theatre // AU 2025 // LIC AA,2025-04-17,19:00,Palais Theatre,"Lower Esplanade, St Kilda VIC 3182, Australia",https://www.facebook.com/events/401047429680458/,-37.86708671,144.97599656199426
Soft Cell,2025-04-17,20:00,Palais Theatre,"Lower Esplanade, St Kilda VIC 3182, Australia",https://www.facebook.com/events/1064905761731967/,-37.86708671,144.97599656199426
Ruby Gill’s Album Launch (Naarm) with Hannah Cameron,2025-04-17,19:00,Northcote Social Club,"301 High St, Northcote VIC 3070, Australia",https://www.facebook.com/events/1906462603220062/,-37.771471,144.998414
FORCE ALBUM LAUNCH - MELBOURNE (EASTER FRIDAY EVE),2025-04-17,19:30,The Corner Hotel,"57 Swan St, Richmond VIC 3121",https://www.facebook.com/events/649999937541568/,-37.82464307,144.9926962
Open Decks @ Bar Oussou,2025-04-17,00:00,Bar Oussou,"653 Sydney Rd, Brunswick VIC 3056, Australia",https://www.facebook.com/events/1135129411697256/,-37.7618155,144.9628753
"Badass Women Networking Night- April 17th, LOEV Moorabbin",2025-04-17,18:30,LOEV,"77 Keys Road Moorabbin, VIC 3189",https://www.eventbrite.com.au/e/badass-women-networking-night-april-17th-loev-moorabbin-tickets-1291088192539?aff=ebdssbdestsearch,-37.9484271,145.067727
Luoda - Live at The JazzLab,2025-04-17,19:30,The Jazz Lab,"27 Leslie St, Brunswick Melbourne, VIC, Australia, Victoria 3056",https://www.facebook.com/events/2206283533160904/,-37.76677279,144.9587122
Teddy Bear Hospital at Kids Day Out 2025,2025-04-18,10:00,Melbourne Convention and Exhibition Centre (MCEC),"1 Convention Centre Place South Wharf, VIC 3006",https://www.eventbrite.com.au/e/teddy-bear-hospital-at-kids-day-out-2025-tickets-1247804499849?aff=ebdssbdestsearch,-37.82520299999999,144.952251
Stay Goth - (Good) Friday I'm in Love,2025-04-18,23:00,Stay Gold,"133 Sydney Rd, Brunswick VIC 3056, Australia",https://www.facebook.com/events/1348992472895865/,-37.7743469,144.9607404
BENG single launch @ CACTUS ROOM,2025-04-18,19:00,Cactus Room,"614 High St, Thornbury VIC 3071, Australia",https://www.facebook.com/events/2067191930414163/,-37.76125825,145.00041662186553
North Melbourne v Carlton,2025-04-18,15:20,Marvel Stadium,"740 Bourke St, Docklands VIC 3008, Australia",https://www.facebook.com/events/1214068413767243/,-37.816529,144.94751697668812
DUETS: Peggy Lee and Frank Sinatra ,2025-04-18,18:30,Paris Cat Jazz Club,"6 Goldie Pl, Melbourne VIC 3000, Australia",https://www.facebook.com/events/4830205167204939/,-37.8133262,144.96060714767358
Good Friday Night — Saltare x Revolver Fridays,2025-04-18,00:00,Revolver Upstairs,"Level 2/229 Chapel St, Prahran VIC 3181, Australia",https://www.facebook.com/events/1048455147180940/,-37.8505902,144.9933469
"Parmy Dhillon - ""No Sleep Till Nashville"" @ Bergy w/ The Heartstrings & Kings of Mercury  ",2025-04-18,20:00,Bergy Bandroom,"64 Sydney Rd, Brunswick VIC 3056, Australia",https://www.facebook.com/events/2131158550689802/,-37.776327,144.9607158
Andrea Keller Transients Trio,2025-04-18,19:30,Uptown Jazz Cafe,"1/177 Brunswick St, Fitzroy VIC 3065, Australia",https://www.facebook.com/events/1178170647196364/,-37.79705404,144.97869049756974
North Melbourne v Carlton - AFL Reserve,2025-04-18,15:20,Marvel Stadium,"740 Bourke St, Docklands VIC 3008, Australia",https://www.facebook.com/events/4750926988464734/,-37.816529,144.94751697668812
Planted 2025,2025-04-18,10:30,13 Link Ct,"13 Link Court Brooklyn, VIC 3012",https://www.eventbrite.com.au/e/planted-2025-tickets-1254029599289?aff=ebdssbdestsearch,-37.8226143,144.8570075
Malicy Single Launch,2025-04-18,20:00,The Workers Club,"51 Brunswick St, Fitzroy VIC 3065, Australia",https://www.facebook.com/events/655726530177856/,-37.8055776,144.9769450659087
Monsters of Riff,2025-04-18,19:30,Northcote Social Club,"301 High St, Northcote VIC 3070, Australia",https://www.facebook.com/events/634617689063712/,-37.771471,144.998414
Good Friday - John Course - 8 Hour Set,2025-04-18,14:00,The Railway Hotel- Windsor,"29 Chapel Street Windsor, VIC 3181",https://www.eventbrite.com.au/e/good-friday-john-course-8-hour-set-tickets-1255154473819?aff=ebdssbdestsearch,-37.8566744,144.9922172
WELL THANKS GOOD FRIDAY FUN RUN,2025-04-18,09:00,Princes Park - Lawn 3 (Next to Ikon Park),"200-590 Royal Parade Carlton North, VIC 3054",https://www.eventbrite.com.au/e/well-thanks-good-friday-fun-run-tickets-1266967867999?aff=ebdssbdestsearch,-37.7788812,144.962037
Tech Networking Event by Startup Valley  in Melbourne,2025-04-18,18:00,215 Queen's Restaurant and Bar Melbourne,"215 Queen Street Melbourne, VIC 3000",https://www.eventbrite.com/e/tech-networking-event-by-startup-valley-in-melbourne-tickets-1296557481329?aff=ebdssbdestsearch,-37.8137882,144.9598785
DAYDANSE @ Revolver (Good Friday),2025-04-18,12:00,Revolver Upstairs,"229 Chapel Street Prahran, VIC 3181",https://www.eventbrite.com.au/e/daydanse-revolver-good-friday-tickets-1309517495079?aff=ebdssbdestsearch,-37.8504915,144.9933589
RELOAD,2025-04-18,22:00,Laundry Bar,"50 Johnston Street Fitzroy, VIC 3065",https://www.eventbrite.com/e/reload-tickets-1303814096059?aff=ebdssbdestsearch,-37.79831,144.976368
(Good) Friday I'm In Love - Stay Goth,2025-04-18,23:00,Stay Gold,"133 Sydney Road Brunswick, VIC 3056",https://www.eventbrite.com.au/e/good-friday-im-in-love-stay-goth-tickets-1280357326229?aff=ebdssbdestsearch,-37.77435880000001,144.9606103
BRUNCHBEATS 3.0 - AFROHOUSE X UKG,2025-04-18,18:00,LOLA St Kilda,"60 Fitzroy Street St Kilda, VIC 3182",https://www.eventbrite.com.au/e/brunchbeats-30-afrohouse-x-ukg-tickets-1297631995229?aff=ebdssbdestsearch,-37.85938429999999,144.9774614
Victony Live In Melbourne,2025-04-18,16:00,The Third Day,"290 Macaulay Road North Melbourne, VIC 3051",https://www.eventbrite.com.au/e/victony-live-in-melbourne-tickets-1252772388939?aff=ebdssbdestsearch,-37.7946786,144.9367079
SONDA TOUR: MELBOURNE,2025-04-18,22:00,The Emerson Rooftop Bar and Club,"141-145 Commercial Road South Yarra, VIC 3141",https://www.eventbrite.com.au/e/sonda-tour-melbourne-tickets-1266927106079?aff=ebdssbdestsearch,-37.8462997,144.9911964
Lesbian Wine Club - Pray for Gay | Unholy Saturday,2025-04-19,19:30,Caz Reitop's Dirty Secrets,"80 Smith Street Collingwood, VIC 3066",https://www.eventbrite.co.uk/e/lesbian-wine-club-pray-for-gay-unholy-saturday-tickets-1292621759479?aff=ebdssbdestsearch,-37.8059003,144.9831738
"""Luna"" Tour - Melbourne",2025-04-19,20:00,Bergy Bandroom,"64 Sydney Rd, Brunswick VIC 3056, Australia",https://www.facebook.com/events/996645465296531/,-37.776327,144.9607158
Richmond v Gold Coast SUNS - AFL Reserve,2025-04-19,19:35,Marvel Stadium,"740 Bourke St, Docklands VIC 3008, Australia",https://www.facebook.com/events/973690981359516/,-37.816529,144.94751697668812
Floating Dreams X BCR pres. SHINGO NAKAMURA [Monstercat Silk / Anjunadeep / Otographic],2025-04-19,16:00,Howler,"7-11 Dawson St, Brunswick VIC 3056, Australia",https://www.facebook.com/events/1327330345383009/,-37.7720304,144.9596527
EXILES - W/ COPE & DRAG AND ECHO SOCIAL CLUB,2025-04-19,19:00,The Last Chance,"238 Victoria St, Melbourne VIC 3000, Australia",https://www.facebook.com/events/1184964593008210/,-37.8059962,144.9585654
Eat The Beat pres. TAO ANDRA [VOLTA],2025-04-19,00:00,New Guernica,"64 Smith St, Collingwood VIC 3066, Australia",https://www.facebook.com/events/9399260043491832/,-37.80624775,144.98331211946754
primetime. 'The White Album' EP LAUNCH at THE GEM,2025-04-19,19:30,The Gem Bar and Dining,"289 Wellington St, Collingwood VIC 3066, Australia",https://www.facebook.com/events/1339192567288649/,-37.7963837,144.9875917
Richmond v Gold Coast SUNS,2025-04-19,19:35,Marvel Stadium,"740 Bourke St, Docklands VIC 3008, Australia",https://www.facebook.com/events/1673836556888377/,-37.816529,144.94751697668812
YACHT ROCK REVIVAL AT THE CORNER HOTEL,2025-04-19,20:30,The Corner Hotel,"57 Swan St, Richmond VIC 3121",https://www.facebook.com/events/613989601616221/,-37.82464307,144.9926962
Madagascar The Musical,2025-04-19,18:00,Palais Theatre,"Lower Esplanade, St Kilda VIC 3182, Australia",https://www.facebook.com/events/908137244534001/,-37.86708671,144.97599656199426
NERVOSA - Melbourne - Northcote Social Club - Sat 19th April,2025-04-19,20:00,Northcote Social Club,"301 High St, Northcote VIC 3070, Australia",https://www.facebook.com/events/1855177518584300/,-37.771471,144.998414
FUNGAS @ THE GEM (Afternoon show),2025-04-19,15:30,The Gem Bar and Dining,"289 Wellington St, Collingwood VIC 3066, Australia",https://www.facebook.com/events/1616155152350742/,-37.7963837,144.9875917
Lorcana Weekly Limited- Draft,2025-04-19,00:00,The Gaming Arena,"123 Bakers Rd, Coburg North VIC 3058, Australia",https://www.facebook.com/events/1316080396404227/,-37.72715826,144.96115535488718
Indie Sleaze: 2010s Trash Party - Melbourne,2025-04-19,21:00,Stay Gold,"133 Sydney Rd, Brunswick VIC 3056, Australia",https://www.facebook.com/events/982283850510769/,-37.7743469,144.9607404
Madagascar The Musical,2025-04-19,14:30,Palais Theatre,"Lower Esplanade, St Kilda VIC 3182, Australia",https://www.facebook.com/events/635641045665633/,-37.86708671,144.97599656199426
Captivate Trio ROCK the Sunshine City Club,2025-04-19,00:00,Sunshine City Club,"24 Talmage St, Albion VIC 3020, Australia",https://www.facebook.com/events/639860268909208/,-37.779028,144.8243730166129
ALKALI @ THE WORKERS CLUB with openers (Phat Cat Trio & Buried Below) ,2025-04-19,13:00,The Workers Club,"51 Brunswick St, Fitzroy VIC 3065, Australia",https://www.facebook.com/events/1106891064260797/,-37.8055776,144.9769450659087
Madagascar The Musical Melbourne,2025-04-19,14:30,Palais Theatre,"Lower Esplanade, St Kilda VIC 3182, Australia",https://www.facebook.com/events/8241193786009446/,-37.86708671,144.97599656199426
Light Language Galactivation Transmission–Soul Activation & Energy Healing.,2025-04-19,10:30,Centre of You,"Upstairs, 217 Chapel St Prahran Melbourne, VIC 3181",https://www.eventbrite.com.au/e/light-language-galactivation-transmissionsoul-activation-energy-healing-tickets-1297583279519?aff=ebdssbdestsearch,-37.8509316,144.9933031
Club Nicki MELB - Nicki Minaj + female rap tribute party (Easter Saturday),2025-04-19,22:00,Chasers Nightclub,"386 Chapel Street South Yarra, VIC 3141",https://www.eventbrite.com.au/e/club-nicki-melb-nicki-minaj-female-rap-tribute-party-easter-saturday-tickets-1290943409489?aff=ebdssbdestsearch,-37.8459028,144.9947039
Energy In Motion - An Ecstatic Dance & Cacao Journey.,2025-04-19,18:30,Centre of You,"Upstairs, 217 Chapel St Prahran Melbourne, VIC 3181",https://www.eventbrite.com.au/e/energy-in-motion-an-ecstatic-dance-cacao-journey-tickets-1277163072129?aff=ebdssbdestsearch,-37.8509316,144.9933031
luv4her,2025-04-19,19:00,Stay Gold,"133 Sydney Road Brunswick, VIC 3056",https://www.eventbrite.com.au/e/luv4her-tickets-1245626695979?aff=ebdssbdestsearch,-37.77435880000001,144.9606103
Easter Family Fun Day,2025-04-19,11:00,231-251 Mt Alexander Rd,"231-251 Mount Alexander Road Ascot Vale, VIC 3032",https://www.eventbrite.com.au/e/easter-family-fun-day-tickets-1273610827269?aff=ebdssbdestsearch,-37.7793109,144.9302118
WLU Presents: Sneaky Link Melbourne,2025-04-20,16:00,The Emerson Rooftop Bar and Club,"141-145 Commercial Road South Yarra, VIC 3141",https://www.eventbrite.com.au/e/wlu-presents-sneaky-link-melbourne-tickets-1298788825339?aff=ebdssbdestsearch,-37.8462997,144.9911964
"Learn stand-up comedy in Melbourne this April with Danny McGinlay, 2025",2025-04-20,18:30,Roxy's Functions & Events,"2 Alfred Place South Melbourne, VIC 3205",https://www.eventbrite.com.au/e/learn-stand-up-comedy-in-melbourne-this-april-with-danny-mcginlay-2025-tickets-1023147109547?aff=ebdssbdestsearch,-37.8314108,144.9592778
Moon Elevator single launch with Great Australian Bank & Nausicaa,2025-04-20,13:00,The Workers Club,"51 Brunswick St, Fitzroy VIC 3065, Australia",https://www.facebook.com/events/1220645309503264/,-37.8055776,144.9769450659087
Easter Luncheon 2025 - Reggio Calabria Club - Member's Lounge & Bistroteca,2025-04-20,12:30,"Reggio Calabria Club - Italian Bistro, Restaurant & Multi Venue Function Centre","476 Brunswick Road Parkville, VIC 3052",https://www.eventbrite.com.au/e/easter-luncheon-2025-reggio-calabria-club-members-lounge-bistroteca-tickets-1007848962377?aff=ebdssbdestsearch,-37.7751504,144.938016
Ekhaya Piano Groove Experience  ft Nandipha808 & Dolly Ditebogo,2025-04-20,16:00,The Third Day,"290 Macaulay Road North Melbourne, VIC 3051",https://www.eventbrite.com.au/e/ekhaya-piano-groove-experience-ft-nandipha808-dolly-ditebogo-tickets-1252637836489?aff=ebdssbdestsearch,-37.7946786,144.9367079
ENSTER SUNDAY,2025-04-20,22:00,Royal Melbourne Hotel,"629 Bourke Street Melbourne, VIC 3000",https://www.eventbrite.com.au/e/enster-sunday-tickets-1117446686119?aff=ebdssbdestsearch,-37.8168528,144.9552468
BC #454 (30hr Easter edition),2025-04-20,21:00,onesixone,"161 High Street Prahran, VIC 3181",https://www.eventbrite.com.au/e/bc-454-30hr-easter-edition-tickets-1309526552169?aff=ebdssbdestsearch,-37.85173229999999,144.9936589
Funk Formula Takeover — Revolver Sundays,2025-04-20,00:00,Revolver Upstairs,"Level 2/229 Chapel St, Prahran VIC 3181, Australia",https://www.facebook.com/events/1012579050209317/,-37.8505902,144.9933469
I Remember House: MELBOURNE [Easter Sunday 20 Apr],2025-04-20,00:00,Chasers Nightclub,"386 Chapel St, South Yarra VIC 3141, Australia",https://www.facebook.com/events/620598917243566/,-37.8459118,144.9945123
RHYSICS x JARROW x BAREFOOT BOWLS CLUB,2025-04-20,20:00,Bergy Bandroom,"64 Sydney Rd, Brunswick VIC 3056, Australia",https://www.facebook.com/events/1879240612612018/,-37.776327,144.9607158
GREEN SABBATH 420,2025-04-20,19:30,The Old Bar,"74-76 Johnston St, Fitzroy VIC 3065, Australia",https://www.facebook.com/events/2094676124292844/,-37.79833,144.97711
The Sharp EP Launch Northcote Social Club,2025-04-20,00:00,Northcote Social Club,"301 High St, Northcote VIC 3070, Australia",https://www.facebook.com/events/1423508542365009/,-37.771471,144.998414
CLUB MODA MELBOURNE | 20.04.25 | EASTER SUNDAY | ALBION ROOFTOP,2025-04-20,21:00,The Albion Rooftop,"172 York Street South Melbourne, VIC 3205",https://www.eventbrite.com.au/e/club-moda-melbourne-200425-easter-sunday-albion-rooftop-tickets-1292427217599?aff=ebdssbdestsearch,-37.8315105,144.9560408
ENSTER SUNDAY,2025-04-20,00:00,EMO NEVER SLEEPS,"629 Bourke St, Melbourne VIC 3004, Australia",https://www.facebook.com/events/1689396918317325/,-37.8167994,144.9552063
Western Bulldogs v St Kilda - AFL Reserve,2025-04-20,19:20,Marvel Stadium,"740 Bourke St, Docklands VIC 3008, Australia",https://www.facebook.com/events/620007074086203/,-37.816529,144.94751697668812
Domingo Latino - Tumbao Social,2025-04-20,18:45,The Night Cat,"137-141 Johnston St, Fitzroy VIC 3065, Australia",https://www.facebook.com/events/1715064859367325/,-37.7982971,144.978128
Hello Kitty's Super Adventure The Musical,2025-04-20,18:30,Palais Theatre,"Lower Esplanade, St Kilda VIC 3182, Australia",https://www.facebook.com/events/1717101778846006/,-37.86708671,144.97599656199426
Western Bulldogs v St Kilda,2025-04-20,19:20,Marvel Stadium,"740 Bourke St, Docklands VIC 3008, Australia",https://www.facebook.com/events/600905312844319/,-37.816529,144.94751697668812
Christone 'KINGFISH' Ingram | Northcote Theatre,2025-04-21,18:00,Northcote Theatre,"216 High St, Northcote VIC 3070, Australia",https://www.facebook.com/events/1214745756343409/,-37.7737068,144.9982706
George Thorogood & The Destroyers | Melbourne,2025-04-21,19:00,Forum Melbourne,"154 Flinders St, Melbourne VIC 3000, Australia",https://www.facebook.com/events/1356208892050997/,-37.81644145,144.9693768124984
"‘Social Sanctuary’ with Mr. Industry, Red Moon Cowboy + Billy Cart",2025-04-21,19:00,Northcote Social Club,"301 High St, Northcote VIC 3070, Australia",https://www.facebook.com/events/634062769487783/,-37.771471,144.998414
KATHLEEN HALLORAN @ SHOTKICKERS w Tiaryn + Sannia,2025-04-21,18:00,Shotkickers,"744 High St, Thornbury VIC 3071, Australia",https://www.facebook.com/events/1173837174406817/,-37.75592655,145.0013923
Hello Kitty's Super Adventure The Musical,2025-04-21,18:30,Palais Theatre,"Lower Esplanade, St Kilda VIC 3182, Australia",https://www.facebook.com/events/541936728200808/,-37.86708671,144.97599656199426
Hello Kitty's Super Adventure The Musical,2025-04-21,13:30,Palais Theatre,"Lower Esplanade, St Kilda VIC 3182, Australia",https://www.facebook.com/events/509122635537760/,-37.86708671,144.97599656199426
Morbid Mondays At Old Bar - EPIC THRASH / PIRATE CROSSOVER w/ Common Evil & Rum Runners,2025-04-21,20:00,The Old Bar,"74-76 Johnston St, Fitzroy VIC 3065, Australia",https://www.facebook.com/events/1364389017913031/,-37.79833,144.97711
George Thorogood & The Destroyers,2025-04-21,12:00,Forum Melbourne,"150 Flinders St, Melbourne VIC 3000, Australia",https://premier.ticketek.com.au/shows/show.aspx?sh=GTHORO25,-37.8166268,144.9695761
Drag Trivia: FREE Gaming & Pop Culture Trivia,2025-04-21,00:00,Fortress Melbourne,"Shop 25/23 Caledonian Ln, Melbourne VIC 3000, Australia",https://www.facebook.com/events/3654926844806381/,-37.8120357,144.9642299
Hardware Road Synth Meet - Jani Ho & Five Minute Jams,2025-04-22,00:00,Howler,"7-11 Dawson St, Brunswick VIC 3056, Australia",https://www.facebook.com/events/2131111693995875/,-37.7720304,144.9596527
The Return of aaalto,2025-04-22,19:30,Bar 303,"303 High St, Northcote VIC 3070, Australia",https://www.facebook.com/events/1186879873078447/,-37.7713296,144.99828116650363
Explorer Adventure Tour: Secrets of Australian Plants,2025-04-22,00:00,Botanic gardens,"Birdwood Ave Melbourne VIC 3004, Australia",https://www.facebook.com/events/2038711696631934/,-37.82683271,144.97238679810675
Rodrigo y Gabriela | Northcote Theatre,2025-04-23,19:30,Northcote Theatre,"216 High St, Northcote VIC 3070, Australia",https://www.facebook.com/events/1003268101816581/,-37.7737068,144.9982706
Australian Construction Market Overview,2025-04-23,17:30,"Arcadis, Melbourne","Level 18, Queen & Collins Tower 376-390 Collins Street Melbourne, VIC 3000",https://www.eventbrite.com.au/e/australian-construction-market-overview-tickets-1290789489109?aff=ebdssbdestsearch,-37.8183159,144.9624481
FIOR Showcase,2025-04-23,18:00,476 Brunswick Rd,"476 Brunswick Road Parkville, VIC 3055",https://www.eventbrite.com/e/fior-showcase-tickets-1261813671659?aff=ebdssbdestsearch,-37.7751504,144.938016
"Class of 2010 ft Malthouse, Maxwell, Pendlebury & The Cup LIVE!",2025-04-23,19:00,Shoppingtown Hotel,"19 Williamsons Road Doncaster, VIC 3108",https://www.eventbrite.com.au/e/class-of-2010-ft-malthouse-maxwell-pendlebury-the-cup-live-tickets-1249913869029?aff=ebdssbdestsearch,-37.7851283,145.1227497
Melbourne Speed Dating for ages 25-39 by Cheeky Events Australia,2025-04-23,19:00,The Collection Bar,"328 Bridge Road Richmond Melbourne, VIC 3121",https://www.eventbrite.com.au/e/melbourne-speed-dating-for-ages-25-39-by-cheeky-events-australia-tickets-1139355877099?aff=ebdssbdestsearch,-37.8190785,145.0022342
Golden Club Preview: TINĀ,2025-04-23,13:00,Palace Cinemas,"1 Champ St, Coburg VIC 3058, Australia",https://www.facebook.com/events/634626762666178/,-37.736826,144.968318
TINĀ (Mother): Gala Screening,2025-04-23,18:30,Cinema Nova,"380 Lygon St, Carlton VIC 3053, Australia",https://www.facebook.com/events/1505391400419229/,-37.7978092,144.9680124
Rag'n'Bone Man | The Forum,2025-04-23,18:00,Forum Melbourne,"154 Flinders St, Melbourne VIC 3000, Australia",https://www.facebook.com/events/527373703174539/,-37.81644145,144.9693768124984
Rag'n'Bone Man,2025-04-23,12:00,Forum Melbourne,"180 Flinders St, Melbourne VIC 3000, Australia",https://premier.ticketek.com.au/shows/show.aspx?sh=RAGNBONE25,-37.816602,144.9694678
" 'MICK, NICK & ED' - Mick Pealing, Nick Charles & Ed Bates (ANZAC DAY EVE)",2025-04-24,00:00,arcobar heatherton,"8 Arco Ln, Heatherton VIC 3202, Australia",https://www.facebook.com/events/917540983548913/,-37.94673685,145.07837928457485
TOM PETTY TRIBUTE LIVE SHOW ,2025-04-24,20:00,Lulie Tavern,"225 Johnston St, Abbotsford VIC 3067, Australia",https://www.facebook.com/events/1367621437775246/,-37.8000264,144.9936498
Leroy Macqueen Live At The Bergy Band Room,2025-04-24,17:00,Bergy Bandroom,"64 Sydney Rd, Brunswick VIC 3056, Australia",https://www.facebook.com/events/1701004750489990/,-37.776327,144.9607158
PBS 106.7FM presents MIDNIGHT DRIVER at REVOLVER UPSTAIRS,2025-04-24,00:00,Revolver Upstairs,"Level 2/229 Chapel St, Prahran VIC 3181, Australia",https://www.facebook.com/events/567994786245554/,-37.8505902,144.9933469
"hi, it's nice to meet me au tour - melbourne (18+)",2025-04-24,19:00,The Corner Hotel,"57 Swan St, Richmond VIC 3121",https://www.facebook.com/events/1746236752831399/,-37.82464307,144.9926962
RY X,2025-04-24,00:00,Melbourne Recital Centre,"31 Sturt St, Southbank VIC 3006, Australia",https://www.facebook.com/events/924157116217365/,-37.82408485,144.96758763141432
Chunk #23 | Beast Mode Sports Edition & 3rd Birthday | 24.04.2025,2025-04-24,00:00,24 Moons,"2 Arthurton Rd, Northcote VIC 3070, Australia",https://www.facebook.com/events/682866411016842/,-37.7691418,144.9982614
Powers of Nature [Second Story - Collingwood-Melbourne],2025-04-24,00:00,Second Story,"222A Johnston St, Collingwood VIC 3066, Australia",https://www.facebook.com/events/548038484371910/,-37.79913366,144.9859876802753
Cold Snap & Thursday Night Jam!,2025-04-24,00:00,Hume Blues Club Inc,"27 Ballantyne St, Thornbury VIC 3071, Australia",https://www.facebook.com/events/1354710085477428/,-37.7588241,144.9985126
Pseudo Echo - April 24 ANZAC DAY HOLIDAY EVE  - Brunswick Ballroom Melbourne Vic,2025-04-24,18:30,Brunswick Ballroom,"314 Sydney Rd, Brunswick VIC 3056, Australia",https://www.facebook.com/events/550898591051480/,-37.7704205,144.9617083
FUKHED | MELBOURNE | THE NIGHT CAT,2025-04-24,21:00,The Night Cat,"137-141 Johnston St, Fitzroy VIC 3065, Australia",https://www.facebook.com/events/534836399027207/,-37.7982971,144.978128
Hermosa Sounds: An Evening of Female Voices ,2025-04-24,19:00,MEMO Music Hall,"88 Acland St, St Kilda VIC 3182, Australia",https://www.facebook.com/events/1578549099513621/,-37.8671902,144.9786817
DISCO NOT DISCO - Dance Punk / Mutant Disco / Indie Sleaze / Local Noise,2025-04-24,00:00,Retreat Hotel,"Level 1/280 Sydney Rd, Brunswick VIC 3056, Australia",https://www.facebook.com/events/10072158132819046/,-37.7711487,144.9615949
Melbourne speed dating for ages 26-44 by Cheeky Events Australia,2025-04-24,19:00,Bar Blanco,"102 Chapel Street Windsor Melbourne, VIC 3181",https://www.eventbrite.com.au/e/melbourne-speed-dating-for-ages-26-44-by-cheeky-events-australia-tickets-1020580191827?aff=ebdssbdestsearch,-37.854455,144.993076
POOF DOOF Big Doof at The Bottom End - ANZAC Day Eve,2025-04-24,21:00,The Bottom End,"579 Little Collins Street Melbourne, VIC 3000",https://www.eventbrite.com.au/e/poof-doof-big-doof-at-the-bottom-end-anzac-day-eve-tickets-1254093741139?aff=ebdssbdestsearch,-37.8177944,144.955548
RAVE IN THE MARKET,2025-04-24,20:00,Il Mercato Centrale Melbourne,"546 Collins Street Melbourne, VIC 3000",https://www.eventbrite.com.au/e/rave-in-the-market-tickets-1280330867089?aff=ebdssbdestsearch,-37.8181872,144.955581
HYPNOTIC Ft. TILDA (FR) & EWAKE (FR),2025-04-24,21:00,my aeon,"791 Sydney Road Brunswick, VIC 3056",https://www.eventbrite.com/e/hypnotic-ft-tilda-fr-ewake-fr-tickets-1279019474679?aff=ebdssbdestsearch,-37.7581868,144.9633301
Data Compliance and Cyber Security Group,2025-04-24,18:00,Cornwalls,"380 Collins Street level 4 Melbourne, VIC 3000",https://www.eventbrite.com.au/e/data-compliance-and-cyber-security-group-tickets-1114675567629?aff=ebdssbdestsearch,-37.81649410000001,144.961916
Kingston Event ”5 things to Improve the SEO on your website today!,2025-04-24,10:00,The Corner Store,"1 Swanston Street Mentone, VIC 3194",https://www.eventbrite.com.au/e/kingston-event-5-things-to-improve-the-seo-on-your-website-today-tickets-1302806592589?aff=ebdssbdestsearch,-37.981169,145.065399
"FESTA DELLA LIBERTA Feat: DJs Eddie Rinaldo, Mark Pellegrini & Pauly-J Live",2025-04-24,20:00,Olympic Hotel,"31 Albert Street Preston, VIC 3072",https://www.eventbrite.com.au/e/festa-della-liberta-feat-djs-eddie-rinaldo-mark-pellegrini-pauly-j-live-tickets-1268229551729?aff=ebdssbdestsearch,-37.7465792,145.021604
Conscious Connection | Pitch Your Single Friend (ages 25 - 40),2025-04-24,06:30,Bridge Hotel,"642 Bridge Road Upstairs Richmond, VIC 3121",https://www.eventbrite.com.au/e/conscious-connection-pitch-your-single-friend-ages-25-40-tickets-1266879965079?aff=ebdssbdestsearch,-37.8202131,145.0134924
Chunk #23 | BEAST MODE | Sports Edition & Our 3rd Bday | 24.04.25,2025-04-24,21:00,24 Moons,"2 Arthurton Road Northcote, VIC 3070",https://www.eventbrite.com.au/e/chunk-23-beast-mode-sports-edition-our-3rd-bday-240425-tickets-1298749547859?aff=ebdssbdestsearch,-37.7691172,144.9982721
R.E.M. BY STIPE | MELBOURNE,2025-04-25,00:00,Palladium at Crown,"Level 1 Crown Towers, Crown Melbourne, 8 Whiteman St, Southbank VIC 3006, Australia",https://www.facebook.com/events/935158252113785/,-37.822181,144.959875
"Dennis Double EP Launch ""for imogen // love, dennis""",2025-04-25,19:00,THE CURTIN (John Curtin hotel),"29 Lygon St, Carlton VIC 3053, Australia",https://www.facebook.com/events/633235282974129/,-37.8061581,144.9657057
Melbourne: Death From Above 1979 w/ DZ Deathrays,2025-04-25,19:30,170 Russell,"170 Russell St, Melbourne VIC 3000, Australia",https://www.facebook.com/events/871405918474920/,-37.8120109,144.9679369
80's ZONE......DEBUT @ LI3G,2025-04-25,20:00,Lucky 13 Garage,"8 Cochranes Rd, Moorabbin VIC 3189, Australia",https://www.facebook.com/events/662644542915394/,-37.94349189,145.07036236060654
JULIO AND THE STEVIES!,2025-04-25,19:30,Uptown Jazz Cafe,"1/177 Brunswick St, Fitzroy VIC 3065, Australia",https://www.facebook.com/events/643572788297440/,-37.79705404,144.97869049756974
PRIVATE CELLAR: Clarendon Hills Dinner,2025-04-25,19:00,"Life's Too Short Bar, Tribeca Arcade, Victoria Parade, East Melbourne VIC, Australia","412 Victoria Parade #Shop 2 East Melbourne, VIC 3002",https://www.eventbrite.com.au/e/private-cellar-clarendon-hills-dinner-tickets-958617519807?aff=ebdssbdestsearch,-37.8096207,144.985273
SKIP INTRO - over 28s,2025-04-25,20:00,Shoppingtown Hotel,"19 Williamsons Road Doncaster, VIC 3108",https://www.eventbrite.com.au/e/skip-intro-over-28s-tickets-1257400993219?aff=ebdssbdestsearch,-37.7851283,145.1227497
Frolic,2025-04-25,22:00,Inflation Entertainment Complex,"60 King Street Melbourne, VIC 3000",https://www.eventbrite.com.au/e/frolic-tickets-1257695905309?aff=ebdssbdestsearch,-37.8188863,144.9571605
Anime Music Festival 2025,2025-04-25,19:00,Stay Gold,"133 Sydney Road Brunswick, VIC 3056",https://www.eventbrite.com.au/e/anime-music-festival-2025-tickets-1172665998569?aff=ebdssbdestsearch,-37.7743822,144.9606172
"The Audreys -  Ruin & Repair Album Tour 2025 | Brunswick, VIC.",2025-04-25,18:30,Brunswick Ballroom,"314 Sydney Rd, Brunswick VIC 3056, Australia",https://www.facebook.com/events/1632562460707758/,-37.7704205,144.9617083
Melbourne Avurudu Baila 2025,2025-04-25,21:30,Brown Alley,"585 Lonsdale Street Melbourne, VIC 3000",https://www.eventbrite.com/e/melbourne-avurudu-baila-2025-tickets-1257002882459?aff=ebdssbdestsearch,-37.8145646,144.9551429
Anzac Day Boat Party,2025-04-25,19:15,Lady Cutler Melbourne Showboat,"131 Harbour Esplanade Docklands, VIC 3008",https://www.eventbrite.com.au/e/anzac-day-boat-party-tickets-1298863147639?aff=ebdssbdestsearch,-37.81707129999999,144.9453813
"(Sat, Apr 25) GYPSY LOVERS (EP Launch) + PENNY IKINGER'S MARBLES",2025-04-25,00:00,George Lane St Kilda,"1 George Ln, St Kilda VIC 3182, Australia",https://www.facebook.com/events/673670685223358/,-37.85997305,144.9780306
Deborahafter50 Subscriber Meet & Greet,2025-04-25,15:00,Westfield Doncaster,"619 Doncaster Road Doncaster, VIC 3108",https://www.eventbrite.com.au/e/deborahafter50-subscriber-meet-greet-tickets-1287362147839?aff=ebdssbdestsearch,-37.7851115,145.1262028
MEL - Mood Swing & Chevy Bass BLOCK PARTY ft. The Sponges (US) Wongo (QLD),2025-04-25,15:00,Howler,"7-11 Dawson St, Brunswick VIC 3056, Australia",https://www.facebook.com/events/561087297084746/,-37.7720304,144.9596527
ANZAC DAY AT THE CORNER,2025-04-25,12:00,The Corner Hotel,"57 Swan St, Richmond VIC 3121",https://www.facebook.com/events/1344639016689737/,-37.82464307,144.9926962
B.I HYPE UP TOUR,2025-04-25,19:30,Festival Hall,"300 Dudley St, West Melbourne VIC 3003, Australia",https://www.facebook.com/events/1496960170949894/,-37.8098193,144.9508057
Roccella Pizza Masterclass | Bundoora | April 26,2025-04-26,11:00,Roccella Italian Restaurant Bundoora,"5 Janefield Drive #Shop T01 Bundoora, VIC 3083",https://www.eventbrite.com.au/e/roccella-pizza-masterclass-bundoora-april-26-tickets-1145146507029?aff=ebdssbdestsearch,-37.6826088,145.0714715
MSA Trips: Puffing Billy Day Trip,2025-04-26,10:30,Robert Blackwood Hall,"49 Scenic Boulevard Monash University, VIC 3800",https://www.eventbrite.com.au/e/msa-trips-puffing-billy-day-trip-tickets-1247714049309?aff=ebdssbdestsearch,-37.9127953,145.1352488
Urban Cocktail Trail | Prahran (VIC),2025-04-26,13:00,Prahran,"Prahran Prahran, VIC 3181",https://www.eventbrite.com/e/urban-cocktail-trail-prahran-vic-tickets-1238287805159?aff=ebdssbdestsearch,-37.8495201,144.9899575
"Casa’s Reunion- Bring Back The Funk- Sat April 26th, LOEV Moorabbin",2025-04-26,19:00,LOEV,"77 Keys Road Moorabbin, VIC 3189",https://www.eventbrite.com.au/e/casas-reunion-bring-back-the-funk-sat-april-26th-loev-moorabbin-tickets-1252647585649?aff=ebdssbdestsearch,-37.9484271,145.067727
AMARI GALA 2025,2025-04-26,17:00,Plaza Ballroom,"191 Collins Street Melbourne, VIC 3000",https://www.eventbrite.com.au/e/amari-gala-2025-tickets-1232458740269?aff=ebdssbdestsearch,-37.8154895,144.9675461
