Event_Title,Date,Time,Venue,Address,url,Latitude,Longitude
Melbourne Bar Crawl | The #1 Saturday Night Out! ,2024-12-28,02:13,On The Rocks Bar Crawl Melbourne,"The Joint, 35 Elizabeth St, Melbourne VIC 3000, Australia",https://www.facebook.com/events/466993875714396/?event_time_id=466993909047726,-37.8172989,144.9643996
BLKN,2024-12-28,17:00,The Saba Rooftop,"300 Plummer Street #Rooftop Port Melbourne, VIC 3207",https://www.eventbrite.com/e/blkn-tickets-1095712297979?aff=ebdssbdestsearch,-37.833951,144.919565
"Moonlight Broadcast live at Cherry Bar, Saturday DEC 28",2024-12-28,20:00,"Cherry Bar, Little Collins Street, Melbourne VIC, Australia","68 Little Collins Street Melbourne, VIC 3000",https://www.eventbrite.com.au/e/moonlight-broadcast-live-at-cherry-bar-saturday-dec-28-tickets-1108743464549?aff=ebdssbdestsearch,-37.8129293,144.9714986
Countdown to Connections: Pre-New Year's Social!(21-49s/Hosted/AUD 10),2024-12-28,19:00,Melbourne Central Lion,"211 La Trobe Street #level 3 Melbourne, VIC 3000",https://www.eventbrite.co.uk/e/countdown-to-connections-pre-new-years-social21-49shostedaud-10-tickets-1107668148249?aff=ebdssbdestsearch,-37.8105556,144.9630556
Empowered Self Circles presents - Masks,2024-12-28,02:30,Beneath The Ferns,"12 Dight Street Collingwood, VIC 3066",https://www.eventbrite.com.au/e/empowered-self-circles-presents-masks-tickets-1106898486169?aff=ebdssbdestsearch,-37.8035126,144.9885404
Eat The Beat : Farewell 2024,2024-12-28,22:00,New Guernica,"64 Smith Street Collingwood, VIC 3066",https://www.eventbrite.com.au/e/eat-the-beat-farewell-2024-tickets-1118360027949?aff=ebdssbdestsearch,-37.8062529,144.9832565
LA FIESTA Salsa and Bachata Latin Party!,2024-12-28,18:30,The Skydeck,"Level 2, 318 Chapel St Prahran, VIC 3181",https://www.eventbrite.com.au/e/la-fiesta-salsa-and-bachata-latin-party-tickets-1116085494759?aff=ebdssbdestsearch,-37.847686,144.994213
Techno vs Psytrance 2024 Final Round [28.12],2024-12-28,21:00,my aeon,"791 Sydney Road Brunswick, VIC 3056",https://www.eventbrite.com.au/e/techno-vs-psytrance-2024-final-round-2812-tickets-1112965733469?aff=ebdssbdestsearch,-37.7581868,144.9633301
FUNK PARADE TOUR | MELBOURNE,2024-12-28,22:00,141-145 Commercial Rd,"141-145 Commercial Road South Yarra, VIC 3141",https://www.eventbrite.com.au/e/funk-parade-tour-melbourne-tickets-1079974947139?aff=ebdssbdestsearch,-37.8462997,144.9911964
$69 Great Ocean Rd & 12 Apostles Adventure! (super low price!),2024-12-28,09:00,Old Melbourne Gaol,"377 Russell Street Melbourne, VIC 3000",https://www.eventbrite.com.au/e/69-great-ocean-rd-12-apostles-adventure-super-low-price-tickets-1104158470709?aff=ebdssbdestsearch,-37.8079389,144.9650674
"BOLLYWOOD BASH at Inflation Nightclub, Melbourne",2024-12-28,22:00,Inflation Entertainment Complex,"60 King Street Melbourne, VIC 3000",https://www.eventbrite.com.au/e/bollywood-bash-at-inflation-nightclub-melbourne-tickets-1082885332179?aff=ebdssbdestsearch,-37.8188863,144.9571605
"Daytime Speed Dating: Walk, Talk, Spark: Outdoors.  26-39 yrs",2024-12-28,13:00,Melbourne CBD Outside,"Melbourne CBD Melbourne, VIC 3000",https://www.eventbrite.com.au/e/daytime-speed-dating-walk-talk-spark-outdoors-26-39-yrs-tickets-1111186050389?aff=ebdssbdestsearch,-37.8152065,144.963937
OPEN AIR with CRAIG RICHARDS,2024-12-28,15:00,Gravity Club,"420 Little Collins Street Melbourne, VIC 3000",https://www.eventbrite.com/e/open-air-with-craig-richards-tickets-1068885357879?aff=ebdssbdestsearch,-37.8160146,144.9606014
Chunk #19 | A Very Beary Christmas | 28.12.2024,2024-12-28,21:00,24 Moons,"2 Arthurton Road Northcote, VIC 3070",https://www.eventbrite.com.au/e/chunk-19-a-very-beary-christmas-28122024-tickets-1077146246419?aff=ebdssbdestsearch,-37.769148,144.9982808
"Bollywood Saturdays at Decibles Nightclub, Melbourne",2024-12-28,22:00,La Di Da,"577 Little Bourke Street Melbourne, VIC 3000",https://www.eventbrite.com.au/e/bollywood-saturdays-at-decibles-nightclub-melbourne-tickets-1083851883159?aff=ebdssbdestsearch,-37.8153739,144.955644
Japan Night Party!: Presented by MELLIFE JP/EN social community,2024-12-28,21:00,La Di Da,"577 Little Bourke Street Melbourne, VIC 3000",https://www.eventbrite.com.au/e/japan-night-party-presented-by-mellife-jpen-social-community-tickets-1072891069069?aff=ebdssbdestsearch,-37.8153739,144.955644
Kick On End of Year Party,2024-12-28,07:30,Laundry Bar,"50 Johnston Street Fitzroy, VIC 3065",https://www.eventbrite.com.au/e/kick-on-end-of-year-party-tickets-1100589235029?aff=ebdssbdestsearch,-37.79831,144.976368
BROOKLYN SATURDAYS - RNB HIPHOP THROWBACKS PARTY LATIN,2024-12-28,21:00,The Black Rabbit,"85 Queen Street Melbourne, VIC 3000",https://www.eventbrite.com/e/brooklyn-saturdays-rnb-hiphop-throwbacks-party-latin-tickets-932351106257?aff=ebdssbdestsearch,-37.81636779999999,144.9611486
Mindful Calligraphy Workshop for Beginners,2024-12-28,10:00,HEER POTTERY ART,"31 Clarice Road #unit3/29 Box Hill South, VIC 3128",https://www.eventbrite.com.au/e/mindful-calligraphy-workshop-for-beginners-tickets-1029466370627?aff=ebdssbdestsearch,-37.833062,145.1337404
Laundry presents: THE BEST OF 2025,2024-12-28,21:00,Laundry Bar,"50 Johnston Street Fitzroy, VIC 3065",https://www.eventbrite.com.au/e/laundry-presents-the-best-of-2025-tickets-1098417990779?aff=ebdssbdestsearch,-37.79831,144.976368
End Of Year 2024 All White Party,2024-12-28,19:00,4/6 South Rd,"6 South Road #4 Braybrook, VIC 3019",https://www.eventbrite.com.au/e/end-of-year-2024-all-white-party-tickets-1072997547549?aff=ebdssbdestsearch,-37.7922484,144.8609606
END OF YEAR PARTY 2024 (DND),2024-12-28,22:00,127 Dorcas St,"127 Dorcas Street South Melbourne, VIC 3205",https://www.eventbrite.com/e/end-of-year-party-2024-dnd-tickets-1072841581049?aff=ebdssbdestsearch,-37.831769,144.96557
The St Kilda Bar Crawl - Isaac's Birthday Edition,2024-12-28,15:00,Red Eye Bar,"17 Carlisle Street St Kilda, VIC 3182",https://www.eventbrite.com.au/e/the-st-kilda-bar-crawl-isaacs-birthday-edition-tickets-1107637797469?aff=ebdssbdestsearch,-37.8672306,144.9801502
All White Boat Party,2024-12-28,18:00,The Lady Cutler Melbourne Showboat,"131 Harbour Esplanade, Docklands VIC 3008 Ivanhoe, VIC 3079",https://www.eventbrite.com.au/e/all-white-boat-party-tickets-1081563007069?aff=ebdssbdestsearch,-37.8170713,144.9453813
"END OF YEAR REGGAE, LOVERS, ROCKSTEADY & DANCEHALL PARTY",2024-12-28,21:00,60 King St,"60 King Street Melbourne, VIC 3000",https://www.eventbrite.com.au/e/end-of-year-reggae-lovers-rocksteady-dancehall-party-tickets-1100229930339?aff=ebdssbdestsearch,-37.8188863,144.9571605
Alfi Rocker BAND - FINAL SHOW for 2024,2024-12-28,00:00,Altona Sports Club,"11 Altona Rd, Altona VIC 3018, Australia",https://www.facebook.com/events/1093679208959179/,-37.85754867,144.85121805353086
80's Night. End of Year Celebrations!,2024-12-28,20:00,One2three Bar,"123 Queens Parade, Clifton Hill VIC 3068, Australia",https://www.facebook.com/events/1048191586995241/,-37.7892833,144.9901391
Eat The Beat : Farewell 2024,2024-12-28,00:00,New Guernica,"64 Smith St, Collingwood VIC 3066, Australia",https://www.facebook.com/events/421510904372918/,-37.80624775,144.98331211946754
HYDRA: The Australian TOTO Show | Exclusive Dinner & Show,2024-12-28,00:00,arcobar heatherton,"8 Arco Ln, Heatherton VIC 3202, Australia",https://www.facebook.com/events/1092753255864765/,-37.94673685,145.07837928457485
Новогодний Вечер в Русском Доме!,2024-12-28,18:00,Russian House Melbourne,"118 Greeves St, Fitzroy VIC 3065, Australia",https://www.facebook.com/events/572872025496167/,-37.79982794,144.97840274927256
Relax With Max,2024-12-28,18:00,Bird's Basement,"11 Singers Ln, Melbourne VIC 3000, Australia",https://www.facebook.com/events/394260126534763/,-37.81114416,144.95680390283175
John Kennedy (solo) w- Ten Gallon Head (duo),2024-12-28,15:30,The Old Bar,"74-76 Johnston St, Fitzroy VIC 3065, Australia",https://www.facebook.com/events/1986418738521475/,-37.79833,144.97711
Andrew De Silva Live in the Glasshouse,2024-12-28,00:00,Transport Hotel,"Transport Hotel, Ground Level Federation Square, Melbourne VIC 3000, Australia",https://www.facebook.com/events/1622735631669630/,-37.81835059,144.9683925
Hasta La Cumbia @ Bar Oussou!,2024-12-28,22:00,Bar Oussou,"653 Sydney Rd, Brunswick VIC 3056, Australia",https://www.facebook.com/events/923512686414762/,-37.7618155,144.9628753
"HOMEBASS ""END OF 2024 PARTY!""",2024-12-28,00:00,Bar 303,"303 High St, Northcote VIC 3070, Australia",https://www.facebook.com/events/2006004016565383/,-37.7713296,144.99828116650363
Brett Williams Trio,2024-12-28,19:30,Uptown Jazz Cafe,"1/177 Brunswick St, Fitzroy VIC 3065, Australia",https://www.facebook.com/events/1377769226519612/,-37.79705404,144.97869049756974
 FREE AFTERNOON EVENT | Tim Watson Acoustic | From 1pm,2024-12-28,00:00,arcobar heatherton,"8 Arco Ln, Heatherton VIC 3202, Australia",https://www.facebook.com/events/1122352835609613/,-37.94673685,145.07837928457485
Joe Camilleri & The Black Sorrows - The Way We Do Business w  guest Freya Josephine Hollick @ MEMO,2024-12-28,19:00,MEMO Music Hall,"88 Acland St, St Kilda VIC 3182, Australia",https://www.facebook.com/events/1281555453213512/,-37.8671902,144.9786817
Sickest House presents :: Nitepunk // Naarm //,2024-12-28,21:00,Bad Decisions Bar,"46 Johnston St, Fitzroy VIC 3065, Australia",https://www.facebook.com/events/941085604175165/,-37.798246,144.9762881
Michael Stangel (Charming Sons) Live in the Glasshouse,2024-12-28,00:00,Transport Hotel,"Transport Hotel, Ground Level Federation Square, Melbourne VIC 3000, Australia",https://www.facebook.com/events/874441834760966/,-37.81835059,144.9683925
"The Wax Eaters X-Mas Hangover, The Coffins/G.S.T",2024-12-28,00:00,The Last Chance,"238 Victoria St, Melbourne VIC 3000, Australia",https://www.facebook.com/events/1087228513134083/,-37.8059962,144.9585654
SALSA & DANCEHALL,2024-12-28,20:00,Wax Music Lounge,"250 Flinders St, Melbourne VIC 3000, Australia",https://www.facebook.com/events/2458501564355505/,-37.8176298,144.9661635
"SHIRKHER ""Reunited"" album launch party @Bar Open",2024-12-28,20:30,Bar Open,"317 Brunswick St, Fitzroy VIC 3065, Australia",https://www.facebook.com/events/523578753996319/,-37.79773,144.978425
"Aardvark, Grim Rhythm, Willie J's 6v6s @ Shotkickers",2024-12-28,20:00,Shotkickers,"744 High St, Thornbury VIC 3071, Australia",https://www.facebook.com/events/547114794606561/,-37.75592655,145.0013923
Kick On End of Year Party,2024-12-28,00:00,Laundry Bar,"50 Johnston St, Fitzroy VIC 3065, Australia",https://www.facebook.com/events/2323825081349519/,-37.7983139,144.9764962
Melbourne Bar Crawl | The #1 Saturday Night Out! ,2024-12-28,00:00,On The Rocks Bar Crawl Melbourne,"The Joint, 35 Elizabeth St, Melbourne VIC 3000, Australia",https://www.facebook.com/events/466993875714396/,-37.8172989,144.9643996
Laundry presents: THE BEST OF 2025,2024-12-28,00:00,Laundry Bar,"50 Johnston St, Fitzroy VIC 3065, Australia",https://www.facebook.com/events/541932312055890/,-37.7983139,144.9764962
Flower Field Folly @ The Bergy / Nephalem / Malcura / Gorrister,2024-12-28,19:00,Bergy Bandroom,"64 Sydney Rd, Brunswick VIC 3056, Australia",https://www.facebook.com/events/1608793363365899/,-37.776327,144.9607158
Dave Lee (FKA Joey Negro) At The Night Cat,2024-12-28,21:00,The Night Cat,"137-141 Johnston St, Fitzroy VIC 3065, Australia",https://www.facebook.com/events/737745015193139/,-37.7982971,144.978128
Dinner with Strangers: Melbourne,2024-12-29,19:00,Secret Venue,"Melbourne Melbourne, VIC",https://www.eventbrite.com/e/dinner-with-strangers-melbourne-tickets-966457338917?aff=ebdssbdestsearch,-37.8136276,144.9630576
VOLA FOODS END OF YEAR PARTY,2024-12-29,12:00,Vola Foods,"30 Ovens Street Brunswick, VIC 3056",https://www.eventbrite.com.au/e/vola-foods-end-of-year-party-tickets-1116969378479?aff=ebdssbdestsearch,-37.7648219,144.961765
PUNK-O-RAMA,2024-12-29,07:30,Bad Decisions Bar,"46 Johnston Street Fitzroy, VIC 3065",https://www.eventbrite.com.au/e/punk-o-rama-tickets-1104193716129?aff=ebdssbdestsearch,-37.7982682,144.9762913
Cardfight! Vanguard - Vanguard Day - Gameology CLAYTON SOUTH - 29/12/2024,2024-12-29,12:30,Gameology,"12 Eileen Road Clayton South, VIC 3169",https://www.eventbrite.com.au/e/cardfight-vanguard-vanguard-day-gameology-clayton-south-29122024-tickets-1095838696039?aff=ebdssbdestsearch,-37.9512104,145.1347381
BrunchBeat Sundays,2024-12-29,14:00,Pre Drinks Bar,"149 Commercial Road South Yarra, VIC 3141",https://www.eventbrite.com.au/e/brunchbeat-sundays-tickets-1111445486369?aff=ebdssbdestsearch,-37.8463162,144.9913793
Caramel Sundays  | 29th December 2024 | GOODBYE 2024,2024-12-29,22:00,Platform One,"375 Flinders Street Melbourne, VIC 3000",https://www.eventbrite.com/e/caramel-sundays-29th-december-2024-goodbye-2024-tickets-1109762502519?aff=ebdssbdestsearch,-37.8191789,144.9621961
$76 Grampians & Kangaroos Bus Trip Adventure! (super low price!),2024-12-29,09:00,Old Melbourne Gaol,"377 Russell Street Melbourne, VIC 3000",https://www.eventbrite.com.au/e/76-grampians-kangaroos-bus-trip-adventure-super-low-price-tickets-1106034893139?aff=ebdssbdestsearch,-37.8079389,144.9650674
Social Tennis Mix Single/Double  - All Level - December  29,2024-12-29,16:00,Caulfield Park Tennis Centre,"280 Balaclava Road Caulfield North, VIC 3161",https://www.eventbrite.com.au/e/social-tennis-mix-singledouble-all-level-december-29-tickets-1102640610749?aff=ebdssbdestsearch,-37.8719411,145.0297196
Bloom Seddon Melbourne -  Feminine Self Love Experience with Taryn Darlow,2024-12-29,11:00,77 Charles St,"77 Charles Street Seddon, VIC 3011",https://www.eventbrite.com.au/e/bloom-seddon-melbourne-feminine-self-love-experience-with-taryn-darlow-tickets-880700176937?aff=ebdssbdestsearch,-37.8068439,144.8917066
Xylourides | Brunswick Ballroom,2024-12-29,18:00,Brunswick Ballroom,"314 Sydney Rd, Brunswick VIC 3056, Australia",https://www.facebook.com/events/1765122507651690/,-37.7704205,144.9617083
PUNK-O-RAMA,2024-12-29,00:00,Bad Decisions Bar,"46 Johnston St, Fitzroy VIC 3065, Australia",https://www.facebook.com/events/998053002044860/,-37.798246,144.9762881
Domingo Latino - Calle Luna,2024-12-29,18:45,The Night Cat,"137-141 Johnston St, Fitzroy VIC 3065, Australia",https://www.facebook.com/events/521257564250045/,-37.7982971,144.978128
It's Camp: Silly Season Drag Show,2024-12-29,0:00,The Old Bar,"74-76 Johnston St, Fitzroy VIC 3065, Australia",https://www.facebook.com/events/2235427943500413/,-37.79833,144.97711
The Punters | Every Sunday at Punters Club,2024-12-29,00:00,Punters Club,"376 Brunswick St, Fitzroy VIC 3065, Australia",https://www.facebook.com/events/2338349969876972/,-37.7960561,144.9790327
K-Solo Live in the Glasshouse,2024-12-29,00:00,Transport Hotel,"Transport Hotel, Ground Level Federation Square, Melbourne VIC 3000, Australia",https://www.facebook.com/events/1255142932435783/,-37.81835059,144.9683925
 FREE AFTERNOON EVENT | Jump The Shark Band | From 1pm,2024-12-29,00:00,arcobar heatherton,"8 Arco Ln, Heatherton VIC 3202, Australia",https://www.facebook.com/events/1634320610504174/,-37.94673685,145.07837928457485
The Treblettes,2024-12-29,00:00,Altona Sports Club,"11 Altona Rd, Altona VIC 3018, Australia",https://www.facebook.com/events/560153730249497/,-37.85754867,144.85121805353086
Soul Of Fitzroy | Rooftop Jazz & Soul Party | With Northside Records,2024-12-29,00:00,Punters Club,"376 Brunswick St, Fitzroy VIC 3065, Australia",https://www.facebook.com/events/1278260080188497/,-37.7960561,144.9790327
Standing Circle @ BAR OUSSOU! ,2024-12-29,20:00,Bar Oussou,"653 Sydney Rd, Brunswick VIC 3056, Australia",https://www.facebook.com/events/939810084674974/,-37.7618155,144.9628753
Solomun,2024-12-30,10:00,Coburg,"30-35 Charles St Coburg Coburg, VIC 3058",https://www.eventbrite.com.au/e/solomun-tickets-1086492200419?aff=ebdssbdestsearch,-37.7309042,144.9571057
Killer Pool Comp - Mondays,2024-12-30,00:00,Inkerman Hotel,"375 Inkerman St, St Kilda East VIC 3183, Australia",https://www.facebook.com/events/1038406204674063/,-37.866444,144.99799715146656
PLAYAZ CLUB: LANEWAY HOOP SHOOTOUT,2024-12-30,00:00,Section 8,"27-29 Tattersalls Ln, Melbourne VIC 3000, Australia",https://www.facebook.com/events/1804239166982408/?event_time_id=1804239193649072,-37.8117457,144.965405
Funny Near The Brunny! - Free Live Comedy Every Monday,2024-12-30,00:00,Bergy Bandroom,"64 Sydney Rd, Brunswick VIC 3056, Australia",https://www.facebook.com/events/1068456871671985/,-37.776327,144.9607158
"Monday Holiday Comedy at Basement Comedy Club, 8pm",2024-12-30,20:00,Basement Comedy Club,"120 Exhibition Street Melbourne, VIC 3000",https://www.eventbrite.com.au/e/monday-holiday-comedy-at-basement-comedy-club-8pm-tickets-1111248988639?aff=ebdssbdestsearch,-37.8128722,144.9712049
"‘Social Sanctuary’ with Exiles, Arabella and The Heist + D.C. Maxwell",2024-12-30,19:00,Northcote Social Club,"301 High St, Northcote VIC 3070, Australia",https://www.facebook.com/events/1297583111171272/,-37.771471,144.998414
 FREE AFTERNOON EVENT | Jason Vorherr Acoustic | From 1pm,2024-12-30,00:00,arcobar heatherton,"8 Arco Ln, Heatherton VIC 3202, Australia",https://www.facebook.com/events/1531757494164228/,-37.94673685,145.07837928457485
MORBID MONDAYS AT OLD BAR -  DECEMBER 30th - BAD LOO TENANT / VIOLET DREAD / CAUSTIC GRIP,2024-12-30,20:00,The Old Bar,"74-76 Johnston St, Fitzroy VIC 3065, Australia",https://www.facebook.com/events/27839481199030576/,-37.79833,144.97711
"Sound Healing Melbourne, Black New Moon in Capricorn, Ritual and Sound Bath",2024-12-30,19:30,Private Studio in St Kilda East,"Alma Road St Kilda East, VIC 3183",https://www.eventbrite.com.au/e/sound-healing-melbourne-black-new-moon-in-capricorn-ritual-and-sound-bath-tickets-1100662253429?aff=ebdssbdestsearch,-37.8626178,145.0005983
NEW YEARS EVE IN ELTHAM,2024-12-31,18:00,Missing Gorilla,"70 Commercial Place #1 Eltham, VIC 3095",https://www.eventbrite.com.au/e/new-years-eve-in-eltham-tickets-1034702321497?aff=ebdssbdestsearch,-37.7127434,145.1494258
NEW YEARS EVE 2024/25 • FLAMINGO CLUB,2024-12-31,21:00,Platform One,"375 Flinders Street Melbourne, VIC 3000",https://www.eventbrite.com.au/e/new-years-eve-202425-flamingo-club-tickets-1093925032219?aff=ebdssbdestsearch,-37.8191789,144.9621961
New Years Eve @ The Stolen Gem Rooftop Bar,2024-12-31,20:30,The Stolen Gem Rooftop Bar,"388 Bourke Street #8 Melbourne, VIC 3000",https://www.eventbrite.com.au/e/new-years-eve-the-stolen-gem-rooftop-bar-tickets-1008825834227?aff=ebdssbdestsearch,-37.8142814,144.9620897
NYE @ Prince Alfred Port Melbourne!,2024-12-31,20:00,Prince Alfred Hotel,"355 Bay Street Port Melbourne, VIC 3207",https://www.eventbrite.com/e/nye-prince-alfred-port-melbourne-tickets-1039452830397?aff=ebdssbdestsearch,-37.8353732,144.944953
BOLLYWOOD NYE - LIVE BAND AT BLACK PRINCE,2024-12-31,20:30,The Black Prince - British Indian Restaurant,"45 Bourke Street Melbourne, VIC 3000",https://www.eventbrite.com.au/e/bollywood-nye-live-band-at-black-prince-tickets-1105264749619?aff=ebdssbdestsearch,-37.8119652,144.9719432
NEW YEARS EVE x BILLBOARD,2024-12-31,21:00,Billboard,"170 Russell Street Melbourne, VIC 3000",https://www.eventbrite.com.au/e/new-years-eve-x-billboard-tickets-1104121520189?aff=ebdssbdestsearch,-37.8119107,144.9680341
NYE at Life's Too Short Bar - EARLY SITTINGS,2024-12-31,17:30,"Life's Too Short Bar, Tribeca Arcade, Victoria Parade, East Melbourne VIC, Australia","412 Victoria Parade #Shop 2 East Melbourne, VIC 3002",https://www.eventbrite.com.au/e/nye-at-lifes-too-short-bar-early-sittings-tickets-1104135331499?aff=ebdssbdestsearch,-37.8096207,144.985273
Ellora  St Kilda - New Years Eve 2024 NYE @ 1 Fitzroy Street,2024-12-31,19:00,Ellora,"1 Fitzroy Street St Kilda, VIC 3182",https://www.eventbrite.com.au/e/ellora-st-kilda-new-years-eve-2024-nye-1-fitzroy-street-tickets-1080117192599?aff=ebdssbdestsearch,-37.8626946,144.9729238
NYE-MIAMI VICE PARTY,2024-12-31,17:00,Blue Diamond,"123 Queen Street #Shop 5 Melbourne, VIC 3000",https://www.eventbrite.com.au/e/nye-miami-vice-party-tickets-1105144209079?aff=ebdssbdestsearch,-37.8157528,144.9607103
THE MARINA PRESENTS NEW YEARS EVE DOCKLANDS 2024 | THE PROMENADE DOCKLANDS,2024-12-31,16:00,The Promenade Docklands,"78 Newquay Promenade #Suite 2, Level 1 Docklands, VIC 3008",https://www.eventbrite.com.au/e/the-marina-presents-new-years-eve-docklands-2024-the-promenade-docklands-tickets-1047706427127?aff=ebdssbdestsearch,-37.8145014,144.9392306
Serendipity NYE: Welcome 2025 at The Emerson,2024-12-31,20:00,The Emerson Rooftop Bar and Club,"141-145 Commercial Road South Yarra, VIC 3141",https://www.eventbrite.com.au/e/serendipity-nye-welcome-2025-at-the-emerson-tickets-1088427589219?aff=ebdssbdestsearch,-37.8462997,144.9911964
New Years Eve 2024 | Midnight Masquerade (Melb),2024-12-31,19:00,Fortress Melbourne,"23 Caledonian Lane Melbourne, VIC 3000",https://www.eventbrite.com.au/e/new-years-eve-2024-midnight-masquerade-melb-tickets-1043331842627?aff=ebdssbdestsearch,-37.8120726,144.9637077
NYE at AFLOAT 2024/25 - Main Deck,2024-12-31,18:00,Afloat,"2 Flinders Walk Melbourne, VIC 3000",https://www.eventbrite.com.au/e/nye-at-afloat-202425-main-deck-tickets-982798014317?aff=ebdssbdestsearch,-37.8187977,144.9669369
NYE at Rooftop at QT,2024-12-31,19:00,Rooftop at QT,"133 Russell Street Level 11 Melbourne, VIC 3000",https://www.eventbrite.com/e/nye-at-rooftop-at-qt-tickets-1040282552117?aff=ebdssbdestsearch,-37.8134277,144.9678242
Electric — New Year’s Eve 2024,2024-12-31,19:00,Electric Bar,"265-267 Chapel st Prahran, VIC 3181",https://www.eventbrite.com.au/e/electric-new-years-eve-2024-tickets-1097736382069?aff=ebdssbdestsearch,-37.8491548,144.9935126
NYE at FELECIA,2024-12-31,20:00,Felecia,"201 Nelson Place Williamstown, VIC 3016",https://www.eventbrite.com/e/nye-at-felecia-tickets-1027868792227?aff=ebdssbdestsearch,-37.86241750000001,144.9026564
NYE St Kilda - Welcome 2025 - New Years Eve 2024,2024-12-31,19:00,Jekyll & Hyde,"175 Acland Street St Kilda, VIC 3182",https://www.eventbrite.com.au/e/nye-st-kilda-welcome-2025-new-years-eve-2024-tickets-1057888285339?aff=ebdssbdestsearch,-37.8694465,144.9802119
EMO NEVER SLEEPS : NYE 2024,2024-12-31,20:00,Royal Melbourne Hotel,"629 Bourke Street Melbourne, VIC 3000",https://www.eventbrite.com.au/e/emo-never-sleeps-nye-2024-tickets-816487103907?aff=ebdssbdestsearch,-37.8168528,144.9552468
StoryVille | A Fairytale New Years Eve 2024,2024-12-31,20:00,StoryVille,"185 Lonsdale Street Melbourne, VIC 3000",https://www.eventbrite.com.au/e/storyville-a-fairytale-new-years-eve-2024-tickets-1088110049449?aff=ebdssbdestsearch,-37.811172,144.966828
Transit Rooftop Bar New Years Eve 2024/25,2024-12-31,19:30,Transit Rooftop Bar,"Level 2, Transport Hotel, Federation Square Melbourne, VIC 3000",https://www.eventbrite.com.au/e/transit-rooftop-bar-new-years-eve-202425-tickets-1033395472677?aff=ebdssbdestsearch,-37.8183938,144.9684217
NYE AT OYDIS ASHBURTON,2024-12-31,20:00,Oydis,"192 High Street #190 Ashburton, VIC 3147",https://www.eventbrite.com/e/nye-at-oydis-ashburton-tickets-1097015134799?aff=ebdssbdestsearch,-37.863416,145.0784662
EMO NEVER SLEEPS : NYE 2024 [ALT + CORDIFORM LIVE],2024-12-31,20:00,Royal Melbourne Hotel,"629 Bourke Street Melbourne, VIC 3000",https://www.eventbrite.com.au/e/emo-never-sleeps-nye-2024-alt-cordiform-live-tickets-816487103907?aff=ebdssbdestsearch,-37.8168528,144.9552468
New years Eve at the Botanical Hotel with John Course,2024-12-31,20:00,Botanical Hotel,"169 Domain Rd South Yarra, VIC 3141",https://www.eventbrite.com.au/e/new-years-eve-at-the-botanical-hotel-with-john-course-tickets-1084916818409?aff=ebdssbdestsearch,-37.8342236,144.9817934
NYE @ The Social,2024-12-31,20:00,The Social Bar,"116 Chapel Street Windsor, VIC 3181",https://www.eventbrite.com.au/e/nye-the-social-tickets-1100556176149?aff=ebdssbdestsearch,-37.8540861,144.9931502
Annual New Years Eve Dinner Dance,2024-12-31,19:00,"Pontian Association of Whittlesea ""Panagia Soumela""","18 Spring Street Thomastown, VIC 3074",https://www.eventbrite.com/e/annual-new-years-eve-dinner-dance-tickets-1106919188089?aff=ebdssbdestsearch,-37.6821709,145.0111051
New Year's Eve Rooftop Terrace Party,2024-12-31,20:00,AC Hotel by Marriott Melbourne Southbank,"201 Normanby Road Southbank, VIC 3006",https://www.eventbrite.com/e/new-years-eve-rooftop-terrace-party-tickets-1090572163699?aff=ebdssbdestsearch,-37.828592,144.9498768
NYE 2025,2024-12-31,20:30,Platform 28,"82 Village Street Docklands Melbourne, VIC 3008",https://www.eventbrite.com.au/e/nye-2025-tickets-1105982887589?aff=ebdssbdestsearch,-37.81854999999999,144.949189
NYE FUTURISTIC BOLLYWOOD NIGHT WITH FIREWORKS 2024/2025,2024-12-31,20:00,Munich Brauhaus Melbourne,"45 South Wharf Promenade South Wharf, VIC 3006",https://www.eventbrite.com.au/e/nye-futuristic-bollywood-night-with-fireworks-20242025-tickets-1116221170569?aff=ebdssbdestsearch,-37.8241437,144.9500484
New Year's Eve Reggae Dancehall Party,2024-12-31,20:00,BAR 204,"204 Broadway Reservoir, VIC 3073",https://www.eventbrite.com.au/e/new-years-eve-reggae-dancehall-party-tickets-1116592350779?aff=ebdssbdestsearch,-37.71699940000001,145.0121579
Melbourne Bar Crawl | New Years Eve 24/2025 (The Ultimate NYE Night Out),2024-12-31,19:30,Melbourne Bar Crawl,"Chaise Lounge 105 Queen Street Melbourne, VIC 3000",https://www.eventbrite.com.au/e/melbourne-bar-crawl-new-years-eve-242025-the-ultimate-nye-night-out-tickets-1094698074409?aff=ebdssbdestsearch,-37.816116,144.960926
Bucckk22 New Years Eve Party,2024-12-31,09:30,149 Commercial Rd,"149 Commercial Road South Yarra, VIC 3141",https://www.eventbrite.com/e/bucckk22-new-years-eve-party-tickets-1098714086409?aff=ebdssbdestsearch,-37.8463162,144.9913793
THE MASQUERADE | NEW YEARS EVE | MORRIS JONES | DEC 31ST,2024-12-31,19:00,Inca | Morris Jones Restaurant & Cocktail Bar,"163 Chapel Street Windsor, VIC 3181",https://www.eventbrite.com/e/the-masquerade-new-years-eve-morris-jones-dec-31st-tickets-1105309563659?aff=ebdssbdestsearch,-37.8523323,144.9930063
[NEW YEARS EVE]  - 4 BIG SETS WITH ROCK Q  - DINNER & SHOW,2024-12-31,20:00,Pockets Tullamarine,"217 Mickleham Road #11 Tullamarine, VIC 3049",https://www.eventbrite.com.au/e/new-years-eve-4-big-sets-with-rock-q-dinner-show-tickets-1027655865357?aff=ebdssbdestsearch,-37.6854021,144.8807298
"Resolution NYE 2024 feat. James Zabiela (UK), Anthony Pappa, Mike Steva",2024-12-31,17:00,Howler,"7-11 Dawson Street Brunswick, VIC 3056",https://www.eventbrite.com/e/resolution-nye-2024-feat-james-zabiela-uk-anthony-pappa-mike-steva-tickets-1048569197697?aff=ebdssbdestsearch,-37.771511,144.959539
New  Year's Eve  DJ Bash,2024-12-31,09:30,Stamford Plaza Melbourne,"111 Little Collins Street Melbourne, VIC 3000",https://www.eventbrite.com.au/e/new-years-eve-dj-bash-tickets-1066277046349?aff=ebdssbdestsearch,-37.8135512,144.9699174
The General Assembly New Year's Eve Party,2024-12-31,18:00,The General Assembly,"29 South Wharf Promenade South Wharf, VIC 3006",https://www.eventbrite.com.au/e/the-general-assembly-new-years-eve-party-tickets-1006486557387?aff=ebdssbdestsearch,-37.8242462,144.9519925
NEW YEAR EVE PARTY,2024-12-31,21:00,Chaise Lounge,"105 Queen Street #Basement Melbourne, VIC 3000",https://www.eventbrite.com.au/e/new-year-eve-party-tickets-1050376844417?aff=ebdssbdestsearch,-37.816116,144.960926
New Year's Eve at Blossom Rooftop Bar,2024-12-31,20:00,Blossom Rooftop Bar,"265 Little Bourke Street #Level 14 Melbourne, VIC 3000",https://www.eventbrite.com.au/e/new-years-eve-at-blossom-rooftop-bar-tickets-1040324186647?aff=ebdssbdestsearch,-37.81281999999999,144.9647544
NEW YEAR'S EVE AT LEFT BANK MELBOURNE 2025,2024-12-31,20:00,Left Bank Melbourne Restaurant & Cocktail Bar,"1 Southbank Boulevard Southbank, VIC 3006",https://www.eventbrite.com.au/e/new-years-eve-at-left-bank-melbourne-2025-tickets-1043385412857?aff=ebdssbdestsearch,-37.8211527,144.9628207
ALUMBRA | NEW YEARS EVE 2024,2024-12-31,21:00,The Albion Rooftop,"172 York Street South Melbourne, VIC 3205",https://www.eventbrite.com.au/e/alumbra-new-years-eve-2024-tickets-1096197589499?aff=ebdssbdestsearch,-37.8315105,144.9560408
LEVELS | NEW YEARS EVE 2024 | 360º BOILER ROOM III,2024-12-31,21:00,Brown Alley,"585 Lonsdale Street Melbourne, VIC 3000",https://www.eventbrite.com.au/e/levels-new-years-eve-2024-360o-boiler-room-iii-tickets-1096268230789?aff=ebdssbdestsearch,-37.81452000000001,144.955082
"New Years Eve - ""Sunset on the Yarra"" - Unlimited 6.5hr drinks Package",2024-12-31,20:00,"Metropolis Events - Luxury Wedding Venue, Corporate Event Space & Function Rooms","Metropolis Events - Luxury Wedding Venue, Corporate Event Space & Function Rooms Southbank, VIC 3006",https://www.eventbrite.com.au/e/new-years-eve-sunset-on-the-yarra-unlimited-65hr-drinks-package-tickets-972049675747?aff=ebdssbdestsearch,-37.8199893,144.9670463
Taxi Kitchen New Years Eve 2024/25,2024-12-31,19:30,Taxi Kitchen,"Level 1, Transport Hotel, Federation Square Melbourne, VIC 3000",https://www.eventbrite.com.au/e/taxi-kitchen-new-years-eve-202425-tickets-1033240800047?aff=ebdssbdestsearch,-37.8183938,144.9684217
Annual NYE Rooftop Party,2024-12-31,19:00,Mt View Hotel,"70 Bridge Rd Richmond, VIC 3121",https://www.eventbrite.com/e/annual-nye-rooftop-party-tickets-1070279828779?aff=ebdssbdestsearch,-37.817951,144.992169
New Year’s Eve Under the Stars: Showtime Events Centre & River Pavilion,2024-12-31,19:00,Showtime Events Centre,"61 South Wharf Promenade South Wharf, VIC 3006",https://www.eventbrite.com.au/e/new-years-eve-under-the-stars-showtime-events-centre-river-pavilion-tickets-1096961043009?aff=ebdssbdestsearch,-37.8239794,144.9488373
NYE South Bar and Restaurant,2024-12-31,18:00,454 St Kilda Rd,"454 Saint Kilda Road Melbourne, VIC 3004",https://www.eventbrite.com/e/nye-south-bar-and-restaurant-tickets-1095921152669?aff=ebdssbdestsearch,-37.8394552,144.9761617
Ponyfish Island NYE Party 2024/2025,2024-12-31,20:00,Ponyfish Island,"Evan Walker Bridge Southbank, VIC 3006",https://www.eventbrite.com/e/ponyfish-island-nye-party-20242025-tickets-1075483984549?aff=ebdssbdestsearch,-37.8199057,144.9650109
Trinity New Years Eve Party,2024-12-31,20:00,Trinity St Kilda,"2 Brighton Road St Kilda, VIC 3182",https://www.eventbrite.com.au/e/trinity-new-years-eve-party-tickets-1077185202939?aff=ebdssbdestsearch,-37.871047,144.989459
"New Years Eve 2024/25 - Harbour Kitchen, Docklands Waterfront",2024-12-31,19:00,"The Harbour Kitchen - Function Venues & Rooms Melbourne, Corporate, Birthday, Engagement Party","Shop1 800 Bourke Street Melbourne, VIC 3008",https://www.eventbrite.com.au/e/new-years-eve-202425-harbour-kitchen-docklands-waterfront-tickets-1046293882167?aff=ebdssbdestsearch,-37.8191708,144.9453257
New Year's Eve Rooftop Party with CBD Fireworks Views,2024-12-31,19:30,Courtyard Melbourne Flagstaff Gardens,"50 Batman Street West Melbourne, VIC 3003",https://www.eventbrite.com.au/e/new-years-eve-rooftop-party-with-cbd-fireworks-views-tickets-1108893653769?aff=ebdssbdestsearch,-37.8110063,144.9503694
Welcome 2025 NYE | Masquerade Party | George on Collins,2024-12-31,21:00,The George on Collins,"162-168 Collins Street Melbourne, VIC 3000",https://www.eventbrite.com.au/e/welcome-2025-nye-masquerade-party-george-on-collins-tickets-1056381588769?aff=ebdssbdestsearch,-37.8148781,144.9680956
NYE 2025 - ALL WHITE PARTY,2024-12-31,21:00,Laundry Bar,"50 Johnston Street Fitzroy, VIC 3065",https://www.eventbrite.com.au/e/nye-2025-all-white-party-tickets-1093467192809?aff=ebdssbdestsearch,-37.79831,144.976368
NYE2024 At Hacienda Cocina Mexicana,2024-12-31,20:00,"m28/3 southgate avenue, Southbank 3006","3 Southgate Avenue Southbank, VIC 3006",https://www.eventbrite.com/e/nye2024-at-hacienda-cocina-mexicana-tickets-1041840020547?aff=ebdssbdestsearch,-37.820556,144.965833
"PANDA, CLOUD NINE & UPHORIA PRESENTS - NYE 2024/25",2024-12-31,21:00,La Di Da,"577 Little Bourke Street Melbourne, VIC 3000",https://www.eventbrite.com/e/panda-cloud-nine-uphoria-presents-nye-202425-tickets-1080247341879?aff=ebdssbdestsearch,-37.8153739,144.955644
Illuminati,2024-12-31,22:00,El Camino Cantina Fitzroy,"222 Brunswick Street Fitzroy, VIC 3065",https://www.eventbrite.com.au/e/illuminati-tickets-1082705765089?aff=ebdssbdestsearch,-37.8009273,144.9782313
NYE St Kilda - Welcome 2025 - New Years Eve Melbourne 2024,2024-12-31,19:00,Jekyll & Hyde,"175 Acland Street St Kilda, VIC 3182",https://www.eventbrite.com.au/e/nye-st-kilda-welcome-2025-new-years-eve-melbourne-2024-tickets-1057888285339?aff=ebdssbdestsearch,-37.8694465,144.9802119
NYE at Stomping Ground Moorabbin,2024-12-31,19:00,Stomping Ground Brewery & Beer Hall - Morris Moor,"9 Cochranes Road Moorabbin, VIC 3189",https://www.eventbrite.com.au/e/nye-at-stomping-ground-moorabbin-tickets-1086601988799?aff=ebdssbdestsearch,-37.94185969999999,145.0618277
SOHO CARNAVAL NEW YEARS EVE 2024/25,2024-12-31,18:30,Soho Restaurant and Bar,"4 Riverside Quay #2 Southbank, VIC 3006",https://www.eventbrite.com.au/e/soho-carnaval-new-years-eve-202425-tickets-1046558453507?aff=ebdssbdestsearch,-37.8208918,144.9633778
New Years Eve 2024 at The Emerald Peacock,2024-12-31,20:00,The Emerald Peacock,"233 Lonsdale Street Melbourne, VIC 3000",https://www.eventbrite.com.au/e/new-years-eve-2024-at-the-emerald-peacock-tickets-1083601032859?aff=ebdssbdestsearch,-37.8115246,144.9655073
NEW YEARS EVE @ BEANS - Traffic light party!,2024-12-31,18:00,Beans Bar,"325 Smith Street Fitzroy, VIC 3065",https://www.eventbrite.com/e/new-years-eve-beans-traffic-light-party-tickets-1095024570969?aff=ebdssbdestsearch,-37.799338,144.984041
NYE 2024 - GLITTER THEME PARTY & UNLIMITED DRINKS!,2024-12-31,20:00,Craftsman's Corner Bar & Kitchen,"313 Lygon Street Brunswick East, VIC 3057",https://www.eventbrite.com.au/e/nye-2024-glitter-theme-party-unlimited-drinks-tickets-1090727969719?aff=ebdssbdestsearch,-37.7687672,144.971832
NYEMO APOCALYPSE MELBOURNE - EMO NIGHT NEW YEARS EVE 24/25,2024-12-31,20:00,Deluxe Bar,"595 Mt Alexander Rd Moonee Ponds, VIC 3039",https://www.eventbrite.com/e/nyemo-apocalypse-melbourne-emo-night-new-years-eve-2425-tickets-842574040637?aff=ebdssbdestsearch,-37.768313,144.925046
Johnny's Green Room NYE 24/25,2024-12-31,19:00,Johnny’s Green Room,"293-297 Lygon Street #Level 2 Carlton, VIC 3053",https://www.eventbrite.com/e/johnnys-green-room-nye-2425-tickets-1083781462529?aff=ebdssbdestsearch,-37.7983805,144.9670625
New Years Eve Party 2024,2024-12-31,18:00,"Three Monkeys, 210 Chapel Street, Prahran VIC, Australia","210 Chapel Street Prahran, VIC 3181",https://www.eventbrite.com.au/e/new-years-eve-party-2024-tickets-1110975550779?aff=ebdssbdestsearch,-37.851041,144.993681
Nah Yeah's Eve - The Local Taphouse,2024-12-31,20:00,The Local Taphouse,"184 Carlisle Street St Kilda East, VIC 3183",https://www.eventbrite.com.au/e/nah-yeahs-eve-the-local-taphouse-tickets-1086601878469?aff=ebdssbdestsearch,-37.8681134,144.99002
Bollywood Club Presents GLITTER NYE 2025 at Spice Market,2024-12-31,21:00,Spice Market,"Beaney Lane Melbourne, VIC 3000",https://www.eventbrite.com.au/e/bollywood-club-presents-glitter-nye-2025-at-spice-market-tickets-1042543514717?aff=ebdssbdestsearch,-37.8150914,144.9692403
New Years Eve Cruise with Fireworks,2024-12-31,19:30,131 Harbour Esplanade,"131 Harbour Esplanade Docklands, VIC 3008",https://www.eventbrite.com.au/e/new-years-eve-cruise-with-fireworks-tickets-1080393218199?aff=ebdssbdestsearch,-37.81707129999999,144.9453813
NYE @ Dimples Essendon,2024-12-31,20:00,Dimples Essendon,"100 Fletcher Street Essendon, VIC 3040",https://www.eventbrite.com.au/e/nye-dimples-essendon-tickets-1104207808279?aff=ebdssbdestsearch,-37.7548015,144.918333
NYE 24/25 - 9PM-5AM - LOVE MACHINE,2024-12-31,21:00,Love Machine,"228A Malvern Road Prahran, VIC 3181",https://www.eventbrite.com.au/e/nye-2425-9pm-5am-love-machine-tickets-1093926516659?aff=ebdssbdestsearch,-37.84712409999999,144.9947882
NYE Gala 2025,2024-12-31,19:30,The Heritage Reception - Wedding and Function Venue,"514-516 High Street Epping, VIC 3076",https://www.eventbrite.com.au/e/nye-gala-2025-tickets-1023189195427?aff=ebdssbdestsearch,-37.6572552,145.0204194
Dive into 2025: NYE at SEA LIFE Melbourne Aquarium,2024-12-31,19:00,SEA LIFE Melbourne Aquarium,"King Street Melbourne, VIC 3000",https://www.eventbrite.com.au/e/dive-into-2025-nye-at-sea-life-melbourne-aquarium-tickets-1096956599719?aff=ebdssbdestsearch,-37.8134279,144.9544436
New Years Eve at Tinto,2024-12-31,18:00,Tinto,"555 Burwood Road Hawthorn, VIC 3122",https://www.eventbrite.com/e/new-years-eve-at-tinto-tickets-1095836449319?aff=ebdssbdestsearch,-37.823254,145.0426172
NYE 24/25 - LOVE MACHINE,2024-12-31,21:00,Love Machine,"228A Malvern Road Prahran, VIC 3181",https://www.eventbrite.com.au/e/nye-2425-love-machine-tickets-1093926516659?aff=ebdssbdestsearch,-37.84712409999999,144.9947882
NYE at Arbory Bar & Eatery  2024/25,2024-12-31,18:00,Arbory Bar & Eatery,"1 Flinders Walk Melbourne, VIC 3000",https://www.eventbrite.com.au/e/nye-at-arbory-bar-eatery-202425-tickets-982911383407?aff=ebdssbdestsearch,-37.8190258,144.9660573
New Year's Eve Kirtan & Cacao Ceremony Celebration w Sun Hyland.,2024-12-31,19:30,Centre of You,"Upstairs, 217 Chapel St Prahran Melbourne, VIC 3181",https://www.eventbrite.com.au/e/new-years-eve-kirtan-cacao-ceremony-celebration-w-sun-hyland-tickets-1054713910699?aff=ebdssbdestsearch,-37.8509316,144.9933031
2024 New Year's Eve Party,2024-12-31,22:00,"Melbourne Central Lion, La Trobe Street, Melbourne VIC, Australia","211 La Trobe Street Melbourne, VIC 3000",https://www.eventbrite.com/e/2024-new-years-eve-party-tickets-1100665463029?aff=ebdssbdestsearch,-37.8103652,144.9632155
New Years Eve Rooftop Garden Party (NYE),2024-12-31,20:00,Loop Roof,"Level 3 & 4, 23 Meyers Place (Twin-tier rooftop garden) Melbourne, VIC 3000",https://www.eventbrite.com.au/e/new-years-eve-rooftop-garden-party-nye-tickets-1043384821087?aff=ebdssbdestsearch,-37.8121252,144.972165
The Boatbuilders Yard New Year's Eve Party,2024-12-31,19:00,The Boatbuilders Yard,"23 South Wharf Promenade South Wharf, VIC 3006",https://www.eventbrite.com.au/e/the-boatbuilders-yard-new-years-eve-party-tickets-1006475835317?aff=ebdssbdestsearch,-37.8241268,144.9529815
[NEW YEARS EVE]  - 4 BIG SETS OF EINSTEINS TOYBOYS - DINNER & SHOW,2024-12-31,20:00,Pockets Moorabbin,"168 Chesterville Road Cheltenham, VIC 3192",https://www.eventbrite.com.au/e/new-years-eve-4-big-sets-of-einsteins-toyboys-dinner-show-tickets-1027624993017?aff=ebdssbdestsearch,-37.9481004,145.059588
POOF DOOF New Year's Eve - MELBOURNE,2024-12-31,22:00,Chasers Nightclub,"386 Chapel Street South Yarra, VIC 3141",https://www.eventbrite.com.au/e/poof-doof-new-years-eve-melbourne-tickets-1041742007387?aff=ebdssbdestsearch,-37.8459028,144.9947039
New Years Eve,2024-12-31,17:00,Waterslide Bar,"Shop MR3 Mid Level East End Southgate Building Southbank, VIC 3006",https://www.eventbrite.com.au/e/new-years-eve-tickets-1071486026549?aff=ebdssbdestsearch,-37.8203389,144.9660726
"NYE 2025 @ The Penny Black, Brunswick",2024-12-31,20:00,The Penny Black,"420 Sydney Road Brunswick, VIC 3056",https://www.eventbrite.com.au/e/nye-2025-the-penny-black-brunswick-tickets-1017200372697?aff=ebdssbdestsearch,-37.768078,144.962174
The Lowie’s Tartan Hillbilly Hogmanay  at The Lomond Hotel,2024-12-31,21:00,The Lomond Hotel,"225 Nicholson Street Brunswick East, VIC 3057",https://www.eventbrite.com.au/e/the-lowies-tartan-hillbilly-hogmanay-at-the-lomond-hotel-tickets-1096905095669?aff=ebdssbdestsearch,-37.7670861,144.9800057
Bollywood NYE MADNESS at Pandora Nightclub,2024-12-31,22:00,Club Pandora,"127 Dorcas Street South Melbourne, VIC 3205",https://www.eventbrite.com.au/e/bollywood-nye-madness-at-pandora-nightclub-tickets-981108330427?aff=ebdssbdestsearch,-37.831769,144.96557
"NYE 2024 Italian Dinner Dance -  Live Music, Food & Dancing!",2024-12-31,19:00,Ferraro Reception & Function Centre,"14 Onslow Avenue Campbellfield, VIC 3061",https://www.eventbrite.com.au/e/nye-2024-italian-dinner-dance-live-music-food-dancing-tickets-1112224406139?aff=ebdssbdestsearch,-37.6892058,144.9650058
NYE at AFLOAT 2024/25 - VIP (Upper Deck and Beach Club Packages),2024-12-31,18:00,Afloat,"2 Flinders Walk Melbourne, VIC 3000",https://www.eventbrite.com.au/e/nye-at-afloat-202425-vip-upper-deck-and-beach-club-packages-tickets-982916488677?aff=ebdssbdestsearch,-37.8187977,144.9669369
Riverland Bar New Year's Eve Party,2024-12-31,18:00,Riverland Bar,"Federation Wharf 1-9 Melbourne, VIC 3000",https://www.eventbrite.com.au/e/riverland-bar-new-years-eve-party-tickets-1006472043977?aff=ebdssbdestsearch,-37.8188033,144.969634
New Year's Eve Dinner : A Culinary Countdown,2024-12-31,18:00,Stamford Plaza Melbourne,"111 Little Collins Street Melbourne, VIC 3000",https://www.eventbrite.com.au/e/new-years-eve-dinner-a-culinary-countdown-tickets-1066170086429?aff=ebdssbdestsearch,-37.8135512,144.9699174
NYE at Good Heavens Rooftop 2024/25,2024-12-31,20:00,Good Heavens Rooftop Bar,"79 Bourke Street #level 2 Melbourne, VIC 3000",https://www.eventbrite.com.au/e/nye-at-good-heavens-rooftop-202425-tickets-1047303271277?aff=ebdssbdestsearch,-37.8120759,144.9711426
"NYE Masquerade Singles Party at Matthew Flinders Hotel, Chadstone!",2024-12-31,20:00,Matthew Flinders Hotel,"679 Warrigal Road Chadstone, VIC 3148",https://www.eventbrite.com.au/e/nye-masquerade-singles-party-at-matthew-flinders-hotel-chadstone-tickets-1075326443339?aff=ebdssbdestsearch,-37.8774666,145.0925166
DESCEND: Yūgen NYE '24,2024-12-31,22:30,Yugen Dining,"605 Chapel Street South Yarra, VIC 3141",https://www.eventbrite.com.au/e/descend-yugen-nye-24-tickets-1078939329579?aff=ebdssbdestsearch,-37.8392457,144.9952182
"The Smokes (Strokes Tribute) Live At Cherry Bar, NYE DEC 31st",2024-12-31,21:00,"Cherry Bar, Little Collins Street, Melbourne VIC, Australia","68 Little Collins Street Melbourne, VIC 3000",https://www.eventbrite.com.au/e/the-smokes-strokes-tribute-live-at-cherry-bar-nye-dec-31st-tickets-1105129123959?aff=ebdssbdestsearch,-37.8129293,144.9714986
NYE Dolce Rosso Set Menu Campari x Mr Tompkins,2024-12-31,07:45,Mr Tompkins,"328 Flinders Street Melbourne, VIC 3000",https://www.eventbrite.com.au/e/nye-dolce-rosso-set-menu-campari-x-mr-tompkins-tickets-1094771644459?aff=ebdssbdestsearch,-37.81831330000001,144.9636251
Taxi Kitchen New Years Eve 2024/25 - 5 Courses & Free-Flowing Drinks,2024-12-31,19:30,Taxi Kitchen,"Level 1, Transport Hotel, Federation Square Melbourne, VIC 3000",https://www.eventbrite.com.au/e/taxi-kitchen-new-years-eve-202425-5-courses-free-flowing-drinks-tickets-1033240800047?aff=ebdssbdestsearch,-37.8183938,144.9684217
New Year’s Eve Rooftop Party at Le Méridien Melbourne,2024-12-31,20:30,Le Méridien Melbourne,"20 Bourke St Melbourne, VIC 3000",https://www.eventbrite.com.au/e/new-years-eve-rooftop-party-at-le-meridien-melbourne-tickets-1095726881599?aff=ebdssbdestsearch,-37.8113901,144.9722393
New Years Eve Party at The Saba Rooftop,2024-12-31,20:00,The Saba Rooftop,"300 Plummer Street #Rooftop Port Melbourne, VIC 3207",https://www.eventbrite.com/e/new-years-eve-party-at-the-saba-rooftop-tickets-1097773162079?aff=ebdssbdestsearch,-37.833951,144.919565
Resolution NYE 2024 feat. James Zabiela (IUK) + Much More !!!,2024-12-31,17:00,Howler,"7-11 Dawson Street Brunswick, VIC 3056",https://www.eventbrite.com/e/resolution-nye-2024-feat-james-zabiela-iuk-much-more-tickets-1048569197697?aff=ebdssbdestsearch,-37.771511,144.959539
Futuristic New Year’s Eve with Fireworks view,2024-12-31,21:00,Melbourne Public,"11 Dukes Walk South Wharf, VIC 3006",https://www.eventbrite.com.au/e/futuristic-new-years-eve-with-fireworks-view-tickets-1111244866309?aff=ebdssbdestsearch,-37.8250262,144.9510532
2024 NEW YEARS EVE all-inclusive fireworks boat cruise,2024-12-31,20:00,Ferry terminal (cow in a tree sculpture),"131-141 Harbour Esplanade Docklands, VIC 3008",https://www.eventbrite.com.au/e/2024-new-years-eve-all-inclusive-fireworks-boat-cruise-tickets-1056368459499?aff=ebdssbdestsearch,-37.8170661,144.945367
NYE at Temperance Hotel!,2024-12-31,12:00,Temperance Hotel,"426 Chapel St, South Yarra VIC 3141, Australia",https://www.facebook.com/events/652534737381498/,-37.84306185,144.99489592695178
NYE 2024/25,2024-12-31,12:00,Lona St Kilda,"Unit 64/66 Acland St, St Kilda VIC 3182, Australia",https://www.facebook.com/events/1957134628124846/,-37.86668052,144.978209
FRENZEE - NYE ALBUM LAUNCH at The Old Bar,2024-12-31,19:00,The Old Bar,"74-76 Johnston St, Fitzroy VIC 3065, Australia",https://www.facebook.com/events/1011124097454591/,-37.79833,144.97711
BREW YEAR'S EVE,2024-12-31,00:00,Bad Decisions Bar,"46 Johnston St, Fitzroy VIC 3065, Australia",https://www.facebook.com/events/1366876640948077/,-37.798246,144.9762881
Y2K New Years Eve @ Club Retro,2024-12-31,0:00,Club Retro,"383 Lonsdale St, Melbourne VIC 3000, Australia",https://www.facebook.com/events/1305342990634690/,-37.81183528,144.9635791947368
WHITE NIGHT “POPS” Dutch Club Carnegie N.Y.E -Party,2024-12-31,0:00,Carnegie Hall,"60 Rosstown Rd, Carnegie VIC 3163, Australia",https://www.facebook.com/events/1047481486819074/,-37.8864262,145.05686284914034
Bob Log III - NYE SPECIAL,2024-12-31,19:30,Retreat Hotel,"Level 1/280 Sydney Rd, Brunswick VIC 3056, Australia",https://www.facebook.com/events/2477602602586521/,-37.7711487,144.9615949
NYE Brat Party - Melbourne ,2024-12-31,20:00,Stay Gold,"133 Sydney Rd, Brunswick VIC 3056, Australia",https://www.facebook.com/events/428580783619832/,-37.7743469,144.9607404
NYE Party 2024 | Midnight Masquerade,2024-12-31,19:00,Fortress Melbourne,"Shop 25/23 Caledonian Ln, Melbourne VIC 3000, Australia",https://www.facebook.com/events/512933761553975/,-37.8120357,144.9642299
"(Tue, Dec 31) NYE at George Lane w/ EUGENE HAMILTON & THE MONEY",2024-12-31,00:00,George Lane St Kilda,"1 George Ln, St Kilda VIC 3182, Australia",https://www.facebook.com/events/1201591024265740/,-37.85997305,144.9780306
 FREE AFTERNOON EVENT | Jeff Pattison Acoustic | From 1pm,2024-12-31,00:00,arcobar heatherton,"8 Arco Ln, Heatherton VIC 3202, Australia",https://www.facebook.com/events/495649142945626/,-37.94673685,145.07837928457485
NYE 2025 - ALL WHITE PARTY,2024-12-31,00:00,Laundry Bar,"50 Johnston St, Fitzroy VIC 3065, Australia",https://www.facebook.com/events/546166901722500/,-37.7983139,144.9764962
We Live in Time: NYE Screening,2024-12-31,18:30,Cinema Nova,"380 Lygon St, Carlton VIC 3053, Australia",https://www.facebook.com/events/1640343460238436/,-37.7978092,144.9680124
Elysium Goth Night New Years' Eve 2024,2024-12-31,0:00,24 Moons,"2 Arthurton Rd, Northcote VIC 3070, Australia",https://www.facebook.com/events/411903715202020/,-37.7691418,144.9982614
"Resolution NYE 2024 Feat. James Zabiela (UK), Anthony Pappa, Mike Steva + more. !!!",2024-12-31,00:00,Howler,"7-11 Dawson St, Brunswick VIC 3056, Australia",https://www.facebook.com/events/1284939176199937/,-37.7720304,144.9596527
Let's Hit the Right Note this NYE at Customs House Hotel!,2024-12-31,21:00,Customs House Hotel Williamstown,"161 Nelson Pl, Williamstown VIC 3016, Australia",https://www.facebook.com/events/1221396672762966/,-37.8630972,144.904029
QUESTLOVE (Exclusive DJ Set) | NYE at The Night Cat,2024-12-31,21:00,The Night Cat,"137-141 Johnston St, Fitzroy VIC 3065, Australia",https://www.facebook.com/events/1259614315278674/,-37.7982971,144.978128
NYE at Transport Public Bar: Studio 54 Theme ,2024-12-31,12:00,Transport Hotel,"Transport Hotel, Ground Level Federation Square, Melbourne VIC 3000, Australia",https://www.facebook.com/events/385011001048047/,-37.81835059,144.9683925
New Year's Eve - Whole Lotta Rosie | FREQUENCY | Brown Sugar,2024-12-31,00:00,Musicland Melbourne,"1359 Sydney Rd, Fawkner VIC 3060, Australia",https://www.facebook.com/events/1029646242499367/,-37.6916774,144.9585701581541
Ben Hur: Movie Epic,2024-12-31,19:00,Cinema Nova,"380 Lygon St, Carlton VIC 3053, Australia",https://www.facebook.com/events/1241215330434704/,-37.7978092,144.9680124
We Live In Time | NYE Preview,2024-12-31,18:00,Palace Cinemas,"1 Champ St, Coburg VIC 3058, Australia",https://www.facebook.com/events/477398238250471/,-37.736826,144.968318
DEATH T0 2024 | NYE PARTY,2024-12-31,00:00,Heartbreaker,"234A Russell St, Melbourne VIC 3000, Australia",https://www.facebook.com/events/1795722554519242/,-37.8109325,144.9674866
New Years Eve Party,2024-12-31,20:00,Altona Sports Club,"11 Altona Rd, Altona VIC 3018, Australia",https://www.facebook.com/events/907130754392552/,-37.85754867,144.85121805353086
NYE — Carbon x Revolver Upstairs,2024-12-31,00:00,Revolver Upstairs,"Level 2/229 Chapel St, Prahran VIC 3181, Australia",https://www.facebook.com/events/1875362443281216/,-37.8505902,144.9933469
The Boom Babies NYE @ Oakleigh Music Hall,2024-12-31,20:00,Oakleigh Carnegie RSL,"95/97 Drummond St, Oakleigh VIC 3166, Australia",https://www.facebook.com/events/527182883021573/,-37.8968576,145.08963741959553
Cash Prize POOL COMP,2024-12-31,00:00,Inkerman Hotel,"375 Inkerman St, St Kilda East VIC 3183, Australia",https://www.facebook.com/events/1056315672649917/,-37.866444,144.99799715146656
New Year’s Eve,2024-12-31,16:00,Studley Park Boathouse,"1 Boathouse Rd, Kew VIC 3101, Australia",https://www.facebook.com/events/622425546847517/,-37.801382,145.0077832
SOLD OUT - New Year's Eve 2024 Colour Carnival Party ,2024-12-31,19:00,Melrose Events,"2 Carrick Dr, Tullamarine VIC 3043, Australia",https://www.facebook.com/events/1089946612117986/,-37.70264118,144.8829547289411
Rock Dog or Club Rat? NYE at The Curtin,2024-12-31,18:00,THE CURTIN (John Curtin hotel),"29 Lygon St, Carlton VIC 3053, Australia",https://www.facebook.com/events/9331443830222793/,-37.8061581,144.9657057
THE FINAL EVENT - THANKYOU FOR THE MUSIC - NYE DISCO PARTY! with Tania Bosak DJ789 ,2024-12-31,00:00,Open Studio,"204 High St, Northcote VIC 3070, Australia",https://www.facebook.com/events/564293422874887/,-37.7742382,144.9981587
Melbourne Bar Crawl | NYE (Tickets -> Book Now & Save!),2024-12-31,00:00,On The Rocks Bar Crawl Melbourne,"The Joint, 35 Elizabeth St, Melbourne VIC 3000, Australia",https://www.facebook.com/events/2338417593190044/,-37.8172989,144.9643996
Hundreds of Beavers: Encore Screening NYE!,2024-12-31,20:50,Cinema Nova,"380 Lygon St, Carlton VIC 3053, Australia",https://www.facebook.com/events/1123142192939293/,-37.7978092,144.9680124
 A Country Club New Year’s  ,2024-12-31,18:00,Lulie Tavern,"225 Johnston St, Abbotsford VIC 3067, Australia",https://www.facebook.com/events/3920465611519992/,-37.8000264,144.9936498
NYE Pre's at Punters,2024-12-31,11:00,Punters Club,"376 Brunswick St, Fitzroy VIC 3065, Australia",https://www.facebook.com/events/1786949428511321/,-37.7960561,144.9790327
New Year's Eve,2024-12-31,19:00,Fed Square,"Swanston St &, Flinders St, Melbourne VIC 3000, Australia",https://www.facebook.com/events/9584769301551765/,-37.81767355,144.9667825800355
Weekly MTG Commander at The Gaming Arena,2024-12-31,00:00,The Gaming Arena,"123 Bakers Rd, Coburg North VIC 3058, Australia",https://www.facebook.com/events/1541838383370198/,-37.72715826,144.96115535488718
"New Years Eve 2024/25 - Harbour Kitchen, Docklands Waterfront",2024-12-31,00:00,Harbour Kitchen,"Shop1/800 Bourke St, Docklands VIC 3008, Australia",https://www.facebook.com/events/880477334054142/,-37.8187162,144.9452672
New Years Eve 2024 ,2024-12-31,00:00,Secret Garden Bar,"7/60 Fitzroy St, St Kilda VIC 3182, Australia",https://www.facebook.com/events/586539977638087/,-37.85747233,144.98140261298386
Tix at 12,2024-12-31,00:00,Arts Centre Melbourne,"100 St Kilda Rd, Southbank VIC 3004, Australia",https://www.facebook.com/events/473885795706627/,-37.8216405,144.9683143
New Year's DJ Bash At Stamford Plaza Melbourne,2024-12-31,21:30,Stamford Plaza Melbourne,"111 Little Collins St, Melbourne VIC 3000, Australia",https://www.facebook.com/events/1055170402816968/,-37.81359225,144.9700614178762
NEW YEARS EMO: 2024,2024-12-31,20:00,EMO NEVER SLEEPS,"629 Bourke St, Melbourne VIC 3004, Australia",https://www.facebook.com/events/1892210754579999/,-37.8167994,144.9552063
"Bjorn Again - BRUNSWICK, VIC 2024 - New Years Eve Party",2024-12-31,18:00,Brunswick Ballroom,"314 Sydney Rd, Brunswick VIC 3056, Australia",https://www.facebook.com/events/1270709107442386/,-37.7704205,144.9617083
New Year's Eve at Transit Rooftop Bar!,2024-12-31,00:00,Transport Hotel,"Transport Hotel, Ground Level Federation Square, Melbourne VIC 3000, Australia",https://www.facebook.com/events/1966041560515299/,-37.81835059,144.9683925
NEW YEARS EVE AT NORTHCOTE SOCIAL CLUB,2024-12-31,12:00,Northcote Social Club,"301 High St, Northcote VIC 3070, Australia",https://www.facebook.com/events/572385449067449/,-37.771471,144.998414
DNB NYE ft Mrs Magoo (UK),2024-12-31,21:00,Rubix Warehouse,"36 Phoenix St, Brunswick VIC 3056, Australia",https://www.facebook.com/events/1130925592033049/,-37.7698629,144.95727340490248
Kusama: Infinity: Encore Screenings,2024-12-31,00:00,Cinema Nova,"380 Lygon St, Carlton VIC 3053, Australia",https://www.facebook.com/events/1254945015812890/,-37.7978092,144.9680124
70's - NYE PARTY @ The INK,2024-12-31,18:00,Inkerman Hotel,"375 Inkerman St, St Kilda East VIC 3183, Australia",https://www.facebook.com/events/1275599080231499/,-37.866444,144.99799715146656
Condensed Milk Tuesdays,2024-12-31,00:00,Section 8,"27-29 Tattersalls Ln, Melbourne VIC 3000, Australia",https://www.facebook.com/events/3806429379629971/,-37.8117457,144.965405
New Year's Eve Dinner: A Culinary Countdown,2024-12-31,18:00,Stamford Plaza Melbourne,"111 Little Collins St, Melbourne VIC 3000, Australia",https://www.facebook.com/events/460401196531971/,-37.81359225,144.9700614178762
StoryVille | A Fairytale NYE 2024 ,2024-12-31,00:00,StoryVille,"185 Lonsdale St, Melbourne VIC 3000, Australia",https://www.facebook.com/events/932263158373216/,-37.81117675,144.9668442406415
New Year's Eve at Taxi Kitchen!,2024-12-31,00:00,Taxi Kitchen,"Taxi Kitchen, Transport Hotel, Level 1 Federation Square, Melbourne VIC 3000, Australia",https://www.facebook.com/events/1955292528268444/,-37.81820779,144.9683928
New Year's Eve @ Secret Garden Bar 2024,2024-12-31,17:30,Secret Garden Bar,"60 Fitzroy Street #7 St Kilda, VIC 3182",https://www.eventbrite.com.au/e/new-years-eve-secret-garden-bar-2024-tickets-1091811630979?aff=ebdssbdestsearch,-37.8592634,144.9773182
Bollywood Party New Year’s Eve with Fireworks view,2024-12-31,21:00,Melbourne Public,"11 Dukes Walk South Wharf, VIC 3006",https://www.eventbrite.com.au/e/bollywood-party-new-years-eve-with-fireworks-view-tickets-1108376747689?aff=ebdssbdestsearch,-37.8250262,144.9510532
NYE at Life's Too Short Bar - LATE SITTINGS,2024-12-31,20:30,"Life's Too Short Bar, Tribeca Arcade, Victoria Parade, East Melbourne VIC, Australia","412 Victoria Parade #Shop 2 East Melbourne, VIC 3002",https://www.eventbrite.com.au/e/nye-at-lifes-too-short-bar-late-sittings-tickets-1100743205559?aff=ebdssbdestsearch,-37.8096207,144.985273
Golden Countdown - Nye Fireworks Cruise,2024-12-31,19:30,131 Harbour Esplanade,"131 Harbour Esplanade Docklands, VIC 3008",https://www.eventbrite.com.au/e/golden-countdown-nye-fireworks-cruise-tickets-1097935146579?aff=ebdssbdestsearch,-37.81707129999999,144.9453813
Bollywood NYE MADNESS at Pandora Nightclub(till 5AM),2024-12-31,22:00,Club Pandora,"127 Dorcas Street South Melbourne, VIC 3205",https://www.eventbrite.com.au/e/bollywood-nye-madness-at-pandora-nightclubtill-5am-tickets-981108330427?aff=ebdssbdestsearch,-37.831769,144.96557
Billboard NYE | Discounted Entry,2024-12-31,21:00,170 Russell St,"170 Russell Street Melbourne, VIC 3000",https://www.eventbrite.com.au/e/billboard-nye-discounted-entry-tickets-1116159225289?aff=ebdssbdestsearch,-37.8119107,144.9680341
NYE House Party - Stomping Ground Collingwood,2024-12-31,18:00,Stomping Ground Brewery & Beer Hall -Collingwood,"100 Gipps St COLLINGWOOD, VIC 3066",https://www.eventbrite.com.au/e/nye-house-party-stomping-ground-collingwood-tickets-1095724283829?aff=ebdssbdestsearch,-37.8046086,144.9910245
NEW YEAR'S EVE at GRAZELAND MELBOURNE,2024-12-31,18:00,"Grazeland, Booker Street, Spotswood VIC, Australia","20 Booker Street Spotswood, VIC 3015",https://www.eventbrite.com.au/e/new-years-eve-at-grazeland-melbourne-tickets-1068437327809?aff=ebdssbdestsearch,-37.8298681,144.8925924
'Beers & Beyond' New Year's Eve Party,2024-12-31,14:00,Tallboy and Moose,"270 Raglan Street Preston, VIC 3072",https://www.eventbrite.com/e/beers-beyond-new-years-eve-party-tickets-1115138642699?aff=ebdssbdestsearch,-37.7485758,145.0028984
BREW YEAR'S EVE,2024-12-31,20:00,Bad Decisions Bar,"46 Johnston Street Fitzroy, VIC 3065",https://www.eventbrite.com.au/e/brew-years-eve-tickets-1098425493219?aff=ebdssbdestsearch,-37.7982682,144.9762913
New Years Eve at Theory Bar,2024-12-31,19:00,Theory Bar,"19-23 Meyers Place #Ground Floor Melbourne, VIC 3000",https://www.eventbrite.com.au/e/new-years-eve-at-theory-bar-tickets-1085755767729?aff=ebdssbdestsearch,-37.812138,144.972113
"New Year's Eve at Amora, Richmond",2024-12-31,19:00,Amora Hotel Riverwalk Melbourne,"649 Bridge Road enter car park via River St Richmond, VIC 3121",https://www.eventbrite.com.au/e/new-years-eve-at-amora-richmond-tickets-1115251781099?aff=ebdssbdestsearch,-37.8197495,145.0132556
New Year’s Day,2025-01-01,12:00,Studley Park Boathouse,"1 Boathouse Rd, Kew VIC 3101, Australia",https://www.facebook.com/events/3888523484752935/,-37.801382,145.0077832
"Make Epic Tacos, Ceviche and Mole - Cooking Class by Cozymeal™",2025-01-01,11:00,Location provided after booking,"Carlton, VIC 3053",https://www.eventbrite.com/e/make-epic-tacos-ceviche-and-mole-cooking-class-by-cozymealtm-tickets-1101830728369?aff=ebdssbdestsearch,-37.798389,144.9694441
VOYAGE NYD 2025,2025-01-01,15:00,Victoria Star Cruises,"- - Docklands, VIC 3008",https://www.eventbrite.com/e/voyage-nyd-2025-tickets-1015839020857?aff=ebdssbdestsearch,-37.8170652,144.9419122
NYD Beach Party - Puesta de Sol,2025-01-01,17:00,West Beach Pavilion,"330A Beaconsfield Parade Saint Kilda West, VIC 3182",https://www.eventbrite.com.au/e/nyd-beach-party-puesta-de-sol-tickets-1116289805859?aff=ebdssbdestsearch,-37.8582372,144.9682824
"New Year's Day Manifestation Workshop - Cacao, Vision Board, Dreaming BIG.",2025-01-01,14:00,Centre of You,"Upstairs, 217 Chapel St Prahran Melbourne, VIC 3181",https://www.eventbrite.com.au/e/new-years-day-manifestation-workshop-cacao-vision-board-dreaming-big-tickets-1055912094499?aff=ebdssbdestsearch,-37.8509316,144.9933031
Trivia Night,2025-01-01,00:00,Inkerman Hotel,"375 Inkerman St, St Kilda East VIC 3183, Australia",https://www.facebook.com/events/2779506008881959/,-37.866444,144.99799715146656
NYDN — Club Well x Revolver ,2025-01-01,00:00,Revolver Upstairs,"Level 2/229 Chapel St, Prahran VIC 3181, Australia",https://www.facebook.com/events/1761088528064455/,-37.8505902,144.9933469
Warhammer: The Horus Heresy league night,2025-01-01,00:00,The Gaming Arena,"123 Bakers Rd, Coburg North VIC 3058, Australia",https://www.facebook.com/events/912618530441913/,-37.72715826,144.96115535488718
Nosferatu: Opening Day Screening (Jan 1),2025-01-01,18:50,Cinema Nova,"380 Lygon St, Carlton VIC 3053, Australia",https://www.facebook.com/events/563647026595370/,-37.7978092,144.9680124
NYD RECOVERY FEST,2025-01-01,00:00,Stay Gold,"133 Sydney Rd, Brunswick VIC 3056, Australia",https://www.facebook.com/events/1597813480825208/,-37.7743469,144.9607404
Rise Up with Radiance - NYD,2025-01-01,09:30,Radiant Sol Yoga,"Rear 144 Thistlethwaite Street Access via Argyle Pl South Melbourne, VIC 3205",https://www.eventbrite.com.au/e/rise-up-with-radiance-nyd-tickets-1052017160647?aff=ebdssbdestsearch,-37.8326845,144.9493991
Star Wars Unlimited: Weekly Play - Constructed ,2025-01-01,00:00,The Gaming Arena,"123 Bakers Rd, Coburg North VIC 3058, Australia",https://www.facebook.com/events/924943862822746/,-37.72715826,144.96115535488718
Cyber Security 2 Days Training in Melbourne,2025-01-01,09:00,For venue details reach us at info@mangates.com,"PH: + 61(0) 2 80155605 Melbourne, VIC 3000",https://www.eventbrite.com/e/cyber-security-2-days-training-in-melbourne-tickets-830137091387?aff=ebdssbdestsearch,-37.8152065,144.963937
New Years Day Bottomless Cocktails $69,2025-01-01,14:00,"Three Monkeys, 210 Chapel Street, Prahran VIC, Australia","210 Chapel Street Prahran, VIC 3181",https://www.eventbrite.com.au/e/new-years-day-bottomless-cocktails-69-tickets-1111054938229?aff=ebdssbdestsearch,-37.851041,144.993681
YACHT ROCK REVIVAL: 'Drunken Sailor' N.Y.D Party | Brunswick Ballroom,2025-01-01,14:00,Brunswick Ballroom,"314 Sydney Rd, Brunswick VIC 3056, Australia",https://www.facebook.com/events/903571888052421/,-37.7704205,144.9617083
New Years Day - Rise & Thrive - Feel Good Flows,2025-01-01,09:30,"South Beach Reserve, next to the St Kilda Sea Baths","26 Jacka Blvd St kilda St kilda, VIC 3182",https://www.eventbrite.com.au/e/new-years-day-rise-thrive-feel-good-flows-tickets-1109844547919?aff=ebdssbdestsearch,-37.866663,144.973989
Johnny's Green Room NYD,2025-01-01,14:00,Johnny’s Green Room,"293-297 Lygon Street #Level 2 Carlton, VIC 3053",https://www.eventbrite.com/e/johnnys-green-room-nyd-tickets-1089425634399?aff=ebdssbdestsearch,-37.7983805,144.9670625
ALI (IDN) | Live at Punters Club,2025-01-02,21:30,Punters Club,"376 Brunswick St, Fitzroy VIC 3065, Australia",https://www.facebook.com/events/506562385774990/,-37.7960561,144.9790327
Social Street @ Bar Oussou!,2025-01-02,20:00,Bar Oussou,"653 Sydney Rd, Brunswick VIC 3056, Australia",https://www.facebook.com/events/583763791271255/,-37.7618155,144.9628753
Melbourne Renegades v Adelaide Strikers,2025-01-02,19:15,Marvel Stadium,"740 Bourke St, Docklands VIC 3008, Australia",https://www.facebook.com/events/806023411614924/,-37.816529,144.94751697668812
"Nathan Roche (FR) ""Australian Tour"" at the Merri Creek Tavern w/ Tam Vantage + The Sprouts",2025-01-02,20:00,The Merri Creek Tavern,"111 High St, Northcote VIC 3070, Australia",https://www.facebook.com/events/531352323232561/,-37.7794356,144.996838
Mixed Bag Naarm January,2025-01-02,18:00,"Beans Bar, Smith Street, Fitzroy VIC, Australia","325 Smith Street 325 Fitzroy, VIC 3065",https://www.eventbrite.com/e/mixed-bag-naarm-january-tickets-1116023699929?aff=ebdssbdestsearch,-37.8012248,144.9838892
Ben Frost / CORIN / Eartheater / Gabber Modus Operandi,2025-01-02,05:30,9 Nicholson St,"9 Nicholson Street Carlton, VIC 3053",https://www.eventbrite.com/e/ben-frost-corin-eartheater-gabber-modus-operandi-tickets-991168721327?aff=ebdssbdestsearch,-37.80468640000001,144.9716488
Baby Safe Program: Safe Sleeping Small Group Class 2025,2025-01-02,06:45,Prahran High School,"138 High Street Windsor, VIC 3181",https://www.eventbrite.com.au/e/baby-safe-program-safe-sleeping-small-group-class-2025-tickets-1095722799389?aff=ebdssbdestsearch,-37.8517906,144.991304
Sugababes,2025-01-03,0:00,Festival Hall,"300 Dudley St, West Melbourne VIC 3003, Australia",https://www.facebook.com/events/896820248708081/,-37.8098193,144.9508057
A Tribute to Hank Williams The Hillbilly Shakespeare ,2025-01-03,19:00,The Gem Bar and Dining,"289 Wellington St, Collingwood VIC 3066, Australia",https://www.facebook.com/events/1213361143068850/,-37.7963837,144.9875917
Solomon Sisay & Band,2025-01-03,20:00,Retreat Hotel,"Level 1/280 Sydney Rd, Brunswick VIC 3056, Australia",https://www.facebook.com/events/1304200314338325/,-37.7711487,144.9615949
The Gaming Arena - Star Wars Unlimited: Weekly play-Draft,2025-01-03,00:00,The Gaming Arena,"123 Bakers Rd, Coburg North VIC 3058, Australia",https://www.facebook.com/events/859039736399794/,-37.72715826,144.96115535488718
Blak Roots @ BAR OUSSOU! ,2025-01-03,22:00,Bar Oussou,"653 Sydney Rd, Brunswick VIC 3056, Australia",https://www.facebook.com/events/8246081448825400/,-37.7618155,144.9628753
Lazerlips @ THE BERGY BANDROOM w/ Low Moneroe + Filthy McNasty,2025-01-03,20:00,Bergy Bandroom,"64 Sydney Rd, Brunswick VIC 3056, Australia",https://www.facebook.com/events/551135524337837/,-37.776327,144.9607158
Big Breakfast BIG Debut Show! w/ In Transit & The Satts !,2025-01-03,20:00,The Workers Club,"51 Brunswick St, Fitzroy VIC 3065, Australia",https://www.facebook.com/events/560953366548802/,-37.8055776,144.9769450659087
Decide Today (USA) / Schkeuditzer Kreuz / Caustic Grip / Pathological Function,2025-01-03,19:30,The Last Chance,"238 Victoria St, Melbourne VIC 3000, Australia",https://www.facebook.com/events/1778582536290845/,-37.8059962,144.9585654
The Reasons Why - StayGold,2025-01-03,17:00,Stay Gold,"133 Sydney Rd, Brunswick VIC 3056, Australia",https://www.facebook.com/events/1283398456431713/,-37.7743469,144.9607404
2025!! Let’s make some noise!!,2025-01-03,21:15,Altona Sports Club,"11 Altona Rd, Altona VIC 3018, Australia",https://www.facebook.com/events/1515778299042396/,-37.85754867,144.85121805353086
Hot Chip (DJ Set - UK) — Revolver Fridays,2025-01-03,00:00,Revolver Upstairs,"Level 2/229 Chapel St, Prahran VIC 3181, Australia",https://www.facebook.com/events/437393452327240/,-37.8505902,144.9933469
Energetic Sound Healing & New Moon Clearing,2025-01-03,19:00,"Oracle of Crystals, 228 Glenferrie Road, Malvern VIC, Australia","228 Glenferrie Road Malvern, VIC 3144",https://www.eventbrite.com.au/e/energetic-sound-healing-new-moon-clearing-tickets-1105053467669?aff=ebdssbdestsearch,-37.8585334,145.0292064
Pentridge Prison - The Night Watch Tour | December 2024 - February 2025,2025-01-03,20:30,Pentridge Prison,"1 Champ Street Coburg, VIC 3058",https://www.eventbrite.com.au/e/pentridge-prison-the-night-watch-tour-december-2024-february-2025-tickets-1098498451439?aff=ebdssbdestsearch,-37.7370508,144.9677596
New to Melbourne Friendmaking Social | Melbourne Working Holiday Girls,2025-01-03,18:30,Bobbie Peels,"351 Queensberry Street North Melbourne, VIC 3051",https://www.eventbrite.com.au/e/new-to-melbourne-friendmaking-social-melbourne-working-holiday-girls-tickets-1117180640369?aff=ebdssbdestsearch,-37.8039726,144.9559411
Sound Healing - Vibro Acoustic Sound Bath with Romy,2025-01-03,19:00,Private Studio in St Kilda East (see email for address),"Alma Road St Kilda East, VIC 3183",https://www.eventbrite.com.au/e/sound-healing-vibro-acoustic-sound-bath-with-romy-tickets-1100669725779?aff=ebdssbdestsearch,-37.8626178,145.0005983
Speed Dating Melbourne | In-Person | Cityswoon | Ages 33-47,2025-01-03,19:00,"Wheat, Wine & Whisky","284 Smith Street Collingwood, VIC 3066",https://www.eventbrite.com.au/e/speed-dating-melbourne-in-person-cityswoon-ages-33-47-tickets-1104943468659?aff=ebdssbdestsearch,-37.8008428,144.9842391
The Reasons Why,2025-01-03,18:00,Stay Gold,"133 Sydney Rd Brunswick Melbourne, VIC 3056",https://www.eventbrite.com.au/e/the-reasons-why-tickets-1066282101469?aff=ebdssbdestsearch,-37.7743822,144.9606172
LK New Years Party,2025-01-03,01:00,231 Chapel St,"231 Chapel Street Prahran, VIC 3181",https://www.eventbrite.com/e/lk-new-years-party-tickets-928251514267?aff=ebdssbdestsearch,-37.8505625,144.9930859
Melbourne Magic Show - Impossible Occurrences,2025-01-03,21:30,Melbourne Marriott Hotel,"Cnr Lonsdale & Exhibition St Melbourne, VIC 3000",https://www.eventbrite.com.au/e/melbourne-magic-show-impossible-occurrences-tickets-947627648807?aff=ebdssbdestsearch,-37.8100597,144.9697004
SACRED TRANCEFUSION ft. Amber Savage,2025-01-03,21:00,my aeon,"791 Sydney Road Brunswick, VIC 3056",https://www.eventbrite.com.au/e/sacred-trancefusion-ft-amber-savage-tickets-1116076467759?aff=ebdssbdestsearch,-37.7581868,144.9633301
MAKEUP MASTERCLASS with LUCIA CARDAMONE,2025-01-03,14:00,39 Caravel Ln,"39 Caravel Lane Docklands, VIC 3008",https://www.eventbrite.com.au/e/makeup-masterclass-with-lucia-cardamone-tickets-1115155743849?aff=ebdssbdestsearch,-37.81473820000001,144.9408017
Paint  And Sip: Painting Partners | Melbourne Painting Class,2025-01-03,18:45,Paint for Fun,"252 Graham Street #Unit 1 Port Melbourne, VIC 3207",https://www.eventbrite.com.au/e/paint-and-sip-painting-partners-melbourne-painting-class-tickets-1038516570017?aff=ebdssbdestsearch,-37.8386895,144.9385483
HAZTET @ BAR OUSSOU!,2025-01-04,22:00,Bar Oussou,"653 Sydney Rd, Brunswick VIC 3056, Australia",https://www.facebook.com/events/8922095037836876/,-37.7618155,144.9628753
Bushido / Cicadastone / Verona Lights Live At The Bergy Band Room,2025-01-04,00:00,Bergy Bandroom,"64 Sydney Rd, Brunswick VIC 3056, Australia",https://www.facebook.com/events/1306683647167016/,-37.776327,144.9607158
S*WITCH - DRUM & BASS,2025-01-04,00:00,Laundry Bar,"50 Johnston St, Fitzroy VIC 3065, Australia",https://www.facebook.com/events/2599541070436385/,-37.7983139,144.9764962
Poké Ball 2025,2025-01-04,20:00,Inflation Entertainment Complex,"60 King Street Melbourne, VIC 3000",https://www.eventbrite.com.au/e/poke-ball-2025-tickets-1107407970049?aff=ebdssbdestsearch,-37.8188863,144.9571605
Burlesque Bingo,2025-01-04,16:00,Speakeasy Theatre,"522 Flinders Street Melbourne, VIC 3000",https://www.eventbrite.com.au/e/burlesque-bingo-tickets-1112184165779?aff=ebdssbdestsearch,-37.82029199999999,144.9569223
P1 SATURDAYS | 04.01.25 | ONE NIGHT ONLY,2025-01-04,21:30,Platform One,"8 Banana Alley Melbourne, VIC 3004",https://www.eventbrite.com.au/e/p1-saturdays-040125-one-night-only-tickets-1111241285599?aff=ebdssbdestsearch,-37.8189105,144.9634397
Nocturnal Presents HYPOGEO (Berlin) Zenon Records,2025-01-04,21:00,my aeon,"791 Sydney Road Brunswick, VIC 3056",https://www.eventbrite.com/e/nocturnal-presents-hypogeo-berlin-zenon-records-tickets-1064087336869?aff=ebdssbdestsearch,-37.7581868,144.9633301
"Yoga, Sound Bath, Vision Board Workshop",2025-01-04,16:00,Melbourne Myotherapy & Remedial Massage,"216 York Street #1 South Melbourne, VIC 3205",https://www.eventbrite.com/e/yoga-sound-bath-vision-board-workshop-tickets-1100225296479?aff=ebdssbdestsearch,-37.8322093,144.9538918
Cabaret Ridiculous,2025-01-04,17:00,Speakeasy Theatre,"522 Flinders Street Melbourne, VIC 3000",https://www.eventbrite.com.au/e/cabaret-ridiculous-tickets-1114249944579?aff=ebdssbdestsearch,-37.82029199999999,144.9569223
The New Kids 3,2025-01-04,21:00,Laundry Bar,"50 Johnston Street Fitzroy, VIC 3065",https://www.eventbrite.com.au/e/the-new-kids-3-tickets-1115058864079?aff=ebdssbdestsearch,-37.79831,144.976368
OUTCAST BOOKINGS PRESENTS: OUTCAST FESTIVAL 2,2025-01-04,00:00,Stay Gold,"133 Sydney Rd, Brunswick VIC 3056, Australia",https://www.facebook.com/events/1131513298331086/,-37.7743469,144.9607404
That's All Folks,2025-01-04,16:00,Mamma Chen's,"42A Albert St, Footscray VIC 3011, Australia",https://www.facebook.com/events/950047163694063/,-37.8047552,144.89727240000002
First SHOW for 2025!  Alfi Rocker BAND,2025-01-04,00:00,Altona Sports Club,"11 Altona Rd, Altona VIC 3018, Australia",https://www.facebook.com/events/1788821575197271/,-37.85754867,144.85121805353086
FITZROY CONNECT 19,2025-01-04,20:00,Bad Decisions Bar,"46 Johnston St, Fitzroy VIC 3065, Australia",https://www.facebook.com/events/449317044687548/,-37.798246,144.9762881
"Peak Performance for Performing Artists ""Melbourne""",2025-01-04,10:00,Novotel Melbourne Central,"399 Little Lonsdale Street Melbourne, VIC 3000",https://www.eventbrite.com/e/peak-performance-for-performing-artists-melbourne-tickets-1006609575337?aff=ebdssbdestsearch,-37.8120449,144.960108
Art Summer School 2025,2025-01-04,09:30,Reynard Street Neighbourhood House,"104A Reynard Street Coburg, VIC 3058",https://www.eventbrite.com.au/e/art-summer-school-2025-tickets-1061838861619?aff=ebdssbdestsearch,-37.7478432,144.9592451
Oliné at The Retreat Hotel Brunswick w/Ethan Conway + Lostii (solo),2025-01-04,19:30,280 Sydney Rd,"280 Sydney Road Brunswick, VIC 3056",https://www.eventbrite.com.au/e/oline-at-the-retreat-hotel-brunswick-wethan-conway-lostii-solo-tickets-1109740727389?aff=ebdssbdestsearch,-37.7711488,144.9616353
"Monsters Of The Dirty South live at Cherry Bar, Saturday Jan 4",2025-01-04,20:00,"Cherry Bar, Little Collins Street, Melbourne VIC, Australia","68 Little Collins Street Melbourne, VIC 3000",https://www.eventbrite.com.au/e/monsters-of-the-dirty-south-live-at-cherry-bar-saturday-jan-4-tickets-1108912319599?aff=ebdssbdestsearch,-37.8129293,144.9714986
MTG - New Year 2025 Store Championship - Gameology CLAYTON SOUTH 04/01/25,2025-01-04,11:30,Gameology,"12 Eileen Road Clayton South, VIC 3169",https://www.eventbrite.com.au/e/mtg-new-year-2025-store-championship-gameology-clayton-south-040125-tickets-1109745902869?aff=ebdssbdestsearch,-37.9512104,145.1347381
The D.O.T 2025,2025-01-04,13:00,Melbourne Pavilion,"135-157 Racecourse Road Kensington, VIC 3031",https://www.eventbrite.com.au/e/the-dot-2025-tickets-1046642585147?aff=ebdssbdestsearch,-37.7889557,144.9363556
TATTOOROSE LIVE @ MR BOOGIE MAN BAR,2025-01-04,19:00,Mr Boogie Man Bar,"160 Hoddle St, Abbotsford VIC 3067, Australia",https://www.facebook.com/events/1090112302585736/,-37.80245,144.99295304614787
"RICKY SIX SINGLE LAUNCH @Old Bar w/ Low Monroe & the Fugitives, Milksick & Projectile Dysfunction",2025-01-04,20:00,The Old Bar,"74-76 Johnston St, Fitzroy VIC 3065, Australia",https://www.facebook.com/events/2055894828187198/,-37.79833,144.97711
Eat The Beat : 2025 Opening Party,2025-01-04,00:00,New Guernica,"64 Smith St, Collingwood VIC 3066, Australia",https://www.facebook.com/events/9133971716623763/,-37.80624775,144.98331211946754
The New Kids 3,2025-01-04,00:00,Laundry Bar,"50 Johnston St, Fitzroy VIC 3065, Australia",https://www.facebook.com/events/491779920022551/,-37.7983139,144.9764962
HOT TUBS TIME MACHINE + DJ MIKEY YOUNG ,2025-01-04,21:00,The Merri Creek Tavern,"111 High St, Northcote VIC 3070, Australia",https://www.facebook.com/events/2083037588818921/,-37.7794356,144.996838
Burlyrock 2025 @ Shotkickers,2025-01-04,20:00,Shotkickers,"744 High St, Thornbury VIC 3071, Australia",https://www.facebook.com/events/629571379419136/,-37.75592655,145.0013923
FITZROY CONNECT 19,2025-01-04,20:00,Bad Decisions Bar,"46 Johnston Street Fitzroy, VIC 3065",https://www.eventbrite.com.au/e/fitzroy-connect-19-tickets-1116139165289?aff=ebdssbdestsearch,-37.7982682,144.9762913
Breakaways Live! in the Arvo - featuring Orphix & The Ivy Walkers,2025-01-04,15:00,The Last Chance,"238 Victoria St, Melbourne VIC 3000, Australia",https://www.facebook.com/events/614301264452488/,-37.8059962,144.9585654
"Detroit's Music Institute with Alton Miller, Chez Damier + Scott Grooves",2025-01-04,00:00,The Night Cat,"137-141 Johnston St, Fitzroy VIC 3065, Australia",https://www.facebook.com/events/2303128026691889/,-37.7982971,144.978128
Outcast Festival II,2025-01-04,14:00,Stay Gold,"133 Sydney Road Brunswick, VIC 3056",https://www.eventbrite.com.au/e/outcast-festival-ii-tickets-1109695351669?aff=ebdssbdestsearch,-37.7743822,144.9606172
High Cheese at Rippon Lea Estate  presented by Showtime Event Group.,2025-01-05,11:00,Rippon Lea Estate,"192 Hotham Street Elsternwick, VIC 3185",https://www.eventbrite.com.au/e/high-cheese-at-rippon-lea-estate-presented-by-showtime-event-group-tickets-1054614904569?aff=ebdssbdestsearch,-37.8786264,144.9978144
The Sinsemillian & Electric Funeral,2025-01-05,07:30,Bad Decisions Bar,"46 Johnston Street Fitzroy, VIC 3065",https://www.eventbrite.com.au/e/the-sinsemillian-electric-funeral-tickets-1115185753609?aff=ebdssbdestsearch,-37.7982682,144.9762913
Japanese Tofu-Making Workshop:  Make your own fresh Tofu from Soy Milk!,2025-01-05,14:00,Near Flagstaff Station,"536 Lonsdale St, Melbourne VIC 3000 Melbourne, VIC 3000",https://www.eventbrite.com.au/e/japanese-tofu-making-workshop-make-your-own-fresh-tofu-from-soy-milk-tickets-1105359382669?aff=ebdssbdestsearch,-37.813727,144.956403
"Yoga, Sound Bath, Vision Board Workshop",2025-01-05,11:00,Green Monday Studios,"73 Grattan Street Carlton, VIC 3053",https://www.eventbrite.com/e/yoga-sound-bath-vision-board-workshop-tickets-1110762954899?aff=ebdssbdestsearch,-37.8009585,144.9671545
Villa Alba Museum 5th January Open Day,2025-01-05,13:00,Villa Alba Museum,"44 Walmer Street Kew, VIC 3101",https://www.eventbrite.com.au/e/villa-alba-museum-5th-january-open-day-tickets-1089278393999?aff=ebdssbdestsearch,-37.8051441,145.0112191
Naarm Screening: The Things We Don't Say + Q&A,2025-01-05,17:00,The Wildflower Picture house & Bar,"318 Saint Georges Road Fitzroy North, VIC 3068",https://www.eventbrite.co.uk/e/naarm-screening-the-things-we-dont-say-qa-tickets-1116110800449?aff=ebdssbdestsearch,-37.7804231,144.9866238
High Tea at Overnewton Castle in Keilor,2025-01-05,12:00,Overnewton Castle,"51 Overnewton Road Keilor, VIC 3036",https://www.eventbrite.com.au/e/high-tea-at-overnewton-castle-in-keilor-tickets-1117088324249?aff=ebdssbdestsearch,-37.7048096,144.8209018
Polly Woodside Open Day 2024,2025-01-05,10:00,Polly Woodside,"21 South Wharf Promenade South Wharf, VIC 3006",https://www.eventbrite.com.au/e/polly-woodside-open-day-2024-tickets-917141052577?aff=ebdssbdestsearch,-37.8245217,144.9536592
MTG - New Year 2025 Store Championship - Gameology BRUNSWICK 05/01/25,2025-01-05,11:00,Gameology Brunswick,"36 Hope Street Brunswick, VIC 3056",https://www.eventbrite.com.au/e/mtg-new-year-2025-store-championship-gameology-brunswick-050125-tickets-1109716545059?aff=ebdssbdestsearch,-37.7636924,144.9595539
Friends On Purpose: Picnic Mixer,2025-01-05,11:00,Treasury Gardens,"2-18 Spring Street East Melbourne, VIC 3002",https://www.eventbrite.com.au/e/friends-on-purpose-picnic-mixer-tickets-1049320976287?aff=ebdssbdestsearch,-37.8151334,144.9760012
"Sunday School: Stupid Fuck - The Silly Clown, The Bin Stompers, Joscelyn Wynter",2025-01-05,16:00,Bergy Bandroom,"64 Sydney Rd, Brunswick VIC 3056, Australia",https://www.facebook.com/events/1315627842800510/,-37.776327,144.9607158
Domingo Latino - La 45,2025-01-05,18:45,The Night Cat,"137-141 Johnston St, Fitzroy VIC 3065, Australia",https://www.facebook.com/events/1086448869456712/,-37.7982971,144.978128
Echoes of Free~Dom - Poetry Open Mic,2025-01-06,00:00,Retreat Hotel,"Level 1/280 Sydney Rd, Brunswick VIC 3056, Australia",https://www.facebook.com/events/592899073423068/,-37.7711487,144.9615949
MORBID MONDAYS AT OLD BAR - JAN 6TH - Decide Today (USA) / Schkeuditzer Kreuz / Elektronik Girl Epic,2025-01-06,20:00,The Old Bar,"74-76 Johnston St, Fitzroy VIC 3065, Australia",https://www.facebook.com/events/1552846062018569/,-37.79833,144.97711
"‘Social Sanctuary’ with Tia Gostelow, Mika James + Ellis King",2025-01-06,19:00,Northcote Social Club,"301 High St, Northcote VIC 3070, Australia",https://www.facebook.com/events/3899764313635184/,-37.771471,144.998414
Adult Beginner Commercial,2025-01-06,20:00,Dance Factory,"225 Swan Street Richmond, VIC 3121",https://www.eventbrite.com.au/e/adult-beginner-commercial-tickets-1118380198279?aff=ebdssbdestsearch,-37.8257354,144.9998261
Kostya Tszyu  LIVE at The Olympic Hotel Monday January 6!,2025-01-06,18:00,Olympic Hotel,"31 Albert Street Preston, VIC 3072",https://www.eventbrite.com.au/e/kostya-tszyu-live-at-the-olympic-hotel-monday-january-6-tickets-1105282231909?aff=ebdssbdestsearch,-37.7465792,145.021604
Find Your Spark,2025-01-06,09:30,Brighton Baths Health Club,"251 Esplanade Brighton, VIC 3186",https://www.eventbrite.com.au/e/find-your-spark-tickets-987485213857?aff=ebdssbdestsearch,-37.91017799999999,144.9854101
Adult Beginner Lyrical,2025-01-06,18:00,Dance Factory,"225 Swan Street Richmond, VIC 3121",https://www.eventbrite.com.au/e/adult-beginner-lyrical-tickets-1118367299699?aff=ebdssbdestsearch,-37.8257354,144.9998261
Yarra Banks Jam,2025-01-07,00:00,Bar 303,"303 High St, Northcote VIC 3070, Australia",https://www.facebook.com/events/571903339135418/?event_time_id=571903342468751,-37.7713296,144.99828116650363
Spoken Word @ Bar Oussou!,2025-01-07,00:00,Bar Oussou,"653 Sydney Rd, Brunswick VIC 3056, Australia",https://www.facebook.com/events/807715171482397/,-37.7618155,144.9628753
"Tinashe at The Forum, Melbourne (18+)",2025-01-07,19:00,Forum Melbourne,"154 Flinders St, Melbourne VIC 3000, Australia",https://www.facebook.com/events/1667241327172333/,-37.81644145,144.9693768124984
Gay-ming with Pride at The Gaming Arena!,2025-01-07,00:00,The Gaming Arena,"123 Bakers Rd, Coburg North VIC 3058, Australia",https://www.facebook.com/events/467533492828961/,-37.72715826,144.96115535488718
Adult & Teens 13 y.o and Over Summer School (2 Day Program),2025-01-07,10:30,Dance Factory,"Melbourne VIC, Australia 225 Swan St Richmond Melbourne, VIC",https://www.eventbrite.com.au/e/adult-teens-13-yo-and-over-summer-school-2-day-program-tickets-948742021927?aff=ebdssbdestsearch,-37.8257354,144.9998261
Summer Holiday Doughnut Decorating - Bulleen (VIC),2025-01-07,10:00,Krispy Kreme Bulleen,"105 Manningham Road Bulleen, VIC 3105",https://www.eventbrite.com.au/e/summer-holiday-doughnut-decorating-bulleen-vic-tickets-1108999941679?aff=ebdssbdestsearch,-37.7665666,145.0923959
Shake It Off - Your Weekly Dose of Physical & Emotional Fitness.,2025-01-07,18:30,Centre of You,"Upstairs, 217 Chapel St Prahran Melbourne, VIC 3181",https://www.eventbrite.com.au/e/shake-it-off-your-weekly-dose-of-physical-emotional-fitness-tickets-1117318422479?aff=ebdssbdestsearch,-37.8509316,144.9933031
Junior Summer School 2025 (3 Day Program),2025-01-07,10:30,Dance Factory,"Melbourne VIC, Australia 225 Swan St Richmond Melbourne, VIC",https://www.eventbrite.com.au/e/junior-summer-school-2025-3-day-program-tickets-947633787167?aff=ebdssbdestsearch,-37.8257354,144.9998261
Junior Summer School (2 Days Program),2025-01-07,10:30,Dance Factory,"Melbourne VIC, Australia 225 Swan St Richmond Melbourne, VIC",https://www.eventbrite.com.au/e/junior-summer-school-2-days-program-tickets-948739213527?aff=ebdssbdestsearch,-37.8257354,144.9998261
Stone Lithography,2025-01-07,10:00,Australian Print Workshop,"210 Gertrude St Fitzroy, VIC 3065",https://www.eventbrite.com.au/e/stone-lithography-tickets-1023021634247?aff=ebdssbdestsearch,-37.8064244,144.9815567
Meditation Evening Class January 2025 term,2025-01-07,20:00,Tranquil Yoga,"69 Moore Road Airport West, VIC 3042",https://www.eventbrite.com.au/e/meditation-evening-class-january-2025-term-tickets-1057786490869?aff=ebdssbdestsearch,-37.7166005,144.8859728
Adult and Teens Over 13y.o Summer School (3 Day Program),2025-01-07,10:30,Dance Factory,"Melbourne VIC, Australia 225 Swan St Richmond Melbourne, VIC",https://www.eventbrite.com.au/e/adult-and-teens-over-13yo-summer-school-3-day-program-tickets-948734710057?aff=ebdssbdestsearch,-37.8257354,144.9998261
RIEDEL Wine Glass Experience in Melbourne hosted by Maximilian Riedel,2025-01-07,18:30,RACV City Club,"501 Bourke Street Melbourne, VIC 3000",https://www.eventbrite.com.au/e/riedel-wine-glass-experience-in-melbourne-hosted-by-maximilian-riedel-tickets-1015863975497?aff=ebdssbdestsearch,-37.8154838,144.9594302
Adult & Teen 13y and Over  Summer School (1 Day Program),2025-01-07,10:30,Dance Factory,"Melbourne VIC, Australia 225 Swan St Richmond Melbourne, VIC",https://www.eventbrite.com.au/e/adult-teen-13y-and-over-summer-school-1-day-program-tickets-948751510307?aff=ebdssbdestsearch,-37.8257354,144.9998261
Summer Holiday Doughnut Decorating - Fawkner (VIC),2025-01-07,10:00,Krispy Kreme Fawkner,"1299 Sydney Road Fawkner, VIC 3060",https://www.eventbrite.com.au/e/summer-holiday-doughnut-decorating-fawkner-vic-tickets-1109716173949?aff=ebdssbdestsearch,-37.7005611,144.9593552
Melbourne Speed Dating | Friday Event | Ages 27-49 | SpeedMelbourne,2025-01-07,19:00,The Metropolitan Hotel,"265 William Street Melbourne, VIC 3000",https://www.eventbrite.com/e/melbourne-speed-dating-friday-event-ages-27-49-speedmelbourne-tickets-1097748518369?aff=ebdssbdestsearch,-37.812902,144.9566615
Junior Summer School (1 Day Program),2025-01-07,10:30,Dance Factory,"Melbourne VIC, Australia 225 Swan St Richmond Melbourne, VIC",https://www.eventbrite.com.au/e/junior-summer-school-1-day-program-tickets-948749644727?aff=ebdssbdestsearch,-37.8257354,144.9998261
Summer Holiday Doughnut Decorating - Highpoint (VIC),2025-01-07,10:00,Krispy Kreme Highpoint Shopping Centre,"120-200 Rosamond Road Maribyrnong, VIC 3032",https://www.eventbrite.com.au/e/summer-holiday-doughnut-decorating-highpoint-vic-tickets-1110938560139?aff=ebdssbdestsearch,-37.7732159,144.8893028
GRIM REALITY & DIZDAIN,2025-01-08,19:00,The Last Chance,"238 Victoria St, Melbourne VIC 3000, Australia",https://www.facebook.com/events/926144986056742/,-37.8059962,144.9585654
IMAGINE LIVE,2025-01-08,00:00,Arts Centre Melbourne,"100 St Kilda Rd, Southbank VIC 3004, Australia",https://www.facebook.com/events/583355591041670/?event_time_id=583355594375003,-37.8216405,144.9683143
Monty Shnier Quintet // Bar 303,2025-01-08,00:00,Bar 303,"303 High St, Northcote VIC 3070, Australia",https://www.facebook.com/events/1696803287555150/,-37.7713296,144.99828116650363
Cycad Residency @ The Workers,2025-01-08,00:00,The Workers Club,"51 Brunswick St, Fitzroy VIC 3065, Australia",https://www.facebook.com/events/1263648671632843/,-37.8055776,144.9769450659087
TGC - LIVE SUMMER 24/25,2025-01-08,19:00,Forum Melbourne,"154 Flinders St, Melbourne VIC 3000, Australia",https://www.facebook.com/events/1089019392617699/,-37.81644145,144.9693768124984
9D Breathwork - A Transformative Journey of Healing Through Breath & Sound.,2025-01-08,19:00,Centre of You,"Upstairs, 217 Chapel St Prahran Melbourne, VIC 3181",https://www.eventbrite.com.au/e/9d-breathwork-a-transformative-journey-of-healing-through-breath-sound-tickets-1116238482349?aff=ebdssbdestsearch,-37.8509316,144.9933031
Adult Beginner Tap,2025-01-08,06:45,Dance Factory,"225 Swan Street Richmond, VIC 3121",https://www.eventbrite.com.au/e/adult-beginner-tap-tickets-1118414510909?aff=ebdssbdestsearch,-37.8257354,144.9998261
Adult Intermediate Tap,2025-01-08,07:45,Dance Factory,"225 Swan Street Richmond, VIC 3121",https://www.eventbrite.com.au/e/adult-intermediate-tap-tickets-1118420649269?aff=ebdssbdestsearch,-37.8257354,144.9998261
Meditation and Mindfulness Session - Throat Chakra Meditation,2025-01-08,19:00,"Oracle of Crystals, 228 Glenferrie Road, Malvern VIC, Australia","228 Glenferrie Road Malvern, VIC 3144",https://www.eventbrite.com.au/e/meditation-and-mindfulness-session-throat-chakra-meditation-tickets-1105039064589?aff=ebdssbdestsearch,-37.8585334,145.0292064
Bearded.,2025-01-08,19:30,Theatre Works,"Saint Leonards Avenue St Kilda, VIC 3182",https://www.eventbrite.com.au/e/bearded-tickets-1086523855099?aff=ebdssbdestsearch,-37.8638328,144.9768976
Rock Camp Blackburn,2025-01-08,10:00,Urban Climb Blackburn,"15/33 Alfred St Blackburn, VIC 3130",https://www.eventbrite.com.au/e/rock-camp-blackburn-tickets-1103478246139?aff=ebdssbdestsearch,-37.820086,145.1600346
"Squishbook workshop @ Squishface Comic Studio, Wed Jan 8!",2025-01-08,11:00,Squishface Studio,"317-329 Dorcas St Studio Hall South Melbourne, VIC 3025",https://www.eventbrite.com/e/squishbook-workshop-squishface-comic-studio-wed-jan-8-registration-1110982722229?aff=ebdssbdestsearch,-37.8345015,144.9563132
UXin' | You are a UX designer for neurodiversity,2025-01-08,19:00,Melbourne,". Melbourne, VIC 00000",https://www.eventbrite.com/e/uxin-you-are-a-ux-designer-for-neurodiversity-tickets-1090225396509?aff=ebdssbdestsearch,-37.8136276,144.9630576
Adult Intermediate Jazz,2025-01-08,06:30,Dance Factory,"225 Swan Street Richmond, VIC 3121",https://www.eventbrite.com.au/e/adult-intermediate-jazz-tickets-1118403578209?aff=ebdssbdestsearch,-37.8257354,144.9998261
No Regrets - The Edith Piaf Story (Paris Cat Jazz Club),2025-01-09,0:00,Paris Cat Jazz Club,"6 Goldie Pl, Melbourne VIC 3000, Australia",https://www.facebook.com/events/918127910185251/,-37.8133262,144.96060714767358
Suck it Up @ BAR OUSSOU!,2025-01-09,20:00,Bar Oussou,"653 Sydney Rd, Brunswick VIC 3056, Australia",https://www.facebook.com/events/1947876812402827/,-37.7618155,144.9628753
TGC - LIVE SUMMER 24/25,2025-01-09,19:00,Forum Melbourne,"154 Flinders St, Melbourne VIC 3000, Australia",https://www.facebook.com/events/559398269906514/,-37.81644145,144.9693768124984
Legends in Concert ,2025-01-09,00:00,Palladium at Crown,"Level 1 Crown Towers, Crown Melbourne, 8 Whiteman St, Southbank VIC 3006, Australia",https://www.facebook.com/events/1154047275692684/,-37.822181,144.959875
Mark Ferrie's Instant Noodles // Thur Arvo Gig Series,2025-01-09,14:00,Kindred Bandroom,"3 Harris St, Footscray VIC 3011, Australia",https://www.facebook.com/events/1940861699739612/,-37.8119001,144.9008247
#SwiftTok,2025-01-09,19:00,The Butterfly Club,"5 Carson Place Melbourne, VIC 3000",https://www.eventbrite.co.uk/e/swifttok-tickets-1043372744967?aff=ebdssbdestsearch,-37.8154472,144.9652725
Adult Beginner Jazz,2025-01-09,07:30,Dance Factory,"225 Swan Street Richmond, VIC 3121",https://www.eventbrite.com.au/e/adult-beginner-jazz-tickets-1118430749479?aff=ebdssbdestsearch,-37.8257354,144.9998261
Adult Beginner Ballet,2025-01-09,06:30,Dance Factory,"225 Swan Street Richmond, VIC 3121",https://www.eventbrite.com.au/e/adult-beginner-ballet-tickets-1118426155739?aff=ebdssbdestsearch,-37.8257354,144.9998261
Plate Lithography,2025-01-09,10:00,Australian Print Workshop,"210 Gertrude Street Fitzroy, VIC 3065",https://www.eventbrite.com.au/e/plate-lithography-tickets-1023080971727?aff=ebdssbdestsearch,-37.8064244,144.9815567
Meditation Thursday Morning Class January 2025 term,2025-01-09,09:30,Tranquil Yoga,"69 Moore Road Airport West, VIC 3042",https://www.eventbrite.com.au/e/meditation-thursday-morning-class-january-2025-term-tickets-1057787333389?aff=ebdssbdestsearch,-37.7166005,144.8859728
"FeelGoodFlows - Sunrise Yoga Thursdays - Meditation, Breathwork, & Mobility",2025-01-09,06:30,South Melbourne Life Saving Club,"72B Beaconsfield Parade Albert Park, VIC 3206",https://www.eventbrite.com.au/e/feelgoodflows-sunrise-yoga-thursdays-meditation-breathwork-mobility-tickets-1044511310447?aff=ebdssbdestsearch,-37.8471341,144.9466738
Lace Dress Debut Gig ,2025-01-09,19:00,The Workers Club,"51 Brunswick St, Fitzroy VIC 3065, Australia",https://www.facebook.com/events/1575401489813747/,-37.8055776,144.9769450659087
The Tennis Podcast - Live in Melbourne,2025-01-09,19:00,Fringe Common Rooms,"Victoria Street Carlton, VIC 3053",https://www.eventbrite.co.uk/e/the-tennis-podcast-live-in-melbourne-tickets-1106170649189?aff=ebdssbdestsearch,-37.8070051,144.9658001
Creeping Jenny - 'Milquebox' EP Launch Tour | Melbourne,2025-01-09,00:00,Bad Decisions Bar,"46 Johnston St, Fitzroy VIC 3065, Australia",https://www.facebook.com/events/1112331930357321/,-37.798246,144.9762881
Speed Dating | Melbourne Friday Event | Ages 27-49 | Fancy A Go?,2025-01-10,19:00,The Metropolitan Hotel,"265 William Street Melbourne, VIC 3000",https://www.eventbrite.com/e/speed-dating-melbourne-friday-event-ages-27-49-fancy-a-go-tickets-1097826531709?aff=ebdssbdestsearch,-37.812902,144.9566615
Melbourne Job Fair - Melbourne Career Fair (Employer Registration),2025-01-10,11:00,Melbourne,"Virtual Job Fair Melbourne, VIC",https://www.eventbrite.com/e/melbourne-job-fair-melbourne-career-fair-employer-registration-registration-1050404818087?aff=ebdssbdestsearch,-37.8136276,144.9630576
Melbourne Speed Dating | Friday Event | Ages 27-49 | Fancy A Go?,2025-01-10,19:00,The Metropolitan Hotel,"265 William Street Melbourne, VIC 3000",https://www.eventbrite.com/e/melbourne-speed-dating-friday-event-ages-27-49-fancy-a-go-tickets-1097809661249?aff=ebdssbdestsearch,-37.812902,144.9566615
Teen Holiday Showbags - For young people  aged 12-18,2025-01-10,16:00,Valley Youth Space,"3 Matthews Avenue Niddrie, VIC 3042",https://www.eventbrite.com.au/e/teen-holiday-showbags-for-young-people-aged-12-18-tickets-1049196704587?aff=ebdssbdestsearch,-37.7347718,144.8888723
JUGNI (The Bewafa Boy) Live in Melbourne,2025-01-10,22:00,170 Russell St,"170 Russell Street Melbourne, VIC 3000",https://www.eventbrite.com.au/e/jugni-the-bewafa-boy-live-in-melbourne-tickets-1089799623009?aff=ebdssbdestsearch,-37.8119107,144.9680341
Loose News,2025-01-10,20:30,The Butterfly Club,"5 Carson Place Melbourne, VIC 3000",https://www.eventbrite.co.uk/e/loose-news-tickets-991601275107?aff=ebdssbdestsearch,-37.8154472,144.9652725
The Bogan Polyglot,2025-01-10,20:30,The Butterfly Club,"5 Carson Place Melbourne, VIC 3000",https://www.eventbrite.co.uk/e/the-bogan-polyglot-tickets-1080176740709?aff=ebdssbdestsearch,-37.8154472,144.9652725
Vida Melbourne Latin Festival 2025 - Three Days Festival - FREE EVENT,2025-01-10,16:00,"Tom's Block, Kings Domain","Tom's Block, Kings Domain MELBOURNE, VIC 3004",https://www.eventbrite.com.au/e/vida-melbourne-latin-festival-2025-three-days-festival-free-event-tickets-1096764274469?aff=ebdssbdestsearch,-37.8239883,144.9711199
Melbourne Beach Tennis International '25,2025-01-10,07:00,West Beach Pavilion,"330A Beaconsfield Parade Saint Kilda West, VIC 3182",https://www.eventbrite.com/e/melbourne-beach-tennis-international-25-registration-1090402235439?aff=ebdssbdestsearch,-37.8582372,144.9682824
WHERE LOVE LIVES feat. BIRDEE (ITALY),2025-01-10,20:00,The Osborne Rooftop & Bar,"119 Commercial Road South Yarra, VIC 3141",https://www.eventbrite.com.au/e/where-love-lives-feat-birdee-italy-tickets-1092796877879?aff=ebdssbdestsearch,-37.8460714,144.9900667
"Clutch 4 - feat. NAM-KHAR (Germany - Cyclic Law, Zazen Sound, Winter-Light)",2025-01-10,20:00,Nighthawks,"136 Johnston Street Collingwood, VIC 3066",https://www.eventbrite.com/e/clutch-4-feat-nam-khar-germany-cyclic-law-zazen-sound-winter-light-tickets-1090838540439?aff=ebdssbdestsearch,-37.799333,144.989527
Majak Door - Single Launch @ Pockets Moorabbin,2025-01-10,20:00,Pockets Moorabbin,"168 Chesterville Road Cheltenham, VIC 3192",https://www.eventbrite.com.au/e/majak-door-single-launch-pockets-moorabbin-tickets-1081479487259?aff=ebdssbdestsearch,-37.9481004,145.059588
Vida Melbourne Latin Festival 2025,2025-01-10,16:00,"Tom's Block, Kings Domain","Tom's Block, Kings Domain MELBOURNE, VIC 3004",https://www.eventbrite.com.au/e/vida-melbourne-latin-festival-2025-tickets-1096764274469?aff=ebdssbdestsearch,-37.8239883,144.9711199
Melbourne Speed Dating | Friday Event | Ages 27-49 | Do You Relish?,2025-01-10,19:00,The Metropolitan Hotel,"265 William Street Melbourne, VIC 3000",https://www.eventbrite.com/e/melbourne-speed-dating-friday-event-ages-27-49-do-you-relish-tickets-1097822289019?aff=ebdssbdestsearch,-37.812902,144.9566615
Como House Guided Tour - January 2025,2025-01-10,13:30,Como House and Garden,"Cnr Wiliams Road and Lechlade Ave South Yarra, VIC",https://www.eventbrite.com.au/e/como-house-guided-tour-january-2025-tickets-1091865472019?aff=ebdssbdestsearch,-37.8385449,145.0050826
Melbourne Mingle | Singles Mingle,2025-01-10,19:00,Champagne Problems,"238 Little Collins Street Melbourne, VIC 3000",https://www.eventbrite.com.au/e/melbourne-mingle-singles-mingle-tickets-1110061546969?aff=ebdssbdestsearch,-37.8142781,144.9666247
Melbourne singles mixer for ages 26-44 by Cheeky Events Australia,2025-01-10,19:00,Mt View Hotel,"70 Bridge Road Richmond Melbourne, VIC 3121",https://www.eventbrite.com.au/e/melbourne-singles-mixer-for-ages-26-44-by-cheeky-events-australia-tickets-1036457340807?aff=ebdssbdestsearch,-37.817951,144.992169
Melbourne Speed Dating | Friday Event | Ages 27-49 | SpeedAustralia,2025-01-10,19:00,The Metropolitan Hotel,"265 William Street Melbourne, VIC 3000",https://www.eventbrite.com/e/melbourne-speed-dating-friday-event-ages-27-49-speedaustralia-tickets-1097802740549?aff=ebdssbdestsearch,-37.812902,144.9566615
'25 Hip Hop,2025-01-10,21:00,Laundry Bar,"50 Johnston Street Fitzroy, VIC 3065",https://www.eventbrite.com.au/e/25-hip-hop-tickets-1113371256399?aff=ebdssbdestsearch,-37.79831,144.976368
Speed Dating |Melbourne Friday Event | Ages 27-49 | Do You Relish?,2025-01-10,19:00,The Metropolitan Hotel,"265 William Street Melbourne, VIC 3000",https://www.eventbrite.com/e/speed-dating-melbourne-friday-event-ages-27-49-do-you-relish-tickets-1097826561799?aff=ebdssbdestsearch,-37.812902,144.9566615
Unidos Vol.3: Kizomba & Bachata Festival Melbourne,2025-01-10,09:00,Second Story Studios,"222A Johnston Street Collingwood, VIC 3066",https://www.eventbrite.com/e/unidos-vol3-kizomba-bachata-festival-melbourne-tickets-897738278357?aff=ebdssbdestsearch,-37.799574,144.9924468
KAP Go Deep with Live Music -  Life Force Activation Melbourne,2025-01-10,19:30,Little Mandarin Yoga & Pilates (Camberwell),"576 Burke Road #Level 1 Camberwell, VIC 3124",https://www.eventbrite.com.au/e/kap-go-deep-with-live-music-life-force-activation-melbourne-tickets-1116346435239?aff=ebdssbdestsearch,-37.8307489,145.0570843
Como House Guided Tour - January-February 2025,2025-01-10,13:30,Como House and Garden,"Cnr Wiliams Road and Lechlade Ave South Yarra, VIC",https://www.eventbrite.com.au/e/como-house-guided-tour-january-february-2025-tickets-1091865472019?aff=ebdssbdestsearch,-37.8385449,145.0050826
Random Things,2025-01-10,19:00,The Butterfly Club,"5 Carson Place Melbourne, VIC 3000",https://www.eventbrite.co.uk/e/random-things-tickets-1038627692387?aff=ebdssbdestsearch,-37.8154472,144.9652725
Comedy On Tap - January 10th. St Luja - St Kilda,2025-01-10,07:30,St LuJa | Cocktail Bar,"9 Fitzroy Street St Kilda, VIC 3182",https://www.eventbrite.com/e/comedy-on-tap-january-10th-st-luja-st-kilda-tickets-1107760484429?aff=ebdssbdestsearch,-37.8627907,144.9733795
BNI QUANTUM - In Person Networking Event,2025-01-10,06:30,SNA CAFE,"480 Saint Kilda Road Melbourne, VIC 3004",https://www.eventbrite.com.au/e/bni-quantum-in-person-networking-event-tickets-1040236233577?aff=ebdssbdestsearch,-37.8427264,144.9773176
The Great Gig in The Sky - A Pink Floyd Celebration | MEMO Music Hall,2025-01-10,00:00,MEMO Music Hall,"88 Acland St, St Kilda VIC 3182, Australia",https://www.facebook.com/events/485598940633892/?event_time_id=485598950633891,-37.8671902,144.9786817
Live Show For Projects Panda,2025-01-10,00:00,The Penny Black,"420 Sydney Rd, Brunswick VIC 3056, Australia",https://www.facebook.com/events/518637357846137/,-37.7679775,144.9621651
Fads: Queer Rave,2025-01-10,00:00,Bad Decisions Bar,"46 Johnston St, Fitzroy VIC 3065, Australia",https://www.facebook.com/events/966470075527520/,-37.798246,144.9762881
Stephen Magnusson Trio !,2025-01-10,19:30,Uptown Jazz Cafe,"1/177 Brunswick St, Fitzroy VIC 3065, Australia",https://www.facebook.com/events/3626938480783673/,-37.79705404,144.97869049756974
DUCK! Comedy: The Great Debate,2025-01-10,19:30,Stay Gold,"133 Sydney Rd, Brunswick VIC 3056, Australia",https://www.facebook.com/events/2581252665413261/,-37.7743469,144.9607404
"Primal Scream at The Forum, Melbourne (18+)",2025-01-10,19:00,Forum Melbourne,"154 Flinders St, Melbourne VIC 3000, Australia",https://www.facebook.com/events/1262517484751470/,-37.81644145,144.9693768124984
Masikuna @ BAR OUSSOU!,2025-01-10,22:00,Bar Oussou,"653 Sydney Rd, Brunswick VIC 3056, Australia",https://www.facebook.com/events/941711844069040/,-37.7618155,144.9628753
Lucy Harrington Band + Claude + April May @ The Curtin Hotel ,2025-01-10,19:00,THE CURTIN (John Curtin hotel),"29 Lygon St, Carlton VIC 3053, Australia",https://www.facebook.com/events/1243847063534662/,-37.8061581,144.9657057
The Robbies single launch @ Mamma Chens,2025-01-10,19:45,Mamma Chen's,"42A Albert St, Footscray VIC 3011, Australia",https://www.facebook.com/events/515808414944608/,-37.8047552,144.89727240000002
Bebe's Bar - Real Deal Cover Band,2025-01-10,00:00,Musicland Melbourne,"1359 Sydney Rd, Fawkner VIC 3060, Australia",https://www.facebook.com/events/1100836994883284/,-37.6916774,144.9585701581541
