Event_Title,Date,Time,Venue,Address,url,Latitude,Longitude
The James Morrison Quartet Featuring Darren Percival,2024-12-19,00:00,Bird's Basement,"11 Singers Ln, Melbourne VIC 3000, Australia",https://www.facebook.com/events/512314804898560/,-37.81114416,144.95680390283175
Comedy @ Sonder,2024-12-19,20:30,Sonder Bar,"438 Centre Road Bentleigh, VIC 3204",https://www.eventbrite.com.au/e/comedy-sonder-tickets-1018428806977?aff=ebdssbdestsearch,-37.918552,145.038282
Mixed Coffee Incense Making Workshop,2024-12-19,11:00,HEER POTTERY ART,"31 Clarice Road #unit3/29 Box Hill South, VIC 3128",https://www.eventbrite.com.au/e/halloween-special-mixed-coffee-incense-making-workshop-tickets-1029583460847?aff=ebdssbdestsearch,-37.833062,145.1337404
Thursday Language Exchange at Diesel bar,2024-12-19,18:00,Diesel Bar & Eatery,"202 Little Lonsdale Street Melbourne, VIC 3000",https://www.eventbrite.com.au/e/thursday-language-exchange-at-diesel-bar-tickets-893388758827?aff=ebdssbdestsearch,-37.8107335,144.9634703
Melbourne Speed Dating for ages 26-44 by Cheeky Events Australia,2024-12-19,19:00,Bar Blanco,"102 Chapel Street Windsor Melbourne, VIC 3181",https://www.eventbrite.com.au/e/melbourne-speed-dating-for-ages-26-44-by-cheeky-events-australia-tickets-919900486117?aff=ebdssbdestsearch,-37.8544756,144.9930723
Beauty and the Beast: A Christmas Pantomime,2024-12-19,19:30,Stay Gold,"133 Sydney Rd Brunswick Melbourne, VIC 3056",https://www.eventbrite.com.au/e/beauty-and-the-beast-a-christmas-pantomime-tickets-1090292416969?aff=ebdssbdestsearch,-37.7743822,144.9606172
Live jazz dinner night,2024-12-19,19:00,Sakedokoro Namara,"360 Victoria Street North Melbourne, VIC 3051",https://www.eventbrite.com.au/e/live-jazz-dinner-night-tickets-1072049893089?aff=ebdssbdestsearch,-37.80549,144.9543455
Speed Dating Meets Board Games |25-35 yr| Fitzroy,2024-12-19,18:30,Boardies Bar,"189 Smith St Fitzory, VIC 3065",https://www.eventbrite.com.au/e/speed-dating-meets-board-games-25-35-yr-fitzroy-tickets-1100503809519?aff=ebdssbdestsearch,-37.8035501,144.9832272
Business Networking - Williamstown,2024-12-19,06:45,Customs House Hotel Williamstown,"161 Nelson Place Williamstown, VIC 3016",https://www.eventbrite.com.au/e/business-networking-williamstown-tickets-906597145467?aff=ebdssbdestsearch,-37.863157,144.903962
Shamanic Breathwork Journey: AIR - Elemental Cycle Five-Part Series.,2024-12-19,18:30,Centre of You,"Upstairs, 217 Chapel St Prahran Melbourne, VIC 3181",https://www.eventbrite.com.au/e/shamanic-breathwork-journey-air-elemental-cycle-five-part-series-tickets-1042496303507?aff=ebdssbdestsearch,-37.8509316,144.9933031
Soulful Bush Community - Event Donations,2024-12-19,10:00,38 Huntingtower Rd,"38 Huntingtower Road Armadale, VIC 3143",https://www.eventbrite.com/e/soulful-bush-community-event-donations-tickets-1018548856047?aff=ebdssbdestsearch,-37.8522396,145.0250808
"Bottomless Cocktails at Top Yard, Melb CBD",2024-12-19,17:00,Top Yard Rooftop,"2 Geddes Lane Melbourne, VIC 3000",https://www.eventbrite.com.au/e/bottomless-cocktails-at-top-yard-melb-cbd-tickets-859288333537?aff=ebdssbdestsearch,-37.8189705,144.957155
Three Course Christmas Dinner at Overnewton Castle,2024-12-19,19:00,Overnewton Castle,"51 Overnewton Road Keilor, VIC 3036",https://www.eventbrite.com.au/e/three-course-christmas-dinner-at-overnewton-castle-tickets-967216278927?aff=ebdssbdestsearch,-37.7048096,144.8209018
Christmas Lunch at Overnewton Castle,2024-12-19,12:00,Overnewton Castle,"51 Overnewton Road Keilor, VIC 3036",https://www.eventbrite.com.au/e/christmas-lunch-at-overnewton-castle-tickets-967203139627?aff=ebdssbdestsearch,-37.7048096,144.8209018
Pentridge Prison - H Division Night Tours November 2024 - January 2025,2024-12-19,18:30,Pentridge Prison,"1 Champ Street Coburg, VIC 3058",https://www.eventbrite.com.au/e/pentridge-prison-h-division-night-tours-november-2024-january-2025-tickets-909558482907?aff=ebdssbdestsearch,-37.7370508,144.9677596
"FeelGoodFlows - Sunrise Yoga Thursdays - Meditation, Breathwork, & Mobility",2024-12-19,06:30,South Melbourne Life Saving Club,"72B Beaconsfield Parade Albert Park, VIC 3206",https://www.eventbrite.com.au/e/feelgoodflows-sunrise-yoga-thursdays-meditation-breathwork-mobility-tickets-1044511310447?aff=ebdssbdestsearch,-37.8471341,144.9466738
"""FREE-ish"" LIVE JAZZ: in Melbourne's Historic Bluestone Cellar c1854",2024-12-19,19:00,"Life's Too Short Bar, Tribeca Arcade, Victoria Parade, East Melbourne VIC, Australia","412 Victoria Parade #Shop 2 East Melbourne, VIC 3002",https://www.eventbrite.com.au/e/free-ish-live-jazz-in-melbournes-historic-bluestone-cellar-c1854-tickets-805465849037?aff=ebdssbdestsearch,-37.8096207,144.985273
Rhythm Thursdays,2024-12-19,21:00,Circus Bar,"199 Commercial Road South Yarra, VIC 3141",https://www.eventbrite.com.au/e/rhythm-thursdays-tickets-1015108094637?aff=ebdssbdestsearch,-37.8465589,144.993086
CIGARETTES & ALCOHOL,2024-12-19,19:00,The Vineyard Restaurant,"71A Acland Street St Kilda, VIC 3182",https://www.eventbrite.com/e/cigarettes-alcohol-tickets-1106000620629?aff=ebdssbdestsearch,-37.8675253,144.9785015
Ripe Hip Hop @ The Vineyard,2024-12-19,19:30,The Vineyard Restaurant,"71A Acland Street St Kilda, VIC 3182",https://www.eventbrite.com.au/e/ripe-hip-hop-the-vineyard-tickets-1090993343459?aff=ebdssbdestsearch,-37.8675253,144.9785015
Friends On Purpose: Games Night (18-30 y/o),2024-12-19,19:00,Blackwoods Wine & Cocktail Bar,"137 Chapel Street Windsor, VIC 3181",https://www.eventbrite.com.au/e/friends-on-purpose-games-night-18-30-yo-tickets-1082689797329?aff=ebdssbdestsearch,-37.8531136,144.9929717
City LOVE Scavenger Hunt Date Night For Couples - Melbourne Vic Area,2024-12-19,13:00,**Recommended starting point or another city spot of your choice! (MUST USE PDF TICKETS-NO QR CODES),"33 Lincoln Square South Carlton, VIC 3053",https://www.eventbrite.com/e/city-love-scavenger-hunt-date-night-for-couples-melbourne-vic-area-tickets-910283571667?aff=ebdssbdestsearch,-37.8033885,144.9623452
"GREG @ THE LAST CHANCE w GOOD SNIFF, ELVIS 3D, SPECCY",2024-12-19,20:00,The Last Chance,"238 Victoria St, Melbourne VIC 3000, Australia",https://www.facebook.com/events/1334292067597529/,-37.8059962,144.9585654
Oskar and Bebra: Reunion,2024-12-19,00:00,Open Studio,"204 High St, Northcote VIC 3070, Australia",https://www.facebook.com/events/2049736348824202/,-37.7742382,144.9981587
Beauty and the Beast: A Christmas Pantomime,2024-12-19,19:30,Stay Gold,"133 Sydney Rd, Brunswick VIC 3056, Australia",https://www.facebook.com/events/2603508599837559/,-37.7743469,144.9607404
Spirit HAPPY HOUR + Spin to WIN!,2024-12-19,00:00,Inkerman Hotel,"375 Inkerman St, St Kilda East VIC 3183, Australia",https://www.facebook.com/events/508452218649178/?event_time_id=508452308649169,-37.866444,144.99799715146656
SMNKSMT LIVE,2024-12-19,0:00,Bad Decisions Bar,"46 Johnston St, Fitzroy VIC 3065, Australia",https://www.facebook.com/events/4017985308431968/,-37.798246,144.9762881
The Beatnik Preachers XMAS Show @  FAD Gallery Bar (FREE ENTRY!),2024-12-19,20:30,Fad Gallery Bar,"14 Corrs Ln, Melbourne VIC 3000, Australia",https://www.facebook.com/events/1091788082601086/,-37.8112208,144.9684346
The Nth Pole   Xmas at Marvel Stadium,2024-12-19,00:00,Marvel Stadium,"740 Bourke St, Docklands VIC 3008, Australia",https://www.facebook.com/events/867742762191839/,-37.816529,144.94751697668812
"(Thu, Dec 19) BRETT POLINESS & KATIE SCOTT",2024-12-19,00:00,George Lane St Kilda,"1 George Ln, St Kilda VIC 3182, Australia",https://www.facebook.com/events/1204010737352510/,-37.85997305,144.9780306
Don Glori 'Don't Forget To Have Fun' Album Launch,2024-12-19,20:00,The Night Cat,"137-141 Johnston St, Fitzroy VIC 3065, Australia",https://www.facebook.com/events/1559393681439593/,-37.7982971,144.978128
Jamie Miller 'Long Way Home' World Tour - Melbourne,2024-12-19,19:30,Max Watts,"125 Swanston St, Melbourne VIC 3000, Australia",https://www.facebook.com/events/1114079473421967/,-37.8147557,144.9659879
Sneak Peak of Sticky Carpet 2025 at Mr Boogie Man Bar.,2024-12-19,20:00,Mr Boogie Man Bar,"160 Hoddle St, Abbotsford VIC 3067, Australia",https://www.facebook.com/events/560463340264029/,-37.80245,144.99295304614787
Anora: Gala Screening,2024-12-19,18:40,Cinema Nova,"380 Lygon St, Carlton VIC 3053, Australia",https://www.facebook.com/events/8580886268627826/,-37.7978092,144.9680124
Euan Hart Live in Melbourne,2024-12-19,19:00,The Merri Creek Tavern,"111 High St, Northcote VIC 3070, Australia",https://www.facebook.com/events/547646181486417/,-37.7794356,144.996838
Canisha // Thursday Arvo Gig Series,2024-12-19,14:00,Kindred Bandroom,"3 Harris St, Footscray VIC 3011, Australia",https://www.facebook.com/events/1160950218728901/,-37.8119001,144.9008247
Geoff Achison - Two Tones Christmas Party & Thursday Night Jam!,2024-12-19,0:00,Hume Blues Club Inc,"27 Ballantyne St, Thornbury VIC 3071, Australia",https://www.facebook.com/events/1021489572796457/,-37.7588241,144.9985126
Wonderland Thursdays | 12th December,2024-12-19,00:00,StoryVille,"185 Lonsdale St, Melbourne VIC 3000, Australia",https://www.facebook.com/events/3976685642599672/,-37.81117675,144.9668442406415
"GUERNS THURS - $4 Pots, Seltzers $6 Vodkas!",2024-12-19,00:00,New Guernica,"64 Smith St, Collingwood VIC 3066, Australia",https://www.facebook.com/events/592758956456188/,-37.80624775,144.98331211946754
(SOLD OUT) MICK THOMAS' Roving Commission | 'All Your Christmases' Dinner & Show,2024-12-19,00:00,arcobar heatherton,"8 Arco Ln, Heatherton VIC 3202, Australia",https://www.facebook.com/events/1434518747233294/,-37.94673685,145.07837928457485
Bottomless Cocktails Chapel St,2024-12-20,17:00,"Three Monkeys, 210 Chapel Street, Prahran VIC, Australia","210 Chapel Street Prahran, VIC 3181",https://www.eventbrite.com.au/e/bottomless-cocktails-chapel-st-tickets-1109923604379?aff=ebdssbdestsearch,-37.851041,144.993681
XXXMAS A Christmas Party! Yah Yahs FRI DEC 20th,2024-12-20,21:00,Yah Yahs,"99 Smith Street Fitzroy, VIC 3065",https://www.eventbrite.com.au/e/xxxmas-a-christmas-party-yah-yahs-fri-dec-20th-tickets-1111155509039?aff=ebdssbdestsearch,-37.8058545,144.982966
Melbourne Magic Show - Impossible Occurrences,2024-12-20,19:30,Melbourne Marriott Hotel,"Cnr Lonsdale & Exhibition St Melbourne, VIC 3000",https://www.eventbrite.com.au/e/melbourne-magic-show-impossible-occurrences-tickets-947627648807?aff=ebdssbdestsearch,-37.8100597,144.9697004
SENES FLAMENCO DANCE SHOW - Farewell to Open Studio ,2024-12-20,00:00,Open Studio,"204 High St, Northcote VIC 3070, Australia",https://www.facebook.com/events/2010659209405015/,-37.7742382,144.9981587
NEXT CROP,2024-12-20,21:00,Laundry Bar,"50 Johnston Street Fitzroy, VIC 3065",https://www.eventbrite.com.au/e/next-crop-tickets-1109777647819?aff=ebdssbdestsearch,-37.79831,144.976368
"Melbourne Language Exchange | Make Friends, Learn Languages & Culture",2024-12-20,17:30,215 Queen's Restaurant and Bar Melbourne,"215 Queen Street Melbourne, VIC 3000",https://www.eventbrite.com.au/e/melbourne-language-exchange-make-friends-learn-languages-culture-tickets-1059091584439?aff=ebdssbdestsearch,-37.8137882,144.9598785
Speed Dating Melbourne | In-Person | Cityswoon | Ages  32-44,2024-12-20,19:00,Brogan's Way Distillery,"61 North St Richmond Melbourne, VIC 3121",https://www.eventbrite.com.au/e/speed-dating-melbourne-in-person-cityswoon-ages-32-44-tickets-1059263699239?aff=ebdssbdestsearch,-37.816261,145.012048
Rnb Pop and Girlie Hip Hop Fridays !,2024-12-20,19:00,Circle.,"36 Saint Edmonds Road #Level 1 Prahran, VIC 3181",https://www.eventbrite.com/e/rnb-pop-and-girlie-hip-hop-fridays-tickets-1010340304047?aff=ebdssbdestsearch,-37.8499197,144.992012
"Basement Comedy Club: Friday/Saturday, December 20/21",2024-12-20,20:00,Basement Comedy Club,"120 Exhibition Street Melbourne, VIC 3000",https://www.eventbrite.com.au/e/basement-comedy-club-fridaysaturday-december-2021-tickets-1078793443229?aff=ebdssbdestsearch,-37.8128722,144.9712049
Comedy On Tap -  CHRISTMAS SPECIAL - Friday December 20th,2024-12-20,19:30,St LuJa | Cocktail Bar,"9 Fitzroy Street St Kilda, VIC 3182",https://www.eventbrite.com/e/comedy-on-tap-christmas-special-friday-december-20th-tickets-1077981093469?aff=ebdssbdestsearch,-37.8627907,144.9733795
Loose News,2024-12-20,20:30,The Butterfly Club,"5 Carson Place Melbourne, VIC 3000",https://www.eventbrite.co.uk/e/loose-news-tickets-991601275107?aff=ebdssbdestsearch,-37.8154472,144.9652725
Paint in the Dark© - UV Light Disco Party,2024-12-20,19:00,Paint for Fun,"252 Graham Street #Unit 1 Port Melbourne, VIC 3207",https://www.eventbrite.com.au/e/paint-in-the-dark-uv-light-disco-party-tickets-1004867885897?aff=ebdssbdestsearch,-37.8386895,144.9385483
BLACK FRIDAY NIGHT PARTY,2024-12-20,18:00,215 Queen St,"215 Queen Street Melbourne, VIC 3000",https://www.eventbrite.com/e/black-friday-night-party-tickets-1104118922419?aff=ebdssbdestsearch,-37.8137947,144.9598607
"BOLLYWOOD CLUB Presents Friday Night at Crown, Melbourne",2024-12-20,21:30,Crown Melbourne,"8 Whiteman Street Southbank, VIC 3006",https://www.eventbrite.com.au/e/bollywood-club-presents-friday-night-at-crown-melbourne-tickets-999153042647?aff=ebdssbdestsearch,-37.82343669999999,144.9580861
CHAOS,2024-12-20,21:00,The Nashaa Club,"8 Jackson Street Toorak, VIC 3142",https://www.eventbrite.com.au/e/chaos-tickets-1091856675709?aff=ebdssbdestsearch,-37.8401524,145.0079428
Meet People Social Melbourne | Cultural International Party,2024-12-20,17:30,215 Queen's Restaurant and Bar Melbourne,"215 Queen Street Melbourne, VIC 3000",https://www.eventbrite.com.au/e/meet-people-social-melbourne-cultural-international-party-tickets-951030677357?aff=ebdssbdestsearch,-37.8137882,144.9598785
Young IT Professionals in Melbourne Social,2024-12-20,17:30,215 Queen's Restaurant and Bar Melbourne,"215 Queen Street Melbourne, VIC 3000",https://www.eventbrite.com.au/e/young-it-professionals-in-melbourne-social-tickets-951030446667?aff=ebdssbdestsearch,-37.8137882,144.9598785
Sacred Sound Meditation at Vyve Meditation Centre (EESystem),2024-12-20,19:00,Vyve Meditation Centre,"266 Bolton Street #1A Eltham, VIC 3095",https://www.eventbrite.com.au/e/sacred-sound-meditation-at-vyve-meditation-centre-eesystem-tickets-1083646920109?aff=ebdssbdestsearch,-37.720178,145.138187
It's a House Thing @ OneSixOne Rooftop | 20 December,2024-12-20,17:00,onesixone,"161 High Street Prahran, VIC 3181",https://www.eventbrite.com.au/e/its-a-house-thing-onesixone-rooftop-20-december-tickets-1044638210007?aff=ebdssbdestsearch,-37.8517323,144.9936589
"IT Social Melbourne | Data, Technology, Cybersecurity, IT",2024-12-20,17:30,215 Queen's Restaurant and Bar Melbourne,"215 Queen Street Melbourne, VIC 3000",https://www.eventbrite.com.au/e/it-social-melbourne-data-technology-cybersecurity-it-tickets-951030647267?aff=ebdssbdestsearch,-37.8137882,144.9598785
Magic Moments Gathering Launch Party,2024-12-20,19:00,Lucky Schmuck,"719 High Street Thornbury, VIC 3071",https://www.eventbrite.com.au/e/magic-moments-gathering-launch-party-tickets-1089744116989?aff=ebdssbdestsearch,-37.759026,145.000313
Gift voucher for Christmas!,2024-12-20,12:00,Williamstown Library,"104 Ferguson Street Williamstown, VIC 3016",https://www.eventbrite.com.au/e/gift-voucher-for-christmas-tickets-1041861825767?aff=ebdssbdestsearch,-37.85832,144.8961172
GRIEFED Xmas Party,2024-12-20,20:00,Fortress Melbourne,"23 Caledonian Lane #Shop 25 Melbourne, VIC 3000",https://www.eventbrite.com.au/e/griefed-xmas-party-tickets-1100668070829?aff=ebdssbdestsearch,-37.8120097,144.9641951
Data Science & Analytics meetup and chat Melbourne,2024-12-20,17:30,215 Queen's Restaurant and Bar Melbourne,"215 Queen Street Melbourne, VIC 3000",https://www.eventbrite.com.au/e/data-science-analytics-meetup-and-chat-melbourne-tickets-951030536937?aff=ebdssbdestsearch,-37.8137882,144.9598785
Christmas Party,2024-12-20,19:00,San Marco in Lamis Social Club,"Kay Street Carlton, VIC 3053",https://www.eventbrite.com.au/e/christmas-party-tickets-1018557381547?aff=ebdssbdestsearch,-37.7951284,144.9729425
Christmas Gift Crafting! Leather Carving & Stamping:  Laced Wallet,2024-12-20,09:00,Leffler Leather,"171 Kensington Road West Melbourne, VIC 3003",https://www.eventbrite.com.au/e/christmas-gift-crafting-leather-carving-stamping-laced-wallet-tickets-1042514477867?aff=ebdssbdestsearch,-37.8000316,144.9177826
Double Dole Stringband and Cat & Clint at The Lomond Hotel.,2024-12-20,20:30,The Lomond Hotel,"225 Nicholson Street Brunswick East, VIC 3057",https://www.eventbrite.com.au/e/double-dole-stringband-and-cat-clint-at-the-lomond-hotel-tickets-1098528471229?aff=ebdssbdestsearch,-37.7670861,144.9800057
Nerve Melbourne 2024,2024-12-20,22:00,Brown Alley,"585 Lonsdale Street Melbourne, VIC 3000",https://www.eventbrite.com.au/e/nerve-melbourne-2024-tickets-949590128637?aff=ebdssbdestsearch,-37.81452000000001,144.955082
Flamingo Club,2024-12-20,21:00,Pawn & Co,"177 Greville Street Prahran, VIC 3181",https://www.eventbrite.com.au/e/flamingo-club-tickets-934233155517?aff=ebdssbdestsearch,-37.8493266,144.9926289
the biggest ever north / side (new guernica),2024-12-20,22:00,New Guernica,"64 Smith Street Collingwood, VIC 3066",https://www.eventbrite.com.au/e/the-biggest-ever-north-side-new-guernica-tickets-1108961787559?aff=ebdssbdestsearch,-37.8062529,144.9832565
Bollywood BEACH PARTY!,2024-12-20,22:00,Bass Lounge,"101 Little Bourke Street Melbourne, VIC 3000",https://www.eventbrite.com.au/e/bollywood-beach-party-tickets-1098031996259?aff=ebdssbdestsearch,-37.8113783,144.9695903
"Bollywood Club-GULABO at Crown, Melbourne",2024-12-20,21:30,Crown Melbourne,"8 Whiteman Street Southbank, VIC 3006",https://www.eventbrite.com.au/e/bollywood-club-gulabo-at-crown-melbourne-tickets-1061861649779?aff=ebdssbdestsearch,-37.82343669999999,144.9580861
An Evening of Terror with Dreamworm,2024-12-20,07:30,Bad Decisions Bar,"46 Johnston Street Fitzroy, VIC 3065",https://www.eventbrite.com.au/e/an-evening-of-terror-with-dreamworm-tickets-1091842854369?aff=ebdssbdestsearch,-37.7982682,144.9762913
Effective Communication Skills & Strategies Session for your Team-Melbourne,2024-12-20,09:00,"Training at your own premises or your preferred venue. Reach us at ""corporate@mangates.com"" for more details.","PH: + 61(0) 2 80155605 Melbourne, VIC 3000",https://www.eventbrite.com/e/effective-communication-skills-strategies-session-for-your-team-melbourne-tickets-840083962747?aff=ebdssbdestsearch,-37.8152065,144.963937
Intro to Leather Carving & Stamping:  Laced Wallet with Aram Omara,2024-12-20,09:00,Leffler Leather,"171 Kensington Road West Melbourne, VIC 3003",https://www.eventbrite.com.au/e/intro-to-leather-carving-stamping-laced-wallet-with-aram-omara-tickets-1042514477867?aff=ebdssbdestsearch,-37.8000316,144.9177826
Bliss Fridays- Bottomless Bliss Drinks Package at Morris Jones,2024-12-20,19:00,Inca | Morris Jones Restaurant & Cocktail Bar,"163 Chapel Street Windsor, VIC 3181",https://www.eventbrite.com/e/bliss-fridays-bottomless-bliss-drinks-package-at-morris-jones-tickets-1095914282119?aff=ebdssbdestsearch,-37.8523323,144.9930063
Headphones Jones - 10th Birthday Show (VIC),2024-12-20,19:30,280 Sydney Rd,"280 Sydney Road Brunswick, VIC 3056",https://www.eventbrite.com.au/e/headphones-jones-10th-birthday-show-vic-tickets-1068977453339?aff=ebdssbdestsearch,-37.7711488,144.9616353
Pentridge Prison - The Night Watch Tour | December 2024 - January 2025,2024-12-20,20:30,Pentridge Prison,"1 Champ Street Coburg, VIC 3058",https://www.eventbrite.com.au/e/pentridge-prison-the-night-watch-tour-december-2024-january-2025-tickets-1098498451439?aff=ebdssbdestsearch,-37.7370508,144.9677596
xmunashe: It's How You Finish (MEL),2024-12-20,20:00,Kindred Bandroom,"3 Harris St, Footscray VIC 3011, Australia",https://www.facebook.com/events/4095015484063455/,-37.8119001,144.9008247
The Ronson Hangup Christmas Show with Pinkerton Pendlebury and Nayls & Pinko,2024-12-20,19:30,The Workers Club,"51 Brunswick St, Fitzroy VIC 3065, Australia",https://www.facebook.com/events/410056892180780/,-37.8055776,144.9769450659087
ROD STEWART Songbook | Performed by Andy Lutze & Atlantic Crossing Band | Dinner & Show,2024-12-20,00:00,arcobar heatherton,"8 Arco Ln, Heatherton VIC 3202, Australia",https://www.facebook.com/events/400254173085504/,-37.94673685,145.07837928457485
The G-Funk Band ,2024-12-20,20:00,Lucky 13 Garage,"8 Cochranes Rd, Moorabbin VIC 3189, Australia",https://www.facebook.com/events/465270696541899/,-37.94349189,145.07036236060654
Mary Miller Cafe - Dinner and Drinks Package,2024-12-20,17:30,Mary Miller Cafe,"55-63 Nicholson Street Brunswick East, VIC 3057",https://www.eventbrite.com.au/e/mary-miller-cafe-dinner-and-drinks-package-tickets-1106882107179?aff=ebdssbdestsearch,-37.7757399,144.9786127
The Gaming Arena - Star Wars Unlimited: Weekly play-Draft,2024-12-20,00:00,The Gaming Arena,"123 Bakers Rd, Coburg North VIC 3058, Australia",https://www.facebook.com/events/859039736399794/,-37.72715826,144.96115535488718
"Dilate Pres. Human Space Machine, Severja, Tangela & Vardae Live",2024-12-20,22:00,24 Moons,"2 Arthurton Rd, Northcote VIC 3070, Australia",https://www.facebook.com/events/2106295986431474/,-37.7691418,144.9982614
"Caution:Thieves - 'Dying Star' Release Show with MISERYGUTS, Some Heard Trouble & Le Bongé",2024-12-20,19:00,The Last Chance,"238 Victoria St, Melbourne VIC 3000, Australia",https://www.facebook.com/events/1633447414181100/,-37.8059962,144.9585654
Slay Belles II,2024-12-20,18:00,Bergy Bandroom,"64 Sydney Rd, Brunswick VIC 3056, Australia",https://www.facebook.com/events/760719719529475/,-37.776327,144.9607158
NEXT CROP,2024-12-20,00:00,Laundry Bar,"50 Johnston St, Fitzroy VIC 3065, Australia",https://www.facebook.com/events/1204729290623807/,-37.7983139,144.9764962
80's Zone - Rocking  the 80's @Musicland,2024-12-20,00:00,Musicland Melbourne,"1359 Sydney Rd, Fawkner VIC 3060, Australia",https://www.facebook.com/events/604133098740029/,-37.6916774,144.9585701581541
"Ben Abraham at Forum Melbourne, Melbourne (16+)",2024-12-20,0:00,Forum Melbourne,"154 Flinders St, Melbourne VIC 3000, Australia",https://www.facebook.com/events/939565904672878/,-37.81644145,144.9693768124984
Martini DJ Night! ,2024-12-20,21:00,Mystic M Lounge,"67 McIntyre Rd, Sunshine North VIC 3020, Australia",https://www.facebook.com/events/3966780040201977/,-37.7770385,144.8287022
A Very Big Band Christmas | MEMO Music Hall ,2024-12-20,19:00,MEMO Music Hall,"88 Acland St, St Kilda VIC 3182, Australia",https://www.facebook.com/events/1523731191870771/,-37.8671902,144.9786817
Love Actually | Christmas Screening,2024-12-20,18:00,Reading Cinemas Millers Junction,"22 Hunter Rd, Altona North VIC 3025, Australia",https://www.facebook.com/events/2072747746473954/,-37.8425204,144.842589
RAW BRIT @ Oakleigh Music Hall,2024-12-20,20:30,Oakleigh Carnegie RSL,"95/97 Drummond St, Oakleigh VIC 3166, Australia",https://www.facebook.com/events/3659438734306866/,-37.8968576,145.08963741959553
THE SOFT MACHINE PRESENTS: FLESH RITUALS & SIREN SONGS - Melbourne,2024-12-20,00:00,Stay Gold,"133 Sydney Rd, Brunswick VIC 3056, Australia",https://www.facebook.com/events/3841757992733880/,-37.7743469,144.9607404
Drag Bingo - Christmas Edition,2024-12-20,19:30,Lona St Kilda,"Unit 64/66 Acland St, St Kilda VIC 3182, Australia",https://www.facebook.com/events/3827186064186775/,-37.86668052,144.978209
Barrels By Candlelight 2024 ,2024-12-20,00:00,The Thornbury Local,"635 High St, Thornbury VIC 3071, Australia",https://www.facebook.com/events/1290007922414109/,-37.76165125,144.99987967655426
Love Actually | Christmas Screening,2024-12-20,18:00,Reading Cinemas Burwood Brickworks,"70 Middleborough Rd, Burwood East VIC 3151, Australia",https://www.facebook.com/events/1113626933452666/,-37.84886425,145.13293352353193
A very very Merry Christmas!,2024-12-20,00:00,Ragtime Tavern,"206 Tyler St, Preston VIC 3072, Australia",https://www.facebook.com/events/3725582844359931/,-37.7310367,145.0142411
Machang - A Sri Lankan Event,2024-12-20,00:00,Khokolat Bar,"43 Hardware Ln, Melbourne VIC 3000, Australia",https://www.facebook.com/events/442015818762421/,-37.8134633,144.9610875
The Nth Pole   Xmas at Marvel Stadium,2024-12-20,00:00,Marvel Stadium,"740 Bourke St, Docklands VIC 3008, Australia",https://www.facebook.com/events/911772104246152/,-37.816529,144.94751697668812
Chocolate Starfish Christmas Extraveganza,2024-12-20,19:30,Palladium at Crown,"Level 1 Crown Towers, Crown Melbourne, 8 Whiteman St, Southbank VIC 3006, Australia",https://www.facebook.com/events/536046322197699/,-37.822181,144.959875
Mi Casa x Revolver Fridays ,2024-12-20,00:00,Revolver Upstairs,"Level 2/229 Chapel St, Prahran VIC 3181, Australia",https://www.facebook.com/events/927672152572353/,-37.8505902,144.9933469
the biggest ever north / side (new guernica),2024-12-20,00:00,New Guernica,"64 Smith St, Collingwood VIC 3066, Australia",https://www.facebook.com/events/4022626674639222/,-37.80624775,144.98331211946754
"(Fri, Dec 20) DRUNKLE XMAS SHOW",2024-12-20,00:00,George Lane St Kilda,"1 George Ln, St Kilda VIC 3182, Australia",https://www.facebook.com/events/1083100246246757/,-37.85997305,144.9780306
S*WITCH - DRUM & BASS,2024-12-20,00:00,Laundry Bar,"50 Johnston St, Fitzroy VIC 3065, Australia",https://www.facebook.com/events/1122260156167043/,-37.7983139,144.9764962
As Camp As Christmas,2024-12-20,00:00,Fed Square,"Swanston St &, Flinders St, Melbourne VIC 3000, Australia",https://www.facebook.com/events/1085047293080581/,-37.81767355,144.9667825800355
It's A House Thing // 20 December // OneSixOne Rooftop,2024-12-20,00:00,onesixone,"161 High St, Prahran VIC 3181, Australia",https://www.facebook.com/events/932768668671860/,-37.85425256,145.0112666323418
An Evening of Terror with Dreamworm,2024-12-20,00:00,Bad Decisions Bar,"46 Johnston St, Fitzroy VIC 3065, Australia",https://www.facebook.com/events/1679984499214293/,-37.798246,144.9762881
The Room Next Door: Advance Screening,2024-12-20,18:50,Cinema Nova,"380 Lygon St, Carlton VIC 3053, Australia",https://www.facebook.com/events/557254380575825/,-37.7978092,144.9680124
UNCOMFORTABLE SCIENCE @ Uptown,2024-12-20,19:30,Uptown Jazz Cafe,"1/177 Brunswick St, Fitzroy VIC 3065, Australia",https://www.facebook.com/events/1125252639254195/,-37.79705404,144.97869049756974
BARKADA NIGHT: End of Year Party,2024-12-21,21:00,Laundry Bar,"50 Johnston Street Fitzroy, VIC 3065",https://www.eventbrite.com.au/e/barkada-night-end-of-year-party-tickets-1077151040759?aff=ebdssbdestsearch,-37.79831,144.976368
Puppy Yoga In An Art Gallery,2024-12-21,09:30,Artful Yoga Gallery,"1 Vale Street St Kilda, VIC 3182",https://www.eventbrite.com.au/e/puppy-yoga-in-an-art-gallery-tickets-1106833281139?aff=ebdssbdestsearch,-37.866167,144.981767
Mindful Calligraphy Workshop for Beginners,2024-12-21,10:00,HEER POTTERY ART,"31 Clarice Road #unit3/29 Box Hill South, VIC 3128",https://www.eventbrite.com.au/e/mindful-calligraphy-workshop-for-beginners-tickets-1029466370627?aff=ebdssbdestsearch,-37.833062,145.1337404
Divination ft. JUNGIST [All Night Long],2024-12-21,23:00,Sub Club Melbourne,"Flinders Court Melbourne, VIC 3000",https://www.eventbrite.com.au/e/divination-ft-jungist-all-night-long-tickets-1109930856069?aff=ebdssbdestsearch,-37.8179755,144.9644539
Paint  And Sip Class: Christmas Painting Party,2024-12-21,14:00,Paint for Fun,"252 Graham Street #Unit 1 Port Melbourne, VIC 3207",https://www.eventbrite.com.au/e/paint-and-sip-class-christmas-painting-party-tickets-1109918107939?aff=ebdssbdestsearch,-37.8386895,144.9385483
Murder Village: An Improvised Whodunnit,2024-12-21,19:00,The Butterfly Club,"5 Carson Place Melbourne, VIC 3000",https://www.eventbrite.co.uk/e/murder-village-an-improvised-whodunnit-tickets-881170473607?aff=ebdssbdestsearch,-37.8154472,144.9652725
"BROWN RANG - Bollywood Night at Inflation Nightclub, Melbourne",2024-12-21,22:00,Inflation Nightclub,"60 King Street Melbourne, VIC 3000",https://www.eventbrite.com.au/e/brown-rang-bollywood-night-at-inflation-nightclub-melbourne-tickets-1082882904919?aff=ebdssbdestsearch,-37.8188863,144.9571605
Pentridge Prison Tours: Prisonbreak Explorers -Family Tour Nov 24- Jan 2025,2024-12-21,10:30,Pentridge,"1 Champ Street Coburg, VIC 3058",https://www.eventbrite.com.au/e/pentridge-prison-tours-prisonbreak-explorers-family-tour-nov-24-jan-2025-tickets-909551792897?aff=ebdssbdestsearch,-37.7370508,144.9677596
Paint&Sip: Paint in the Dark© Disco Party,2024-12-21,19:00,Paint for Fun,"252 Graham Street #Unit 1 Port Melbourne, VIC 3207",https://www.eventbrite.com.au/e/paintsip-paint-in-the-dark-disco-party-tickets-1004871025287?aff=ebdssbdestsearch,-37.8386895,144.9385483
Adventures in Neverland,2024-12-21,09:30,St Kilda Botanical Gardens,"11 Herbert Street St Kilda, VIC 3182",https://www.eventbrite.com.au/e/adventures-in-neverland-tickets-1054826597749?aff=ebdssbdestsearch,-37.8713506,144.9824183
"SATURDAY - Fitzroy Market (October, November, December 2024)",2024-12-21,09:00,Fitzroy Mills Market,"75 Rose Street Fitzroy, VIC 3065",https://www.eventbrite.com.au/e/saturday-fitzroy-market-october-november-december-2024-tickets-1003297017387?aff=ebdssbdestsearch,-37.7956693,144.9779514
"PMP Live Instructor Led Certification Training Bootcamp Mill Park, VIC",2024-12-21,09:00,Mill Park,"Mill Park Mill Park, VIC 3082",https://www.eventbrite.com/e/pmp-live-instructor-led-certification-training-bootcamp-mill-park-vic-tickets-865590443317?aff=ebdssbdestsearch,-37.6735647,145.0613537
Revive Annual Christmas Dinner,2024-12-21,17:00,"13 Link Ct, Brooklyn VIC, Australia","13 Link Court Brooklyn, VIC 3012",https://www.eventbrite.com.au/e/revive-annual-christmas-dinner-tickets-1086687544699?aff=ebdssbdestsearch,-37.8226143,144.8570075
2024 MINGLE & JINGLE Christmas Party,2024-12-21,20:00,La Di Da,"577 Little Bourke Street Melbourne, VIC 3000",https://www.eventbrite.com.au/e/2024-mingle-jingle-christmas-party-tickets-877868206437?aff=ebdssbdestsearch,-37.8153739,144.955644
"PMP Live Instructor Led Certification Training Bootcamp Glenroy, VIC",2024-12-21,09:00,Glenroy,"Glenroy Glenroy, VIC 3046",https://www.eventbrite.com/e/pmp-live-instructor-led-certification-training-bootcamp-glenroy-vic-tickets-872042912827?aff=ebdssbdestsearch,-37.7062465,144.9161373
"PMP Live Instructor Led Certification Training Bootcamp Glen Iris, VIC",2024-12-21,09:00,Glen Iris,"Glen Iris Glen Iris, VIC 3146",https://www.eventbrite.com/e/pmp-live-instructor-led-certification-training-bootcamp-glen-iris-vic-tickets-869320841037?aff=ebdssbdestsearch,-37.8600246,145.0593297
"PMP Live Instructor Led Certification Training Bootcamp Balwyn North, VIC",2024-12-21,09:00,Balwyn North,"Balwyn North Balwyn North, VIC 3104",https://www.eventbrite.com/e/pmp-live-instructor-led-certification-training-bootcamp-balwyn-north-vic-tickets-872027597017?aff=ebdssbdestsearch,-37.7941151,145.0879338
The Seven Ups (feat. Mindy Meng Wang) w/ Foggy Notion + Gusto Gusto - Xmas show @ Bergy Bandroom,2024-12-21,20:00,Bergy Bandroom,"64 Sydney Rd, Brunswick VIC 3056, Australia",https://www.facebook.com/events/1261859894946298/,-37.776327,144.9607158
SOMMELIER'S SHARED TABLE: Wine Experience with Food,2024-12-21,19:00,"Life's Too Short Bar, Tribeca Arcade, Victoria Parade, East Melbourne VIC, Australia","412 Victoria Parade #Shop 2 East Melbourne, VIC 3002",https://www.eventbrite.com.au/e/sommeliers-shared-table-wine-experience-with-food-tickets-854166253257?aff=ebdssbdestsearch,-37.8096207,144.985273
"PMP Live Instructor Led Certification Training Bootcamp Malvern East, VIC",2024-12-21,09:00,Malvern East,"Malvern East Malvern East, VIC 3145",https://www.eventbrite.com/e/pmp-live-instructor-led-certification-training-bootcamp-malvern-east-vic-tickets-872068268667?aff=ebdssbdestsearch,-37.8773116,145.059272
Summery Evening Improvisations,2024-12-21,19:30,105 Park St,"105 Park Street South Melbourne, VIC 3205",https://www.eventbrite.com.au/e/summery-evening-improvisations-tickets-1056206324549?aff=ebdssbdestsearch,-37.8340094,144.966539
Christmas Family Fun Day,2024-12-21,11:00,231-251 Mt Alexander Rd,"231-251 Mount Alexander Road Ascot Vale, VIC 3032",https://www.eventbrite.com.au/e/christmas-family-fun-day-tickets-1080220060279?aff=ebdssbdestsearch,-37.7793235,144.9302166
CLUB RIOT Presents: QUEER CHRISTMAS,2024-12-21,20:00,Bad Decisions Bar,"46 Johnston Street Fitzroy, VIC 3065",https://www.eventbrite.com.au/e/club-riot-presents-queer-christmas-tickets-1077164761799?aff=ebdssbdestsearch,-37.7982682,144.9762913
"(Sat, Dec 21) WAZ E JAMES BAND Feat. ANDREW PENDLEBURY (The Sports) XMAS SHOW",2024-12-21,00:00,George Lane St Kilda,"1 George Ln, St Kilda VIC 3182, Australia",https://www.facebook.com/events/1310986290313341/,-37.85997305,144.9780306
Hufflepoof,2024-12-21,19:00,Speakeasy Theatre,"522 Flinders Street Melbourne, VIC 3000",https://www.eventbrite.com.au/e/hufflepoof-tickets-1100163942969?aff=ebdssbdestsearch,-37.82029199999999,144.9569223
"PMP Live Instructor Led Certification Training Bootcamp Preston, VIC",2024-12-21,09:00,Preston,"Preston Preston, VIC 3072",https://www.eventbrite.com/e/pmp-live-instructor-led-certification-training-bootcamp-preston-vic-tickets-865595157417?aff=ebdssbdestsearch,-37.7399362,145.0107588
An Enchanting Italian Christmas Experience,2024-12-21,18:00,Ela Rose Studios,"20 Chingford Street Fairfield, VIC 3078",https://www.eventbrite.com.au/e/an-enchanting-italian-christmas-experience-tickets-1034662833387?aff=ebdssbdestsearch,-37.7696884,145.0239564
"PMP Live Instructor Led Certification Training Bootcamp Saint Albans, VIC",2024-12-21,09:00,Saint Albans,"Saint Albans Saint Albans, VIC 3021",https://www.eventbrite.com/e/pmp-live-instructor-led-certification-training-bootcamp-saint-albans-vic-tickets-861504462037?aff=ebdssbdestsearch,-37.7407759,144.799635
LATIN OBSESSION - Bachata & Salsa Christmas Party,2024-12-21,19:00,The Space Dance & Arts Centre,"318 Chapel Street Prahran, VIC 3181",https://www.eventbrite.com.au/e/latin-obsession-bachata-salsa-christmas-party-tickets-1048079573217?aff=ebdssbdestsearch,-37.847686,144.994213
Carols by Techno Time 2024,2024-12-21,21:00,my aeon,"791 Sydney Road Brunswick, VIC 3056",https://www.eventbrite.com.au/e/carols-by-techno-time-2024-tickets-1089587077279?aff=ebdssbdestsearch,-37.7581868,144.9633301
BARKADA NIGHT: END OF YEAR PARTY 2024,2024-12-21,21:00,Laundry Bar,"50 Johnston Street Fitzroy, VIC 3065",https://www.eventbrite.com.au/e/barkada-night-end-of-year-party-2024-tickets-1068943541909?aff=ebdssbdestsearch,-37.79831,144.976368
2024 Christmas Concert Gala,2024-12-21,18:00,877 Princes Hwy,"877 Princes Highway Springvale, VIC 3171",https://www.eventbrite.com.au/e/2024-christmas-concert-gala-tickets-1044775219807?aff=ebdssbdestsearch,-37.930306,145.1506382
BODY PRISON DEBUT HEADLINE,2024-12-21,19:00,Stay Gold,"133 Sydney Rd Brunswick Melbourne, VIC 3056",https://www.eventbrite.com.au/e/body-prison-debut-headline-tickets-1038662486457?aff=ebdssbdestsearch,-37.7743822,144.9606172
FAT’AZZ CHRISTMAS JAZZ,2024-12-21,19:30,Mr Boogie Man Bar,"160 Hoddle St, Abbotsford VIC 3067, Australia",https://www.facebook.com/events/1214289629640110/,-37.80245,144.99295304614787
"""I Find You Interesting"" Single Launch @ the Workers Club",2024-12-21,20:00,The Workers Club,"51 Brunswick St, Fitzroy VIC 3065, Australia",https://www.facebook.com/events/1611932512730889/,-37.8055776,144.9769450659087
"STEVE WADE, ANGUS BURCHALL, PAUL GILDEA & PAUL CARTWRIGHT | The GOOD DOG Band",2024-12-21,00:00,arcobar heatherton,"8 Arco Ln, Heatherton VIC 3202, Australia",https://www.facebook.com/events/1042785300683771/,-37.94673685,145.07837928457485
The Paul Williamson Quartet plays the music of Thelonious Monk,2024-12-21,19:30,Uptown Jazz Cafe,"1/177 Brunswick St, Fitzroy VIC 3065, Australia",https://www.facebook.com/events/1623441711861697/,-37.79705404,144.97869049756974
Last Nite: Indie Party - Melbourne,2024-12-21,23:00,The Night Cat,"137-141 Johnston St, Fitzroy VIC 3065, Australia",https://www.facebook.com/events/599064969124974/,-37.7982971,144.978128
Sunnyside ~ Live (FREE EVENT),2024-12-21,00:00,Section 8,"27-29 Tattersalls Ln, Melbourne VIC 3000, Australia",https://www.facebook.com/events/1573467759943350/,-37.8117457,144.965405
CLUB RIOT Presents: QUEER CHRISTMAS,2024-12-21,00:00,Bad Decisions Bar,"46 Johnston St, Fitzroy VIC 3065, Australia",https://www.facebook.com/events/447593368383988/,-37.798246,144.9762881
 Концерт  ШЕДЕВРЫ РУССКОЙ ФОРТЕПИАННОЙ КЛАССИКИ,2024-12-21,16:00,Russian House Melbourne,"118 Greeves St, Fitzroy VIC 3065, Australia",https://www.facebook.com/events/501496195811935/,-37.79982794,144.97840274927256
Claymore's Celtic Christmas | MEMO Music Hall,2024-12-21,19:00,MEMO Music Hall,"88 Acland St, St Kilda VIC 3182, Australia",https://www.facebook.com/events/1618283352284424/,-37.8671902,144.9786817
"	Leatherman, Frenzee, The States, Elvis II + Comedy at The Last Chance",2024-12-21,19:30,The Last Chance,"238 Victoria St, Melbourne VIC 3000, Australia",https://www.facebook.com/events/1282438913200588/,-37.8059962,144.9585654
Totally 80s BEACH PARTY !!,2024-12-21,20:00,Lucky 13 Garage,"8 Cochranes Rd, Moorabbin VIC 3189, Australia",https://www.facebook.com/events/1216283739601720/,-37.94349189,145.07036236060654
Divination ft. JUNGIST [All Night Long],2024-12-21,23:00,Sub Club Melbourne,"Flinders Ct, Melbourne VIC 3000, Australia",https://www.facebook.com/events/1343408553692178/,-37.81776587,144.96433104920948
"Simona Castricum w Screensaver, Adored",2024-12-21,20:00,Northcote Social Club,"301 High St, Northcote VIC 3070, Australia",https://www.facebook.com/events/1501093537106032/,-37.771471,144.998414
The Melbourne Reunion!,2024-12-21,12:00,Circus Bar,"199 Commercial Rd, South Yarra VIC 3141, Australia",https://www.facebook.com/events/874262478021239/,-37.84659833,144.99210205798175
BARKADA NIGHT: End of Year Party,2024-12-21,00:00,Laundry Bar,"50 Johnston St, Fitzroy VIC 3065, Australia",https://www.facebook.com/events/1255471842433846/,-37.7983139,144.9764962
Meg Washington The Hook Tour,2024-12-21,0:00,Forum Melbourne,"154 Flinders St, Melbourne VIC 3000, Australia",https://www.facebook.com/events/1050478159591938/,-37.81644145,144.9693768124984
Rain of Animals MUSIC at CERES,2024-12-21,00:00,CERES Environment Park,"Stewart St & Roberts St East, Brunswick VIC 3056, Australia",https://www.facebook.com/events/1266601434541670/,-37.765454,144.9831564
"BOLLYWOOD MASQUERADE Night at LA DI DA Nightclub, Melbourne",2024-12-21,22:00,LA DI DA,"577 Little Bourke Street Melbourne, VIC 3000",https://www.eventbrite.com.au/e/bollywood-masquerade-night-at-la-di-da-nightclub-melbourne-tickets-1095850561529?aff=ebdssbdestsearch,-37.8153739,144.955644
Ric Niels (AR) - Joey Smalls/Melbourne,2024-12-21,19:00,Joey Smalls,"284 Sydney Road Brunswick, VIC 3056",https://www.eventbrite.com.au/e/ric-niels-ar-joey-smallsmelbourne-tickets-1105147719579?aff=ebdssbdestsearch,-37.7710648,144.9616319
"PMP Live Instructor Led Certification Training Bootcamp Kew, VIC",2024-12-21,09:00,Kew,"Kew Kew, VIC 3101",https://www.eventbrite.com/e/pmp-live-instructor-led-certification-training-bootcamp-kew-vic-tickets-867983049667?aff=ebdssbdestsearch,-37.800782,145.038298
Market Memories 5th Annual Day Party - Electric Bar,2024-12-21,15:00,Electric Bar,"265-267 Chapel st Prahran, VIC 3181",https://www.eventbrite.com.au/e/market-memories-5th-annual-day-party-electric-bar-tickets-1097847153389?aff=ebdssbdestsearch,-37.8491548,144.9935126
Butt Hole,2024-12-21,20:30,The Butterfly Club,"5 Carson Place Melbourne, VIC 3000",https://www.eventbrite.co.uk/e/butt-hole-tickets-952511015087?aff=ebdssbdestsearch,-37.8154472,144.9652725
XMAS SECRET ROOM,2024-12-21,14:00,3 Freshwater Pl,"3 Freshwater Place Southbank, VIC 3006",https://www.eventbrite.com/e/xmas-secret-room-tickets-1104248229179?aff=ebdssbdestsearch,-37.821617,144.9617206
Solstice Blessing,2024-12-21,14:00,Bentleigh East,"Hodgson Grove Bentleigh East, VIC 3165",https://www.eventbrite.com.au/e/solstice-blessing-tickets-1099622202609?aff=ebdssbdestsearch,-37.9281407,145.0735669
"CHRISTMAS PARTY w/ The Star Starred ""PARTY ANIMALS"" Band",2024-12-21,20:00,Pockets Moorabbin,"168 Chesterville Road Cheltenham, VIC 3192",https://www.eventbrite.com.au/e/christmas-party-w-the-star-starred-party-animals-band-tickets-1056179143249?aff=ebdssbdestsearch,-37.9481004,145.059588
"PMP Live Instructor Led Certification Training Bootcamp Doncaster East, VIC",2024-12-21,09:00,Doncaster East,"Doncaster East Doncaster East, VIC 3109",https://www.eventbrite.com/e/pmp-live-instructor-led-certification-training-bootcamp-doncaster-east-vic-tickets-865629038757?aff=ebdssbdestsearch,-37.7891081,145.1619649
$86 Grampians & Kangaroos Bus Trip Adventure! (super low price!),2024-12-21,09:00,Old Melbourne Gaol,"377 Russell Street Melbourne, VIC 3000",https://www.eventbrite.com/e/86-grampians-kangaroos-bus-trip-adventure-super-low-price-tickets-1106034893139?aff=ebdssbdestsearch,-37.8079389,144.9650674
"Clayton Childbirth education-Labour, Birth & Baby: 21st of Dec, 2024",2024-12-21,08:30,246 Clayton Rd,"246 Clayton Road Clayton, VIC 3168",https://www.eventbrite.com/e/clayton-childbirth-education-labour-birth-baby-21st-of-dec-2024-tickets-1036563478267?aff=ebdssbdestsearch,-37.9205757,145.1227608
"PMP Live Instructor Led Certification Training Bootcamp Coburg, VIC",2024-12-21,09:00,Coburg,"Coburg Coburg, VIC 3058",https://www.eventbrite.com/e/pmp-live-instructor-led-certification-training-bootcamp-coburg-vic-tickets-867979308477?aff=ebdssbdestsearch,-37.7412988,144.9666108
Pentridge Prison B & H Division COMBO Tours - November 2024 - January 2025,2024-12-21,12:30,Pentridge,"1 Champ Street Coburg, VIC 3058",https://www.eventbrite.com.au/e/pentridge-prison-b-h-division-combo-tours-november-2024-january-2025-tickets-909603627937?aff=ebdssbdestsearch,-37.7370508,144.9677596
Paint  And Sip: Painting Partners | Melbourne Painting Class,2024-12-21,14:00,Paint for Fun,"252 Graham Street #Unit 1 Port Melbourne, VIC 3207",https://www.eventbrite.com.au/e/paint-and-sip-painting-partners-melbourne-painting-class-tickets-1004870563907?aff=ebdssbdestsearch,-37.8386895,144.9385483
Anime Rave Melbourne,2024-12-21,20:00,Deluxe Bar,"595 Mount Alexander Road Moonee Ponds, VIC 3039",https://www.eventbrite.com.au/e/anime-rave-melbourne-tickets-1042496995577?aff=ebdssbdestsearch,-37.768313,144.925046
BROOKLYN SATURDAYS - RNB HIPHOP THROWBACKS PARTY LATIN,2024-12-21,21:00,The Black Rabbit,"85 Queen Street Melbourne, VIC 3000",https://www.eventbrite.com/e/brooklyn-saturdays-rnb-hiphop-throwbacks-party-latin-tickets-932351106257?aff=ebdssbdestsearch,-37.81636779999999,144.9611486
Solstice Light Language Transmission,2024-12-21,17:30,Element Wellness and Healing,"144 Saint Kilda Road St Kilda, VIC 3182",https://www.eventbrite.com/e/solstice-light-language-transmission-tickets-1076222623839?aff=ebdssbdestsearch,-37.860313,144.984654
CHERUB 1.0 - Day Party: House. Trance. Dance.,2024-12-21,15:00,Somewhere Bar,"181 Chapel Street Prahran, VIC 3181",https://www.eventbrite.com/e/cherub-10-day-party-house-trance-dance-tickets-1070293489639?aff=ebdssbdestsearch,-37.8515152,144.9930913
"Bollywood Saturdays at Decibles Nightclub, Melbourne",2024-12-21,22:00,Inflation Entertainment Complex,"60 King Street Melbourne, VIC 3000",https://www.eventbrite.com.au/e/bollywood-saturdays-at-decibles-nightclub-melbourne-tickets-1083851883159?aff=ebdssbdestsearch,-37.8188863,144.9571605
YALDA PARTY WITH SHABAHANG MELBOURNE,2024-12-21,19:00,1 Thompsons Rd,"1 Thompsons Road Bulleen, VIC 3105",https://www.eventbrite.com.au/e/yalda-party-with-shabahang-melbourne-tickets-1014171673777?aff=ebdssbdestsearch,-37.7773733,145.0815255
"PMP Live Instructor Led Certification Training Bootcamp Melbourne, VIC",2024-12-21,09:00,Melbourne,"Victoria Melbourne, VIC 3002",https://www.eventbrite.com/e/pmp-live-instructor-led-certification-training-bootcamp-melbourne-vic-tickets-853189732457?aff=ebdssbdestsearch,-37.8076141,144.9721738
Christmas in July in December feat. Titration & Friends,2024-12-21,19:00,280 Sydney Rd,"280 Sydney Road Brunswick, VIC 3056",https://www.eventbrite.com.au/e/christmas-in-july-in-december-feat-titration-friends-tickets-1100885531259?aff=ebdssbdestsearch,-37.7711488,144.9616353
"PMP Live Instructor Led Certification Training Bootcamp Brunswick, VIC",2024-12-21,09:00,Brunswick,"Brunswick Brunswick, VIC 3056",https://www.eventbrite.com/e/pmp-live-instructor-led-certification-training-bootcamp-brunswick-vic-tickets-872035239877?aff=ebdssbdestsearch,-37.7666099,144.9584302
Sneaic Christmas Party Social,2024-12-21,12:00,277 Carlisle St,"277 Carlisle Street Balaclava, VIC 3183",https://www.eventbrite.com/e/sneaic-christmas-party-social-tickets-1098555050729?aff=ebdssbdestsearch,-37.8692781,144.9958484
"PMP Live Instructor Led Certification Training Bootcamp Bundoora, VIC",2024-12-21,09:00,Bundoora,"Bundoora Bundoora, VIC 3083",https://www.eventbrite.com/e/pmp-live-instructor-led-certification-training-bootcamp-bundoora-vic-tickets-867975416837?aff=ebdssbdestsearch,-37.6948854,145.0622727
COY is FOUR! A Fundraiser Party in Celebration of Life in Community.,2024-12-21,19:00,Centre of You,"Upstairs, 217 Chapel St Prahran Melbourne, VIC 3181",https://www.eventbrite.com.au/e/coy-is-four-a-fundraiser-party-in-celebration-of-life-in-community-tickets-1088548209999?aff=ebdssbdestsearch,-37.8509316,144.9933031
HAFFIMEKAMOVE Presents: GYM TAKEOVER with BY.BEZA @ COCHRANES in MOORABBIN,2024-12-21,10:00,Cochranes Gym,"4 Cochranes Road Moorabbin, VIC 3189",https://www.eventbrite.com.au/e/haffimekamove-presents-gym-takeover-with-bybeza-cochranes-in-moorabbin-tickets-1100665713779?aff=ebdssbdestsearch,-37.9422452,145.0607958
"PMP Live Instructor Led Certification Training Bootcamp Northcote, VIC",2024-12-21,09:00,Northcote,"Northcote Northcote, VIC 3070",https://www.eventbrite.com/e/pmp-live-instructor-led-certification-training-bootcamp-northcote-vic-tickets-869321813947?aff=ebdssbdestsearch,-37.7736132,144.9997396
Christmas Concert Gala,2024-12-21,06:00,877 Princes Hwy,"877 Princes Highway Springvale, VIC 3171",https://www.eventbrite.com/e/christmas-concert-gala-tickets-1046607750957?aff=ebdssbdestsearch,-37.930306,145.1506382
"PMP Live Instructor Led Certification Training Bootcamp Camberwell, VIC",2024-12-21,09:00,Camberwell,"Camberwell Camberwell, VIC 3124",https://www.eventbrite.com/e/pmp-live-instructor-led-certification-training-bootcamp-camberwell-vic-tickets-872054326967?aff=ebdssbdestsearch,-37.82665,145.05893
EMO NEVER SLEEPS: 4TH BIRTHDAY PARTY,2024-12-21,14:00,Royal Melbourne Hotel,"629 Bourke Street Melbourne, VIC 3000",https://www.eventbrite.com.au/e/emo-never-sleeps-4th-birthday-party-tickets-816452430197?aff=ebdssbdestsearch,-37.8168528,144.9552468
"PMP Live Instructor Led Certification Training Bootcamp Lalor, VIC",2024-12-21,09:00,Lalor,"Lalor Lalor, VIC 3075",https://www.eventbrite.com/e/pmp-live-instructor-led-certification-training-bootcamp-lalor-vic-tickets-872031077427?aff=ebdssbdestsearch,-37.6650543,145.0107588
Metartworld Summer Kids Art Festival,2024-12-21,10:00,155 Boundary St,"155 Boundary Street Port Melbourne, VIC 3207",https://www.eventbrite.com.au/e/metartworld-summer-kids-art-festival-tickets-1092958721959?aff=ebdssbdestsearch,-37.8266323,144.9408894
Summer Solstice Years End Closing Ritual,2024-12-21,10:30,Gresswell Forest,"Greenwood Drive Bundoora, VIC 3083",https://www.eventbrite.com/e/summer-solstice-years-end-closing-ritual-tickets-1078918657749?aff=ebdssbdestsearch,-37.7060033,145.0668291
The Pirate Christmas Musical at The Lomond Hotel,2024-12-21,21:00,The Lomond Hotel,"225 Nicholson Street Brunswick East, VIC 3057",https://www.eventbrite.com.au/e/the-pirate-christmas-musical-at-the-lomond-hotel-tickets-1077991364189?aff=ebdssbdestsearch,-37.7670861,144.9800057
Anime and manga digital and traditional illustrating club,2024-12-22,11:30,City Library,"253 Flinders Lane Melbourne, VIC 3000",https://www.eventbrite.com.au/e/anime-and-manga-digital-and-traditional-illustrating-club-tickets-1108971346149?aff=ebdssbdestsearch,-37.8171117,144.9660625
Christmas HouseParty,2024-12-22,20:00,18 Mt Alexander Rd,"18 Mount Alexander Road Travancore, VIC 3032",https://www.eventbrite.com.au/e/christmas-houseparty-tickets-1110486939329?aff=ebdssbdestsearch,-37.7850059,144.9387938
Heritage Collective x Tone Deaf Christmas Bowls Edition,2024-12-22,12:00,St Kilda Bowling Club,"66 Fitzroy Street St Kilda, VIC 3182",https://www.eventbrite.com/e/heritage-collective-x-tone-deaf-christmas-bowls-edition-tickets-1090947165339?aff=ebdssbdestsearch,-37.8586547,144.9780845
High Tea on Little Lonsdale,2024-12-22,13:30,Dorsett Melbourne,"615 Little Lonsdale Street Melbourne, VIC 3000",https://www.eventbrite.com.au/e/high-tea-on-little-lonsdale-tickets-1081262809169?aff=ebdssbdestsearch,-37.8139857,144.9532276
Bottomless Evening Soireé,2024-12-22,19:00,"153 Johnston Street, Collingwood VIC, Australia","153 Johnston Street Collingwood, VIC 3066",https://www.eventbrite.com/e/bottomless-evening-soiree-tickets-1093051930749?aff=ebdssbdestsearch,-37.7997248,144.9900509
"SUNDAY - Fitzroy Market (October, November and December 2025)",2024-12-22,10:00,Fitzroy Mills Market,"75 Rose Street Fitzroy, VIC 3065",https://www.eventbrite.com.au/e/sunday-fitzroy-market-october-november-and-december-2025-tickets-1003306696337?aff=ebdssbdestsearch,-37.7956693,144.9779514
Christmas Latin Boat Party 2024  ⛴️,2024-12-22,18:30,Victoria Star Cruises,"30 Victoria Harbour Promenade Docklands, VIC 3008",https://www.eventbrite.com.au/e/christmas-latin-boat-party-2024-tickets-1105106947629?aff=ebdssbdestsearch,-37.8187053,144.9439326
"POETRY & PROSE: Readings ""FREEish"" in Historic Bluestone Cellar c1854",2024-12-22,13:00,"Life's Too Short Bar, Tribeca Arcade, Victoria Parade, East Melbourne VIC, Australia","412 Victoria Parade #Shop 2 East Melbourne, VIC 3002",https://www.eventbrite.com.au/e/poetry-prose-readings-freeish-in-historic-bluestone-cellar-c1854-tickets-805989665787?aff=ebdssbdestsearch,-37.8096207,144.985273
Sound Healing - Vibro Acoustic Sound Bath with Romy,2024-12-22,17:00,Private Studio in St Kilda East (see email for address),"Alma Road St Kilda East, VIC 3183",https://www.eventbrite.com.au/e/sound-healing-vibro-acoustic-sound-bath-with-romy-tickets-1100657599509?aff=ebdssbdestsearch,-37.8626178,145.0005983
Women's Circle: Vision Board Creation for 2025 - Sunday 22nd December,2024-12-22,11:00,Second Story Studios,"222A Johnston Street Collingwood, VIC 3066",https://www.eventbrite.com.au/e/womens-circle-vision-board-creation-for-2025-sunday-22nd-december-tickets-1051464016177?aff=ebdssbdestsearch,-37.799574,144.9924468
The Cartridge Family,2024-12-22,14:30,280 Sydney Rd,"280 Sydney Road Brunswick, VIC 3056",https://www.eventbrite.com.au/e/the-cartridge-family-tickets-1094997349549?aff=ebdssbdestsearch,-37.7711488,144.9616353
MindStain - Headline Show,2024-12-22,19:30,Bad Decisions Bar,"46 Johnston Street Fitzroy, VIC 3065",https://www.eventbrite.com.au/e/mindstain-headline-show-tickets-1095838334959?aff=ebdssbdestsearch,-37.7982682,144.9762913
The Stetson Family Xmas Hoe-Hoe-Hoedown at The Lomond Hotel,2024-12-22,17:00,The Lomond Hotel,"225 Nicholson Street Brunswick East, VIC 3057",https://www.eventbrite.com.au/e/the-stetson-family-xmas-hoe-hoe-hoedown-at-the-lomond-hotel-tickets-1092948912619?aff=ebdssbdestsearch,-37.7670861,144.9800057
Sushi Sundays  at Secret Garden,2024-12-22,14:00,Secret Garden Bar,"60 Fitzroy Street #7 St Kilda, VIC 3182",https://www.eventbrite.com.au/e/sushi-sundays-at-secret-garden-tickets-1027628854567?aff=ebdssbdestsearch,-37.8592634,144.9773182
Fine & Good – Life Drawing at Cyrus Art Lounge,2024-12-22,13:00,Cyrus Artlounge,"277 Lygon Street Carlton, VIC 3053",https://www.eventbrite.com.au/e/fine-good-life-drawing-at-cyrus-art-lounge-tickets-1100704399489?aff=ebdssbdestsearch,-37.7990001,144.9668965
[NEW TRIP] Castlemaine Trip with Bondaroo,2024-12-22,08:40,Southern Cross,"Spencer Street Docklands, VIC 3008",https://www.eventbrite.com.au/e/new-trip-castlemaine-trip-with-bondaroo-registration-1104207788219?aff=ebdssbdestsearch,-37.8169397,144.9531037
Farmstead Yoga Melbourne,2024-12-22,09:30,Second Story Studios,"222A Johnston Street Collingwood, VIC 3066",https://www.eventbrite.com.au/e/farmstead-yoga-melbourne-tickets-1084622397789?aff=ebdssbdestsearch,-37.799574,144.9924468
Summer Breaks Feat. STANTON WARRIORS(UK),2024-12-22,02:00,Howler,"7-11 Dawson Street Brunswick, VIC 3056",https://www.eventbrite.com/e/summer-breaks-feat-stanton-warriorsuk-tickets-1015002187867?aff=ebdssbdestsearch,-37.771511,144.959539
A Workshop Of Love,2024-12-22,15:00,Shell Space,"8 McIver Street Brunswick, VIC 3056",https://www.eventbrite.com.au/e/a-workshop-of-love-tickets-1107060370369?aff=ebdssbdestsearch,-37.768709,144.963746
OPW Wrestling Series: Australia vs India,2024-12-22,16:00,Thornbury Theatre,"859 High Street Thornbury, VIC 3071",https://www.eventbrite.com.au/e/opw-wrestling-series-australia-vs-india-tickets-1077228572659?aff=ebdssbdestsearch,-37.7547965,145.0010423
Casaloca Latin Boat Cruise | Christmas Party | Victoria Star Cruises,2024-12-22,18:30,131 Harbour Esplanade,"131 Harbour Esplanade Docklands, VIC 3008",https://www.eventbrite.com.au/e/casaloca-latin-boat-cruise-christmas-party-victoria-star-cruises-tickets-1083577933769?aff=ebdssbdestsearch,-37.8170713,144.9453813
BC #438 (Last Monday Of The Year),2024-12-22,21:00,onesixone,"161 High Street Prahran, VIC 3181 Australia",https://www.eventbrite.com.au/e/bc-438-last-monday-of-the-year-tickets-1097674567179?aff=ebdssbdestsearch,-37.85173229999999,144.9936589
My Hero's Journey,2024-12-22,18:00,Flagstaff Gardens,"309-311 William Street West Melbourne, VIC 3003",https://www.eventbrite.com.au/e/my-heros-journey-tickets-1112185198869?aff=ebdssbdestsearch,-37.8117066,144.956117
A Mighty Wilde Xmas | MEMO Music Hall,2024-12-22,15:00,MEMO Music Hall,"88 Acland St, St Kilda VIC 3182, Australia",https://www.facebook.com/events/352996231023660/,-37.8671902,144.9786817
MindStain - Headline Show,2024-12-22,0:00,Bad Decisions Bar,"46 Johnston St, Fitzroy VIC 3065, Australia",https://www.facebook.com/events/931526855026096/,-37.798246,144.9762881
Shannen James ‘End of year Christmas Party’ ,2024-12-22,19:00,Northcote Social Club,"301 High St, Northcote VIC 3070, Australia",https://www.facebook.com/events/1076188640677455/,-37.771471,144.998414
Domingo Lation - Sazón,2024-12-22,18:45,The Night Cat,"137-141 Johnston St, Fitzroy VIC 3065, Australia",https://www.facebook.com/events/1115229050013892/,-37.7982971,144.978128
Sarah Story - Revolver Sundays,2024-12-22,21:00,Revolver Upstairs,"Level 2/229 Chapel St, Prahran VIC 3181, Australia",https://www.facebook.com/events/1378465336308228/,-37.8505902,144.9933469
WAY OUT WEST ROOTS MUSIC CLUB XMAS with BLUES BROTHERS REVUE,2024-12-22,14:00,Way Out West Roots Music Club,"4 Market St, Newport VIC 3015, Australia",https://www.facebook.com/events/1932110123954549/,-37.8439028,144.8823845
Summer Breaks Feat. STANTON WARRIORS (UK),2024-12-22,00:00,Howler,"7-11 Dawson St, Brunswick VIC 3056, Australia",https://www.facebook.com/events/1268600394506314/,-37.7720304,144.9596527
Rowena Wise - Mondays in December at the Merri Creek Tavern,2024-12-23,20:00,The Merri Creek Tavern,"111 High St, Northcote VIC 3070, Australia",https://www.facebook.com/events/1141409264013067/,-37.7794356,144.996838
Eve Eve with Darley,2024-12-23,17:00,Portsea Hotel,"3746 Point Nepean Road Portsea, VIC 3944",https://www.eventbrite.com.au/e/eve-eve-with-darley-tickets-1056452310299?aff=ebdssbdestsearch,-38.3197948,144.7146478
Euro Under18s - Goodbye 2024,2024-12-23,17:00,Chasers Nightclub,"386 Chapel Street South Yarra, VIC 3141",https://www.eventbrite.com.au/e/euro-under18s-goodbye-2024-tickets-1039385739727?aff=ebdssbdestsearch,-37.8459028,144.9947039
SUNDOWNERS - WHITE CHRITMAS PARTY,2024-12-23,17:00,West Beach Pavilion,"330A Beaconsfield Parade Saint Kilda West, VIC 3182",https://www.eventbrite.com.au/e/sundowners-white-chritmas-party-tickets-1094934912799?aff=ebdssbdestsearch,-37.8582372,144.9682824
Jamesy,2024-12-23,19:00,Royal Melbourne Hotel,"629 Bourke Street Melbourne, VIC 3000",https://www.eventbrite.com.au/e/jamesy-tickets-1079964897079?aff=ebdssbdestsearch,-37.8168528,144.9552468
"Bollywood Club Presents OYE SANTA SANTA OYE at Crown, Melbourne",2024-12-24,21:30,Crown Melbourne,"8 Whiteman Street Southbank, VIC 3006",https://www.eventbrite.com.au/e/bollywood-club-presents-oye-santa-santa-oye-at-crown-melbourne-tickets-1003415531867?aff=ebdssbdestsearch,-37.82343669999999,144.9580861
Christmas Eve At Half Moon,2024-12-24,16:30,Half Moon,"120 Church Street Brighton, VIC 3186",https://www.eventbrite.com.au/e/christmas-eve-at-half-moon-tickets-1100583397569?aff=ebdssbdestsearch,-37.9156596,144.9960439
International Conference on Environment and Natural Science ((ICENS) - 2024,2024-12-24,10:00,Quest Melbourne Airport,"20 Annandale Road Melbourne Airport, VIC 3045",https://www.eventbrite.com/e/international-conference-on-environment-and-natural-science-icens-2024-tickets-1061914507879?aff=ebdssbdestsearch,-37.7030882,144.8571234
Christmas Eve or Christmas Night Dinner,2024-12-24,18:00,Pullman Melbourne Albert Park,"65 Queens Road Albert Park, VIC 3004",https://www.eventbrite.com.au/e/christmas-eve-or-christmas-night-dinner-tickets-1034646985987?aff=ebdssbdestsearch,-37.8500935,144.978566
Xmasfest Melbourne 2024,2024-12-24,21:00,Billboard The Venue,"170 Russell Street Melbourne, VIC 3000",https://www.eventbrite.com.au/e/xmasfest-melbourne-2024-tickets-1064120746799?aff=ebdssbdestsearch,-37.8119107,144.9680341
EMI x TANG: A WHITE XMAS ft. LOU HOANG [LIVE] | 24 DEC 24 |,2024-12-24,21:30,Ms Collins,"425 Collins Street Melbourne, VIC 3000",https://www.eventbrite.com.au/e/emi-x-tang-a-white-xmas-ft-lou-hoang-live-24-dec-24-tickets-1098734818419?aff=ebdssbdestsearch,-37.8174565,144.9606326
StoryVille | Christmas Eve 2024,2024-12-24,00:00,StoryVille,"185 Lonsdale St, Melbourne VIC 3000, Australia",https://www.facebook.com/events/911427577622565/,-37.81117675,144.9668442406415
 Our 7th Annual Christmas Eve Party With The MARTY ROSE BAND | FREE EVENT,2024-12-24,00:00,arcobar heatherton,"8 Arco Ln, Heatherton VIC 3202, Australia",https://www.facebook.com/events/951834740170084/,-37.94673685,145.07837928457485
Orphan Christmas Eve,2024-12-24,12:00,Lona St Kilda,"Unit 64/66 Acland St, St Kilda VIC 3182, Australia",https://www.facebook.com/events/1965809707236488/,-37.86668052,144.978209
Christmas Eve Carols,2024-12-24,14:00,Studley Park Boathouse,"1 Boathouse Rd, Kew VIC 3101, Australia",https://www.facebook.com/events/1591394861765913/,-37.801382,145.0077832
Trencito Latin Party - Session #10,2024-12-25,01:00,Club Pandora,"127 Dorcas Street South Melbourne, VIC 3205",https://www.eventbrite.com.au/e/trencito-latin-party-session-10-tickets-1100242186999?aff=ebdssbdestsearch,-37.831769,144.96557
Christmas Day Lunch at State Library Victoria,2024-12-25,11:00,State Library Victoria,"328 Swanston Street Melbourne, VIC 3000",https://www.eventbrite.com.au/e/christmas-day-lunch-at-state-library-victoria-tickets-1033510235937?aff=ebdssbdestsearch,-37.8097472,144.9654858
CLUB MODA MELBOURNE | 25.12.24 | XMAS NIGHT,2024-12-25,21:30,Ms Collins,"425 Collins Street Melbourne, VIC 3000",https://www.eventbrite.com.au/e/club-moda-melbourne-251224-xmas-night-tickets-1089620447089?aff=ebdssbdestsearch,-37.8174565,144.9606326
The Breakfast Club Annual Xmas Rave '24,2024-12-25,21:00,Chasers Nightclub,"386 Chapel Street South Yarra, VIC 3141",https://www.eventbrite.com.au/e/the-breakfast-club-annual-xmas-rave-24-tickets-1090388785209?aff=ebdssbdestsearch,-37.8459028,144.9947039
Christmas Day Buffet Lunch at MISTER MUNRO,2024-12-25,12:00,Mister Munro,"215 Little Collins Street Melbourne, VIC 3000",https://www.eventbrite.com.au/e/christmas-day-buffet-lunch-at-mister-munro-tickets-1083505366719?aff=ebdssbdestsearch,-37.8143634,144.9668522
Buffet Lunch on Christmas Day at Stamford Plaza Melbourne,2024-12-25,12:30,Stamford Plaza Melbourne,"111 Little Collins Street Melbourne, VIC 3000",https://www.eventbrite.com.au/e/buffet-lunch-on-christmas-day-at-stamford-plaza-melbourne-tickets-944755076867?aff=ebdssbdestsearch,-37.8135512,144.9699174
Free Queerspace Breakfast on Christmas Morning,2024-12-25,09:00,The Provincial Hotel,"299 Brunswick Street Fitzroy, VIC 3065",https://www.eventbrite.com.au/e/free-queerspace-breakfast-on-christmas-morning-tickets-1098252726469?aff=ebdssbdestsearch,-37.7981304,144.9782003
Technoir's 20th Annual Christmas Party + 20th Birthday,2024-12-25,22:00,New Guernica,"64 Smith Street Collingwood, VIC 3066",https://www.eventbrite.com.au/e/technoirs-20th-annual-christmas-party-20th-birthday-tickets-1097880693709?aff=ebdssbdestsearch,-37.8062529,144.9832565
Discoyoga Christmas,2024-12-25,08:30,63A Ormond Esplanade,"63A Ormond Esplanade Elwood, VIC 3184",https://www.eventbrite.com.au/e/discoyoga-christmas-tickets-1088356245829?aff=ebdssbdestsearch,-37.8876745,144.9838263
Christmas Morning Yoga & Live Music with Feel Good Flows,2024-12-25,08:30,Riviera Beach Club,"42B Marine Parade Elwood, VIC 3184",https://www.eventbrite.com.au/e/christmas-morning-yoga-live-music-with-feel-good-flows-tickets-1093891923189?aff=ebdssbdestsearch,-37.8754261,144.9750806
Christmas Day Lunch | 2024,2024-12-25,12:00,Hyatt Place Event Centre,"1 Larkin Boulevard Essendon Fields, VIC 3041",https://www.eventbrite.com.au/e/christmas-day-lunch-2024-tickets-1037308476577?aff=ebdssbdestsearch,-37.724587,144.8927609
The Grandview Hotel Christmas Buffet Lunch,2024-12-25,12:00,The Grandview Hotel Fairfield,"429 Heidelberg Road Fairfield, VIC 3078",https://www.eventbrite.com/e/the-grandview-hotel-christmas-buffet-lunch-tickets-1038669577667?aff=ebdssbdestsearch,-37.7829172,145.0172514
Christmas Dinner at Blossom Rooftop Bar,2024-12-25,17:00,Pullman Melbourne City Centre,"265 Little Bourke Street Melbourne, VIC 3000",https://www.eventbrite.com.au/e/christmas-dinner-at-blossom-rooftop-bar-tickets-1041729871087?aff=ebdssbdestsearch,-37.81281999999999,144.9647544
Christmas at Taxi Kitchen,2024-12-25,00:00,Taxi Kitchen,"Taxi Kitchen, Transport Hotel, Level 1 Federation Square, Melbourne VIC 3000, Australia",https://www.facebook.com/events/470112345908446/,-37.81820779,144.9683928
Christmas Breakfast at Stamford Plaza Melbourne,2024-12-25,00:00,Stamford Plaza Melbourne,"111 Little Collins St, Melbourne VIC 3000, Australia",https://www.facebook.com/events/3695916687292783/,-37.81359225,144.9700614178762
Christmas Day Lunch at Stamford Plaza Melbourne,2024-12-25,00:00,Stamford Plaza Melbourne,"111 Little Collins St, Melbourne VIC 3000, Australia",https://www.facebook.com/events/3900567380181919/,-37.81359225,144.9700614178762
Christmas Day Buffet Breakfast  at Stamford Plaza Melbourne,2024-12-25,8:30,Stamford Plaza Melbourne,"111 Little Collins Street Melbourne, VIC 3000",https://www.eventbrite.com.au/e/christmas-day-buffet-breakfast-at-stamford-plaza-melbourne-tickets-943834011937?aff=ebdssbdestsearch,-37.8135512,144.9699174
A Riverside Christmas at the Historic South Wharf Cargo Sheds,2024-12-25,11:30,Plus 5,"37 South Wharf Promenade South Wharf, VIC 3006",https://www.eventbrite.com.au/e/a-riverside-christmas-at-the-historic-south-wharf-cargo-sheds-tickets-1036597991497?aff=ebdssbdestsearch,-37.8242038,144.9511298
Hello Santa,2024-12-25,19:00,Diesel Bar & Eatery,"202 Little Lonsdale Street Melbourne, VIC 3000",https://www.eventbrite.com.au/e/hello-santa-tickets-1100733636939?aff=ebdssbdestsearch,-37.8107335,144.9634703
Christmas Day Lunch,2024-12-25,12:00,"Little Collins Street Kitchen, The Sheraton Melbourne","27 Little Collins Street Melbourne, VIC 3000",https://www.eventbrite.com.au/e/christmas-day-lunch-tickets-1001046606347?aff=ebdssbdestsearch,-37.8128985,144.9727786
Christmas Day Lunch at Pullman Melbourne City Centre,2024-12-25,12:30,Pullman Melbourne City Centre,"265 Little Bourke Street Melbourne, VIC 3000",https://www.eventbrite.com.au/e/christmas-day-lunch-at-pullman-melbourne-city-centre-tickets-947556897187?aff=ebdssbdestsearch,-37.81282,144.9647544
Christmas Lunch 2024 at The Royce,2024-12-25,11:30,Royce Hotel,"379 Saint Kilda Road Melbourne, VIC 3004",https://www.eventbrite.com/e/christmas-lunch-2024-at-the-royce-tickets-1100469115749?aff=ebdssbdestsearch,-37.8350802,144.9753496
Christmas Day Lunch at Rippon Lea Estate presented by Showtime Event Group,2024-12-25,11:00,Rippon Lea Estate,"192 Hotham Street Elsternwick, VIC 3185",https://www.eventbrite.com.au/e/christmas-day-lunch-at-rippon-lea-estate-presented-by-showtime-event-group-tickets-1032992808297?aff=ebdssbdestsearch,-37.8786264,144.9978144
Tromba Latin Fiesta • Boxing Day Public Holiday,2024-12-26,20:00,Ms Collins,"425 Collins Street Melbourne, VIC 3000",https://www.eventbrite.com.au/e/tromba-latin-fiesta-boxing-day-public-holiday-tickets-1110010995769?aff=ebdssbdestsearch,-37.8174565,144.9606326
Oasis Club at Spice Market - Boxing Day,2024-12-26,21:00,Spice Market,"Beaney Lane Melbourne, VIC 3000",https://www.eventbrite.com.au/e/oasis-club-at-spice-market-boxing-day-tickets-1088285062919?aff=ebdssbdestsearch,-37.8150914,144.9692403
Chivas Regal presents Tromba Latin Fiesta Ms Collins Boxing Day VIP Booths,2024-12-26,22:00,Ms Collins,"425 Collins Street Melbourne, VIC 3000",https://www.eventbrite.com.au/e/chivas-regal-presents-tromba-latin-fiesta-ms-collins-boxing-day-vip-booths-tickets-1109928559199?aff=ebdssbdestsearch,-37.8174565,144.9606326
"Basement Comedy Club: Thur/Fri/Sat, December 26/27/28",2024-12-26,20:00,Basement Comedy Club,"120 Exhibition Street Melbourne, VIC 3000",https://www.eventbrite.com.au/e/basement-comedy-club-thurfrisat-december-262728-tickets-1104399080379?aff=ebdssbdestsearch,-37.8128722,144.9712049
Eat The Beat : BOXING DAY BOAT PARTY,2024-12-26,5:30,131 Harbour Esplanade,"131 Harbour Esplanade Docklands, VIC 3008",https://www.eventbrite.com.au/e/eat-the-beat-boxing-day-boat-party-tickets-1076278300369?aff=ebdssbdestsearch,-37.81688845,144.9451909021013
"GUERNS THURS BOXING DAY- $4 Pots, Seltzers $6 Vodkas!",2024-12-26,00:00,New Guernica,"64 Smith St, Collingwood VIC 3066, Australia",https://www.facebook.com/events/27811674871809444/,-37.80624775,144.98331211946754
Speed Dating Melbourne | In-Person | Cityswoon | Ages  35-49,2024-12-27,18:30,Polly Bar,"401 Brunswick Street Fitzroy, VIC 3065",https://www.eventbrite.com.au/e/speed-dating-melbourne-in-person-cityswoon-ages-35-49-tickets-1063977548489?aff=ebdssbdestsearch,-37.7950784,144.9786736
DATES OR MATES,2024-12-27,18:00,Beans Bar,"325 Smith Street Fitzroy, VIC 3065",https://www.eventbrite.com/e/dates-or-mates-tickets-1095023457639?aff=ebdssbdestsearch,-37.799338,144.984041
Laundry Wrapped,2024-12-27,00:00,Laundry Bar,"50 Johnston St, Fitzroy VIC 3065, Australia",https://www.facebook.com/events/516667168067263/,-37.7983139,144.9764962
Rolé x Revolver Fridays,2024-12-27,00:00,Revolver Upstairs,"Level 2/229 Chapel St, Prahran VIC 3181, Australia",https://www.facebook.com/events/1025796419591454/,-37.8505902,144.9933469
Mr. McClelland's Finishing School: Not NYE 2024,2024-12-27,00:00,Brunswick Ballroom,"314 Sydney Rd, Brunswick VIC 3056, Australia",https://www.facebook.com/events/1279959309668774/,-37.7704205,144.9617083
Speed Dating | Melbourne | Friday Night | Ages 27-49 | Fancy A Go?,2024-12-27,19:00,The Metropolitan Hotel,"265 William Street Melbourne, VIC 3000",https://www.eventbrite.com/e/speed-dating-melbourne-friday-night-ages-27-49-fancy-a-go-tickets-1068825077579?aff=ebdssbdestsearch,-37.812902,144.9566615
Bone Soup Xmas feat. Mesa Cosa + Daddy Issues,2024-12-27,19:30,Retreat Hotel,"Level 1/280 Sydney Rd, Brunswick VIC 3056, Australia",https://www.facebook.com/events/3929554987326445/,-37.7711487,144.9615949
"(Fri, Dec 27) JOHN KENNEDY & THE NEW ORIGINALS ",2024-12-27,00:00,George Lane St Kilda,"1 George Ln, St Kilda VIC 3182, Australia",https://www.facebook.com/events/455354947587008/,-37.85997305,144.9780306
Speed Dating | Melbourne | Friday Night | Ages 27-49 | SpeedAustralia,2024-12-27,19:00,The Metropolitan Hotel,"265 William Street Melbourne, VIC 3000",https://www.eventbrite.com/e/speed-dating-melbourne-friday-night-ages-27-49-speedaustralia-tickets-1068820082639?aff=ebdssbdestsearch,-37.812902,144.9566615
"Bollywood Club-BANG BANG BHANGRA at Crown, Melbourne",2024-12-27,21:30,Crown Melbourne,"8 Whiteman Street Southbank, VIC 3006",https://www.eventbrite.com.au/e/bollywood-club-bang-bang-bhangra-at-crown-melbourne-tickets-1054830870529?aff=ebdssbdestsearch,-37.82343669999999,144.9580861
PARTY WITH THE STARS Ft PURAV JHA AND MORE,2024-12-27,21:00,Key Club,"117 Lonsdale Street #Level 2 Melbourne, VIC 3000",https://www.eventbrite.com/e/party-with-the-stars-ft-purav-jha-and-more-tickets-1097017943199?aff=ebdssbdestsearch,-37.8105172,144.9688196
Speed Dating | Melbourne | Friday Night | Ages 27-49 | Do You Relish?,2024-12-27,19:00,The Metropolitan Hotel,"265 William Street Melbourne, VIC 3000",https://www.eventbrite.com/e/speed-dating-melbourne-friday-night-ages-27-49-do-you-relish-tickets-1068862790379?aff=ebdssbdestsearch,-37.812902,144.9566615
Summer Holiday Spanish Classes Online (Primary School Years),2024-12-27,09:00,Melbourne,"1 Melbourne, VIC 3000",https://www.eventbrite.com.au/e/summer-holiday-spanish-classes-online-primary-school-years-tickets-1089217672379?aff=ebdssbdestsearch,-37.8074051,144.9607985
Laundry Wrapped,2024-12-27,22:00,Laundry Bar,"50 Johnston Street Fitzroy, VIC 3065",https://www.eventbrite.com.au/e/laundry-wrapped-tickets-1112129652729?aff=ebdssbdestsearch,-37.79831,144.976368
Pink Pony Club: Pop Party - Melbourne,2024-12-27,21:00,The Night Cat,"137-141 Johnston St, Fitzroy VIC 3065, Australia",https://www.facebook.com/events/1229233504871433/,-37.7982971,144.978128
Speed Dating | Melbourne | Friday Night | Ages 27-49 | SpeedMelbourne,2024-12-27,19:00,The Metropolitan Hotel,"265 William Street Melbourne, VIC 3000",https://www.eventbrite.com/e/speed-dating-melbourne-friday-night-ages-27-49-speedmelbourne-tickets-1068808889159?aff=ebdssbdestsearch,-37.812902,144.9566615
BOLLYWOOD MELBOURNE TAKEOVER,2024-12-27,21:00,Billboard Saturdays,"170 Russell Street Melbourne, VIC 3000",https://www.eventbrite.com.au/e/bollywood-melbourne-takeover-tickets-1088434881029?aff=ebdssbdestsearch,-37.8119107,144.9680341
Amalgamation Events Pres. Forbidden Frequencies,2024-12-27,21:00,my aeon,"791 Sydney Road Brunswick, VIC 3056",https://www.eventbrite.com/e/amalgamation-events-pres-forbidden-frequencies-tickets-1033536624867?aff=ebdssbdestsearch,-37.7581868,144.9633301
"HAPPY FRIDAY'S  ' hosted by Nadipha808! """,2024-12-27,22:00,LUX Nightclub Melbourne,"373 Chapel Street #Level 1 South Yarra, VIC 3141",https://www.eventbrite.com.au/e/happy-fridays-hosted-by-nadipha808-tickets-1079072578129?aff=ebdssbdestsearch,-37.846028,144.994078
Kick On End of Year Party,2024-12-28,00:00,Laundry Bar,"50 Johnston St, Fitzroy VIC 3065, Australia",https://www.facebook.com/events/2323825081349519/,-37.7983139,144.9764962
"HOMEBASS ""END OF 2024 PARTY!""",2024-12-28,00:00,Bar 303,"303 High St, Northcote VIC 3070, Australia",https://www.facebook.com/events/2006004016565383/,-37.7713296,144.99828116650363
Sickest House presents :: Nitepunk // Naarm //,2024-12-28,21:00,Bad Decisions Bar,"46 Johnston St, Fitzroy VIC 3065, Australia",https://www.facebook.com/events/941085604175165/,-37.798246,144.9762881
80's Night. End of Year Celebrations!,2024-12-28,20:00,One2three Bar,"123 Queens Parade, Clifton Hill VIC 3068, Australia",https://www.facebook.com/events/1048191586995241/,-37.7892833,144.9901391
Новогодний Вечер в Русском Доме!,2024-12-28,18:00,Russian House Melbourne,"118 Greeves St, Fitzroy VIC 3065, Australia",https://www.facebook.com/events/572872025496167/,-37.79982794,144.97840274927256
"SHIRKHER ""Reunited"" album launch party @Bar Open",2024-12-28,20:30,Bar Open,"317 Brunswick St, Fitzroy VIC 3065, Australia",https://www.facebook.com/events/523578753996319/,-37.79773,144.978425
Dave Lee (FKA Joey Negro) At The Night Cat,2024-12-28,21:00,The Night Cat,"137-141 Johnston St, Fitzroy VIC 3065, Australia",https://www.facebook.com/events/737745015193139/,-37.7982971,144.978128
John Kennedy (solo) w- Ten Gallon Head (duo),2024-12-28,15:30,The Old Bar,"74-76 Johnston St, Fitzroy VIC 3065, Australia",https://www.facebook.com/events/1986418738521475/,-37.79833,144.97711
Joe Camilleri & The Black Sorrows - The Way We Do Business w  guest Freya Josephine Hollick @ MEMO,2024-12-28,19:00,MEMO Music Hall,"88 Acland St, St Kilda VIC 3182, Australia",https://www.facebook.com/events/1281555453213512/,-37.8671902,144.9786817
Laundry presents: THE BEST OF 2025,2024-12-28,00:00,Laundry Bar,"50 Johnston St, Fitzroy VIC 3065, Australia",https://www.facebook.com/events/541932312055890/,-37.7983139,144.9764962
SALSA & DANCEHALL,2024-12-28,20:00,Wax Music Lounge,"250 Flinders St, Melbourne VIC 3000, Australia",https://www.facebook.com/events/2458501564355505/,-37.8176298,144.9661635
"Aardvark, Grim Rhythm, Willie J's 6v6s @ Shotkickers",2024-12-28,20:00,Shotkickers,"744 High St, Thornbury VIC 3071, Australia",https://www.facebook.com/events/547114794606561/,-37.75592655,145.0013923
FUNK PARADE TOUR | MELBOURNE,2024-12-28,22:00,141-145 Commercial Rd,"141-145 Commercial Road South Yarra, VIC 3141",https://www.eventbrite.com.au/e/funk-parade-tour-melbourne-tickets-1079974947139?aff=ebdssbdestsearch,-37.8462997,144.9911964
Japan Night Party!: Presented by MELLIFE JP/EN social community,2024-12-28,21:00,La Di Da,"577 Little Bourke Street Melbourne, VIC 3000",https://www.eventbrite.com.au/e/japan-night-party-presented-by-mellife-jpen-social-community-tickets-1072891069069?aff=ebdssbdestsearch,-37.8153739,144.955644
"Moonlight Broadcast live at Cherry Bar, Saturday DEC 28",2024-12-28,20:00,"Cherry Bar, Little Collins Street, Melbourne VIC, Australia","68 Little Collins Street Melbourne, VIC 3000",https://www.eventbrite.com.au/e/moonlight-broadcast-live-at-cherry-bar-saturday-dec-28-tickets-1108743464549?aff=ebdssbdestsearch,-37.8129293,144.9714986
Kick On End of Year Party,2024-12-28,07:30,Laundry Bar,"50 Johnston Street Fitzroy, VIC 3065",https://www.eventbrite.com.au/e/kick-on-end-of-year-party-tickets-1100589235029?aff=ebdssbdestsearch,-37.79831,144.976368
Empowered Self Circles presents - Masks,2024-12-28,02:30,Beneath The Ferns,"12 Dight Street Collingwood, VIC 3066",https://www.eventbrite.com.au/e/empowered-self-circles-presents-masks-tickets-1106898486169?aff=ebdssbdestsearch,-37.8035126,144.9885404
Countdown to Connections: Pre-New Year's Social!(21-49s/Hosted/AUD 10),2024-12-28,19:00,Melbourne Central Lion,"211 La Trobe Street #level 3 Melbourne, VIC 3000",https://www.eventbrite.co.uk/e/countdown-to-connections-pre-new-years-social21-49shostedaud-10-tickets-1107668148249?aff=ebdssbdestsearch,-37.8105556,144.9630556
Chunk #19 | A Very Beary Christmas | 28.12.2024,2024-12-28,21:00,24 Moons,"2 Arthurton Road Northcote, VIC 3070",https://www.eventbrite.com.au/e/chunk-19-a-very-beary-christmas-28122024-tickets-1077146246419?aff=ebdssbdestsearch,-37.769148,144.9982808
$69 Great Ocean Rd & 12 Apostles Adventure! (super low price!),2024-12-28,09:00,Old Melbourne Gaol,"377 Russell Street Melbourne, VIC 3000",https://www.eventbrite.com.au/e/69-great-ocean-rd-12-apostles-adventure-super-low-price-tickets-1104158470709?aff=ebdssbdestsearch,-37.8079389,144.9650674
The St Kilda Bar Crawl - Isaac's Birthday Edition,2024-12-28,15:00,Red Eye Bar,"17 Carlisle Street St Kilda, VIC 3182",https://www.eventbrite.com.au/e/the-st-kilda-bar-crawl-isaacs-birthday-edition-tickets-1107637797469?aff=ebdssbdestsearch,-37.8672306,144.9801502
BLKN,2024-12-28,17:00,The Saba Rooftop,"300 Plummer Street #Rooftop Port Melbourne, VIC 3207",https://www.eventbrite.com/e/blkn-tickets-1095712297979?aff=ebdssbdestsearch,-37.833951,144.919565
All White Boat Party,2024-12-28,18:00,The Lady Cutler Melbourne Showboat,"131 Harbour Esplanade, Docklands VIC 3008 Ivanhoe, VIC 3079",https://www.eventbrite.com.au/e/all-white-boat-party-tickets-1081563007069?aff=ebdssbdestsearch,-37.8170713,144.9453813
END OF YEAR PARTY 2024 (DND),2024-12-28,22:00,127 Dorcas St,"127 Dorcas Street South Melbourne, VIC 3205",https://www.eventbrite.com/e/end-of-year-party-2024-dnd-tickets-1072841581049?aff=ebdssbdestsearch,-37.831769,144.96557
End Of Year 2024 All White Party,2024-12-28,19:00,4/6 South Rd,"6 South Road #4 Braybrook, VIC 3019",https://www.eventbrite.com.au/e/end-of-year-2024-all-white-party-tickets-1072997547549?aff=ebdssbdestsearch,-37.7922484,144.8609606
OPEN AIR with CRAIG RICHARDS,2024-12-28,15:00,Gravity Club,"420 Little Collins Street Melbourne, VIC 3000",https://www.eventbrite.com/e/open-air-with-craig-richards-tickets-1068885357879?aff=ebdssbdestsearch,-37.8160146,144.9606014
Laundry presents: THE BEST OF 2025,2024-12-28,21:00,Laundry Bar,"50 Johnston Street Fitzroy, VIC 3065",https://www.eventbrite.com.au/e/laundry-presents-the-best-of-2025-tickets-1098417990779?aff=ebdssbdestsearch,-37.79831,144.976368
"END OF YEAR REGGAE, LOVERS, ROCKSTEADY & DANCEHALL PARTY",2024-12-28,21:00,60 King St,"60 King Street Melbourne, VIC 3000",https://www.eventbrite.com.au/e/end-of-year-reggae-lovers-rocksteady-dancehall-party-tickets-1100229930339?aff=ebdssbdestsearch,-37.8188863,144.9571605
"BOLLYWOOD BASH at Inflation Nightclub, Melbourne",2024-12-28,22:00,Inflation Entertainment Complex,"60 King Street Melbourne, VIC 3000",https://www.eventbrite.com.au/e/bollywood-bash-at-inflation-nightclub-melbourne-tickets-1082885332179?aff=ebdssbdestsearch,-37.8188863,144.9571605
PUNK-O-RAMA,2024-12-29,00:00,Bad Decisions Bar,"46 Johnston St, Fitzroy VIC 3065, Australia",https://www.facebook.com/events/998053002044860/,-37.798246,144.9762881
It's Camp: Silly Season Drag Show,2024-12-29,0:00,The Old Bar,"74-76 Johnston St, Fitzroy VIC 3065, Australia",https://www.facebook.com/events/2235427943500413/,-37.79833,144.97711
Xylourides | Brunswick Ballroom,2024-12-29,18:00,Brunswick Ballroom,"314 Sydney Rd, Brunswick VIC 3056, Australia",https://www.facebook.com/events/1765122507651690/,-37.7704205,144.9617083
BrunchBeat Sundays,2024-12-29,14:00,Pre Drinks Bar,"149 Commercial Road South Yarra, VIC 3141",https://www.eventbrite.com.au/e/brunchbeat-sundays-tickets-1111445486369?aff=ebdssbdestsearch,-37.8463162,144.9913793
Caramel Sundays  | 29th December 2024 | GOODBYE 2024,2024-12-29,22:00,Platform One,"375 Flinders Street Melbourne, VIC 3000",https://www.eventbrite.com/e/caramel-sundays-29th-december-2024-goodbye-2024-tickets-1109762502519?aff=ebdssbdestsearch,-37.8191789,144.9621961
Bloom Seddon Melbourne -  Feminine Self Love Experience with Taryn Darlow,2024-12-29,11:00,77 Charles St,"77 Charles Street Seddon, VIC 3011",https://www.eventbrite.com.au/e/bloom-seddon-melbourne-feminine-self-love-experience-with-taryn-darlow-tickets-880700176937?aff=ebdssbdestsearch,-37.8068439,144.8917066
$76 Grampians & Kangaroos Bus Trip Adventure! (super low price!),2024-12-29,09:00,Old Melbourne Gaol,"377 Russell Street Melbourne, VIC 3000",https://www.eventbrite.com.au/e/76-grampians-kangaroos-bus-trip-adventure-super-low-price-tickets-1106034893139?aff=ebdssbdestsearch,-37.8079389,144.9650674
Dinner with Strangers: Melbourne,2024-12-29,19:00,Secret Venue,"Melbourne Melbourne, VIC",https://www.eventbrite.com/e/dinner-with-strangers-melbourne-tickets-966457338917?aff=ebdssbdestsearch,-37.8136276,144.9630576
PUNK-O-RAMA,2024-12-29,07:30,Bad Decisions Bar,"46 Johnston Street Fitzroy, VIC 3065",https://www.eventbrite.com.au/e/punk-o-rama-tickets-1104193716129?aff=ebdssbdestsearch,-37.7982682,144.9762913
Cardfight! Vanguard - Vanguard Day - Gameology CLAYTON SOUTH - 29/12/2024,2024-12-29,12:30,Gameology,"12 Eileen Road Clayton South, VIC 3169",https://www.eventbrite.com.au/e/cardfight-vanguard-vanguard-day-gameology-clayton-south-29122024-tickets-1095838696039?aff=ebdssbdestsearch,-37.9512104,145.1347381
"Sound Healing Melbourne, Black New Moon in Capricorn, Ritual and Sound Bath",2024-12-30,19:30,Private Studio in St Kilda East,"Alma Road St Kilda East, VIC 3183",https://www.eventbrite.com.au/e/sound-healing-melbourne-black-new-moon-in-capricorn-ritual-and-sound-bath-tickets-1100662253429?aff=ebdssbdestsearch,-37.8626178,145.0005983
Solomun,2024-12-30,10:00,Coburg,"30-35 Charles St Coburg Coburg, VIC 3058",https://www.eventbrite.com.au/e/solomun-tickets-1086492200419?aff=ebdssbdestsearch,-37.7309042,144.9571057
"Monday Holiday Comedy at Basement Comedy Club, 8pm",2024-12-30,20:00,Basement Comedy Club,"120 Exhibition Street Melbourne, VIC 3000",https://www.eventbrite.com.au/e/monday-holiday-comedy-at-basement-comedy-club-8pm-tickets-1111248988639?aff=ebdssbdestsearch,-37.8128722,144.9712049
EMO NEVER SLEEPS : NYE 2024,2024-12-31,20:00,Royal Melbourne Hotel,"629 Bourke Street Melbourne, VIC 3000",https://www.eventbrite.com.au/e/emo-never-sleeps-nye-2024-tickets-816487103907?aff=ebdssbdestsearch,-37.8168528,144.9552468
Melbourne Bar Crawl | New Years Eve 24/2025 (The Ultimate NYE Night Out),2024-12-31,19:30,Melbourne Bar Crawl,"Chaise Lounge 105 Queen Street Melbourne, VIC 3000",https://www.eventbrite.com.au/e/melbourne-bar-crawl-new-years-eve-242025-the-ultimate-nye-night-out-tickets-1094698074409?aff=ebdssbdestsearch,-37.816116,144.960926
Electric — New Year’s Eve 2024,2024-12-31,19:00,Electric Bar,"265-267 Chapel st Prahran, VIC 3181",https://www.eventbrite.com.au/e/electric-new-years-eve-2024-tickets-1097736382069?aff=ebdssbdestsearch,-37.8491548,144.9935126
New Year's Eve @ Secret Garden Bar 2024,2024-12-31,17:30,Secret Garden Bar,"60 Fitzroy Street #7 St Kilda, VIC 3182",https://www.eventbrite.com.au/e/new-years-eve-secret-garden-bar-2024-tickets-1091811630979?aff=ebdssbdestsearch,-37.8592634,144.9773182
NYE2024 At Hacienda Cocina Mexicana,2024-12-31,20:00,"m28/3 southgate avenue, Southbank 3006","3 Southgate Avenue Southbank, VIC 3006",https://www.eventbrite.com/e/nye2024-at-hacienda-cocina-mexicana-tickets-1041840020547?aff=ebdssbdestsearch,-37.820556,144.965833
The General Assembly New Year's Eve Party,2024-12-31,18:00,The General Assembly,"29 South Wharf Promenade South Wharf, VIC 3006",https://www.eventbrite.com.au/e/the-general-assembly-new-years-eve-party-tickets-1006486557387?aff=ebdssbdestsearch,-37.8242462,144.9519925
NYE @ The Social,2024-12-31,20:00,The Social Bar,"116 Chapel Street Windsor, VIC 3181",https://www.eventbrite.com.au/e/nye-the-social-tickets-1100556176149?aff=ebdssbdestsearch,-37.8540861,144.9931502
Welcome 2025 NYE | Masquerade Party | George on Collins,2024-12-31,21:00,The George on Collins,"162-168 Collins Street Melbourne, VIC 3000",https://www.eventbrite.com.au/e/welcome-2025-nye-masquerade-party-george-on-collins-tickets-1056381588769?aff=ebdssbdestsearch,-37.8148781,144.9680956
NYE 24/25 - LOVE MACHINE,2024-12-31,21:00,Love Machine,"228A Malvern Road Prahran, VIC 3181",https://www.eventbrite.com.au/e/nye-2425-love-machine-tickets-1093926516659?aff=ebdssbdestsearch,-37.84712409999999,144.9947882
BREW YEAR'S EVE,2024-12-31,20:00,Bad Decisions Bar,"46 Johnston Street Fitzroy, VIC 3065",https://www.eventbrite.com.au/e/brew-years-eve-tickets-1098425493219?aff=ebdssbdestsearch,-37.7982682,144.9762913
THE MASQUERADE | NEW YEARS EVE | MORRIS JONES | DEC 31ST,2024-12-31,19:00,Inca | Morris Jones Restaurant & Cocktail Bar,"163 Chapel Street Windsor, VIC 3181",https://www.eventbrite.com/e/the-masquerade-new-years-eve-morris-jones-dec-31st-tickets-1105309563659?aff=ebdssbdestsearch,-37.8523323,144.9930063
NEW YEARS EVE x BILLBOARD,2024-12-31,21:00,Billboard,"170 Russell Street Melbourne, VIC 3000",https://www.eventbrite.com.au/e/new-years-eve-x-billboard-tickets-1104121520189?aff=ebdssbdestsearch,-37.8119107,144.9680341
NYE @ Prince Alfred Port Melbourne!,2024-12-31,20:00,Prince Alfred Hotel,"355 Bay Street Port Melbourne, VIC 3207",https://www.eventbrite.com/e/nye-prince-alfred-port-melbourne-tickets-1039452830397?aff=ebdssbdestsearch,-37.8353732,144.944953
BOLLYWOOD NYE - LIVE BAND AT BLACK PRINCE,2024-12-31,20:30,The Black Prince - British Indian Restaurant,"45 Bourke Street Melbourne, VIC 3000",https://www.eventbrite.com.au/e/bollywood-nye-live-band-at-black-prince-tickets-1105264749619?aff=ebdssbdestsearch,-37.8119652,144.9719432
New Year’s Eve Under the Stars: Showtime Events Centre & River Pavilion,2024-12-31,19:00,Showtime Events Centre,"61 South Wharf Promenade South Wharf, VIC 3006",https://www.eventbrite.com.au/e/new-years-eve-under-the-stars-showtime-events-centre-river-pavilion-tickets-1096961043009?aff=ebdssbdestsearch,-37.8239794,144.9488373
Ellora  St Kilda - New Years Eve 2024 NYE @ 1 Fitzroy Street,2024-12-31,19:00,Ellora,"1 Fitzroy Street St Kilda, VIC 3182",https://www.eventbrite.com.au/e/ellora-st-kilda-new-years-eve-2024-nye-1-fitzroy-street-tickets-1080117192599?aff=ebdssbdestsearch,-37.8626946,144.9729238
NYE-MIAMI VICE PARTY,2024-12-31,17:00,Blue Diamond,"123 Queen Street #Shop 5 Melbourne, VIC 3000",https://www.eventbrite.com.au/e/nye-miami-vice-party-tickets-1105144209079?aff=ebdssbdestsearch,-37.8157528,144.9607103
THE MARINA PRESENTS NEW YEARS EVE DOCKLANDS 2024 | THE PROMENADE DOCKLANDS,2024-12-31,16:00,The Promenade Docklands,"78 Newquay Promenade #Suite 2, Level 1 Docklands, VIC 3008",https://www.eventbrite.com.au/e/the-marina-presents-new-years-eve-docklands-2024-the-promenade-docklands-tickets-1047706427127?aff=ebdssbdestsearch,-37.8145014,144.9392306
NYE at Arbory Bar & Eatery  2024/25,2024-12-31,18:00,Arbory Bar & Eatery,"1 Flinders Walk Melbourne, VIC 3000",https://www.eventbrite.com.au/e/nye-at-arbory-bar-eatery-202425-tickets-982911383407?aff=ebdssbdestsearch,-37.8190258,144.9660573
NYE at Life's Too Short Bar - LATE SITTINGS,2024-12-31,20:30,"Life's Too Short Bar, Tribeca Arcade, Victoria Parade, East Melbourne VIC, Australia","412 Victoria Parade #Shop 2 East Melbourne, VIC 3002",https://www.eventbrite.com.au/e/nye-at-lifes-too-short-bar-late-sittings-tickets-1100743205559?aff=ebdssbdestsearch,-37.8096207,144.985273
NYEMO APOCALYPSE MELBOURNE - EMO NIGHT NEW YEARS EVE 24/25,2024-12-31,20:00,Deluxe Bar,"595 Mt Alexander Rd Moonee Ponds, VIC 3039",https://www.eventbrite.com/e/nyemo-apocalypse-melbourne-emo-night-new-years-eve-2425-tickets-842574040637?aff=ebdssbdestsearch,-37.768313,144.925046
New Years Eve @ The Stolen Gem Rooftop Bar,2024-12-31,20:30,The Stolen Gem Rooftop Bar,"388 Bourke Street #8 Melbourne, VIC 3000",https://www.eventbrite.com.au/e/new-years-eve-the-stolen-gem-rooftop-bar-tickets-1008825834227?aff=ebdssbdestsearch,-37.8142814,144.9620897
New Years Eve Party 2024,2024-12-31,18:00,"Three Monkeys, 210 Chapel Street, Prahran VIC, Australia","210 Chapel Street Prahran, VIC 3181",https://www.eventbrite.com.au/e/new-years-eve-party-2024-tickets-1110975550779?aff=ebdssbdestsearch,-37.851041,144.993681
New Year’s Eve Rooftop Party at Le Méridien Melbourne,2024-12-31,20:30,Le Méridien Melbourne,"20 Bourke St Melbourne, VIC 3000",https://www.eventbrite.com.au/e/new-years-eve-rooftop-party-at-le-meridien-melbourne-tickets-1095726881599?aff=ebdssbdestsearch,-37.8113901,144.9722393
New Years Eve Cruise with Fireworks,2024-12-31,19:30,131 Harbour Esplanade,"131 Harbour Esplanade Docklands, VIC 3008",https://www.eventbrite.com.au/e/new-years-eve-cruise-with-fireworks-tickets-1080393218199?aff=ebdssbdestsearch,-37.81707129999999,144.9453813
"New Years Eve - ""Sunset on the Yarra"" - Unlimited 6.5hr drinks Package",2024-12-31,20:00,"Metropolis Events - Luxury Wedding Venue, Corporate Event Space & Function Rooms","Metropolis Events - Luxury Wedding Venue, Corporate Event Space & Function Rooms Southbank, VIC 3006",https://www.eventbrite.com.au/e/new-years-eve-sunset-on-the-yarra-unlimited-65hr-drinks-package-tickets-972049675747?aff=ebdssbdestsearch,-37.8199893,144.9670463
Bollywood NYE MADNESS at Pandora Nightclub,2024-12-31,22:00,Club Pandora,"127 Dorcas Street South Melbourne, VIC 3205",https://www.eventbrite.com.au/e/bollywood-nye-madness-at-pandora-nightclub-tickets-981108330427?aff=ebdssbdestsearch,-37.831769,144.96557
New Years Eve 2024 at The Emerald Peacock,2024-12-31,20:00,The Emerald Peacock,"233 Lonsdale Street Melbourne, VIC 3000",https://www.eventbrite.com.au/e/new-years-eve-2024-at-the-emerald-peacock-tickets-1083601032859?aff=ebdssbdestsearch,-37.8115246,144.9655073
The Lowie’s Tartan Hillbilly Hogmanay  at The Lomond Hotel,2024-12-31,21:00,The Lomond Hotel,"225 Nicholson Street Brunswick East, VIC 3057",https://www.eventbrite.com.au/e/the-lowies-tartan-hillbilly-hogmanay-at-the-lomond-hotel-tickets-1096905095669?aff=ebdssbdestsearch,-37.7670861,144.9800057
NYE 2025 - ALL WHITE PARTY,2024-12-31,21:00,Laundry Bar,"50 Johnston Street Fitzroy, VIC 3065",https://www.eventbrite.com.au/e/nye-2025-all-white-party-tickets-1093467192809?aff=ebdssbdestsearch,-37.79831,144.976368
Ponyfish Island NYE Party 2024/2025,2024-12-31,20:00,Ponyfish Island,"Evan Walker Bridge Southbank, VIC 3006",https://www.eventbrite.com/e/ponyfish-island-nye-party-20242025-tickets-1075483984549?aff=ebdssbdestsearch,-37.8199057,144.9650109
Taxi Kitchen New Years Eve 2024/25,2024-12-31,19:30,Taxi Kitchen,"Level 1, Transport Hotel, Federation Square Melbourne, VIC 3000",https://www.eventbrite.com.au/e/taxi-kitchen-new-years-eve-202425-tickets-1033240800047?aff=ebdssbdestsearch,-37.8183938,144.9684217
[NEW YEARS EVE]  - 4 BIG SETS OF EINSTEINS TOYBOYS - DINNER & SHOW,2024-12-31,20:00,Pockets Moorabbin,"168 Chesterville Road Cheltenham, VIC 3192",https://www.eventbrite.com.au/e/new-years-eve-4-big-sets-of-einsteins-toyboys-dinner-show-tickets-1027624993017?aff=ebdssbdestsearch,-37.9481004,145.059588
Golden Countdown - Nye Fireworks Cruise,2024-12-31,19:30,131 Harbour Esplanade,"131 Harbour Esplanade Docklands, VIC 3008",https://www.eventbrite.com.au/e/golden-countdown-nye-fireworks-cruise-tickets-1097935146579?aff=ebdssbdestsearch,-37.81707129999999,144.9453813
NYE House Party - Stomping Ground Collingwood,2024-12-31,18:00,Stomping Ground Brewery & Beer Hall -Collingwood,"100 Gipps St COLLINGWOOD, VIC 3066",https://www.eventbrite.com.au/e/nye-house-party-stomping-ground-collingwood-tickets-1095724283829?aff=ebdssbdestsearch,-37.8046086,144.9910245
Annual NYE Rooftop Party,2024-12-31,19:00,Mt View Hotel,"70 Bridge Rd Richmond, VIC 3121",https://www.eventbrite.com/e/annual-nye-rooftop-party-tickets-1070279828779?aff=ebdssbdestsearch,-37.817951,144.992169
NYE South Bar and Restaurant,2024-12-31,18:00,454 St Kilda Rd,"454 Saint Kilda Road Melbourne, VIC 3004",https://www.eventbrite.com/e/nye-south-bar-and-restaurant-tickets-1095921152669?aff=ebdssbdestsearch,-37.8394552,144.9761617
"New Years Eve 2024/25 - Harbour Kitchen, Docklands Waterfront",2024-12-31,19:00,"The Harbour Kitchen - Function Venues & Rooms Melbourne, Corporate, Birthday, Engagement Party","Shop1 800 Bourke Street Melbourne, VIC 3008",https://www.eventbrite.com.au/e/new-years-eve-202425-harbour-kitchen-docklands-waterfront-tickets-1046293882167?aff=ebdssbdestsearch,-37.8191708,144.9453257
2024 New Year's Eve Party,2024-12-31,22:00,"Melbourne Central Lion, La Trobe Street, Melbourne VIC, Australia","211 La Trobe Street Melbourne, VIC 3000",https://www.eventbrite.com/e/2024-new-years-eve-party-tickets-1100665463029?aff=ebdssbdestsearch,-37.8103652,144.9632155
NYE Dolce Rosso Set Menu Campari x Mr Tompkins,2024-12-31,07:45,Mr Tompkins,"328 Flinders Street Melbourne, VIC 3000",https://www.eventbrite.com.au/e/nye-dolce-rosso-set-menu-campari-x-mr-tompkins-tickets-1094771644459?aff=ebdssbdestsearch,-37.81831330000001,144.9636251
New Years Eve,2024-12-31,17:00,Waterslide Bar,"Shop MR3 Mid Level East End Southgate Building Southbank, VIC 3006",https://www.eventbrite.com.au/e/new-years-eve-tickets-1071486026549?aff=ebdssbdestsearch,-37.8203389,144.9660726
Taxi Kitchen New Years Eve 2024/25 - 5 Courses & Free-Flowing Drinks,2024-12-31,19:30,Taxi Kitchen,"Level 1, Transport Hotel, Federation Square Melbourne, VIC 3000",https://www.eventbrite.com.au/e/taxi-kitchen-new-years-eve-202425-5-courses-free-flowing-drinks-tickets-1033240800047?aff=ebdssbdestsearch,-37.8183938,144.9684217
NEW YEARS EVE @ BEANS - Traffic light party!,2024-12-31,18:00,Beans Bar,"325 Smith Street Fitzroy, VIC 3065",https://www.eventbrite.com/e/new-years-eve-beans-traffic-light-party-tickets-1095024570969?aff=ebdssbdestsearch,-37.799338,144.984041
"Resolution NYE 2024 feat. James Zabiela (UK), Anthony Pappa, Mike Steva",2024-12-31,17:00,Howler,"7-11 Dawson Street Brunswick, VIC 3056",https://www.eventbrite.com/e/resolution-nye-2024-feat-james-zabiela-uk-anthony-pappa-mike-steva-tickets-1048569197697?aff=ebdssbdestsearch,-37.771511,144.959539
Illuminati,2024-12-31,22:00,El Camino Cantina Fitzroy,"222 Brunswick Street Fitzroy, VIC 3065",https://www.eventbrite.com.au/e/illuminati-tickets-1082705765089?aff=ebdssbdestsearch,-37.8009273,144.9782313
LEVELS | NEW YEARS EVE 2024 | 360º BOILER ROOM III,2024-12-31,21:00,Brown Alley,"585 Lonsdale Street Melbourne, VIC 3000",https://www.eventbrite.com.au/e/levels-new-years-eve-2024-360o-boiler-room-iii-tickets-1096268230789?aff=ebdssbdestsearch,-37.81452000000001,144.955082
Futuristic New Year’s Eve with Fireworks view,2024-12-31,21:00,Melbourne Public,"11 Dukes Walk South Wharf, VIC 3006",https://www.eventbrite.com.au/e/futuristic-new-years-eve-with-fireworks-view-tickets-1111244866309?aff=ebdssbdestsearch,-37.8250262,144.9510532
NYE 2024 - GLITTER THEME PARTY & UNLIMITED DRINKS!,2024-12-31,20:00,Craftsman's Corner Bar & Kitchen,"313 Lygon Street Brunswick East, VIC 3057",https://www.eventbrite.com.au/e/nye-2024-glitter-theme-party-unlimited-drinks-tickets-1090727969719?aff=ebdssbdestsearch,-37.7687672,144.971832
Bollywood Party New Year’s Eve with Fireworks view,2024-12-31,21:00,Melbourne Public,"11 Dukes Walk South Wharf, VIC 3006",https://www.eventbrite.com.au/e/bollywood-party-new-years-eve-with-fireworks-view-tickets-1108376747689?aff=ebdssbdestsearch,-37.8250262,144.9510532
New Year's Eve Rooftop Terrace Party,2024-12-31,20:00,AC Hotel by Marriott Melbourne Southbank,"201 Normanby Road Southbank, VIC 3006",https://www.eventbrite.com/e/new-years-eve-rooftop-terrace-party-tickets-1090572163699?aff=ebdssbdestsearch,-37.828592,144.9498768
NEW YEARS EVE IN ELTHAM,2024-12-31,18:00,Missing Gorilla,"70 Commercial Place #1 Eltham, VIC 3095",https://www.eventbrite.com.au/e/new-years-eve-in-eltham-tickets-1034702321497?aff=ebdssbdestsearch,-37.7127434,145.1494258
New Years Eve 2024 | Midnight Masquerade (Melb),2024-12-31,19:00,Fortress Melbourne,"23 Caledonian Lane Melbourne, VIC 3000",https://www.eventbrite.com.au/e/new-years-eve-2024-midnight-masquerade-melb-tickets-1043331842627?aff=ebdssbdestsearch,-37.8120726,144.9637077
Transit Rooftop Bar New Years Eve 2024/25,2024-12-31,19:30,Transit Rooftop Bar,"Level 2, Transport Hotel, Federation Square Melbourne, VIC 3000",https://www.eventbrite.com.au/e/transit-rooftop-bar-new-years-eve-202425-tickets-1033395472677?aff=ebdssbdestsearch,-37.8183938,144.9684217
ALUMBRA | NEW YEARS EVE 2024,2024-12-31,21:00,The Albion Rooftop,"172 York Street South Melbourne, VIC 3205",https://www.eventbrite.com.au/e/alumbra-new-years-eve-2024-tickets-1096197589499?aff=ebdssbdestsearch,-37.8315105,144.9560408
New years Eve at the Botanical Hotel with John Course,2024-12-31,20:00,Botanical Hotel,"169 Domain Rd South Yarra, VIC 3141",https://www.eventbrite.com.au/e/new-years-eve-at-the-botanical-hotel-with-john-course-tickets-1084916818409?aff=ebdssbdestsearch,-37.8342236,144.9817934
New Year's Eve at Blossom Rooftop Bar,2024-12-31,20:00,Blossom Rooftop Bar,"265 Little Bourke Street #Level 14 Melbourne, VIC 3000",https://www.eventbrite.com.au/e/new-years-eve-at-blossom-rooftop-bar-tickets-1040324186647?aff=ebdssbdestsearch,-37.81281999999999,144.9647544
Bollywood Club Presents GLITTER NYE 2025 at Spice Market,2024-12-31,21:00,Spice Market,"Beaney Lane Melbourne, VIC 3000",https://www.eventbrite.com.au/e/bollywood-club-presents-glitter-nye-2025-at-spice-market-tickets-1042543514717?aff=ebdssbdestsearch,-37.8150914,144.9692403
NYE St Kilda - Welcome 2025 - New Years Eve Melbourne 2024,2024-12-31,19:00,Jekyll & Hyde,"175 Acland Street St Kilda, VIC 3182",https://www.eventbrite.com.au/e/nye-st-kilda-welcome-2025-new-years-eve-melbourne-2024-tickets-1057888285339?aff=ebdssbdestsearch,-37.8694465,144.9802119
NYE at Stomping Ground Moorabbin,2024-12-31,19:00,Stomping Ground Brewery & Beer Hall - Morris Moor,"9 Cochranes Road Moorabbin, VIC 3189",https://www.eventbrite.com.au/e/nye-at-stomping-ground-moorabbin-tickets-1086601988799?aff=ebdssbdestsearch,-37.94185969999999,145.0618277
NEW YEAR EVE PARTY,2024-12-31,21:00,Chaise Lounge,"105 Queen Street #Basement Melbourne, VIC 3000",https://www.eventbrite.com.au/e/new-year-eve-party-tickets-1050376844417?aff=ebdssbdestsearch,-37.816116,144.960926
NEW YEARS EVE 2024/25 • FLAMINGO CLUB,2024-12-31,21:00,Platform One,"375 Flinders Street Melbourne, VIC 3000",https://www.eventbrite.com.au/e/new-years-eve-202425-flamingo-club-tickets-1093925032219?aff=ebdssbdestsearch,-37.8191789,144.9621961
SOHO CARNAVAL NEW YEARS EVE 2024/25,2024-12-31,18:30,Soho Restaurant and Bar,"4 Riverside Quay #2 Southbank, VIC 3006",https://www.eventbrite.com.au/e/soho-carnaval-new-years-eve-202425-tickets-1046558453507?aff=ebdssbdestsearch,-37.8208918,144.9633778
DESCEND: Yūgen NYE '24,2024-12-31,22:30,Yugen Dining,"605 Chapel Street South Yarra, VIC 3141",https://www.eventbrite.com.au/e/descend-yugen-nye-24-tickets-1078939329579?aff=ebdssbdestsearch,-37.8392457,144.9952182
NYE at Good Heavens Rooftop 2024/25,2024-12-31,20:00,Good Heavens Rooftop Bar,"79 Bourke Street #level 2 Melbourne, VIC 3000",https://www.eventbrite.com.au/e/nye-at-good-heavens-rooftop-202425-tickets-1047303271277?aff=ebdssbdestsearch,-37.8120759,144.9711426
NYE at AFLOAT 2024/25 - VIP (Upper Deck and Beach Club Packages),2024-12-31,18:00,Afloat,"2 Flinders Walk Melbourne, VIC 3000",https://www.eventbrite.com.au/e/nye-at-afloat-202425-vip-upper-deck-and-beach-club-packages-tickets-982916488677?aff=ebdssbdestsearch,-37.8187977,144.9669369
POOF DOOF New Year's Eve - MELBOURNE,2024-12-31,22:00,Chasers Nightclub,"386 Chapel Street South Yarra, VIC 3141",https://www.eventbrite.com.au/e/poof-doof-new-years-eve-melbourne-tickets-1041742007387?aff=ebdssbdestsearch,-37.8459028,144.9947039
New Years Eve Rooftop Garden Party (NYE),2024-12-31,20:00,Loop Roof,"Level 3 & 4, 23 Meyers Place (Twin-tier rooftop garden) Melbourne, VIC 3000",https://www.eventbrite.com.au/e/new-years-eve-rooftop-garden-party-nye-tickets-1043384821087?aff=ebdssbdestsearch,-37.8121252,144.972165
New Year's Eve Dinner : A Culinary Countdown,2024-12-31,18:00,Stamford Plaza Melbourne,"111 Little Collins Street Melbourne, VIC 3000",https://www.eventbrite.com.au/e/new-years-eve-dinner-a-culinary-countdown-tickets-1066170086429?aff=ebdssbdestsearch,-37.8135512,144.9699174
"NYE 2025 @ The Penny Black, Brunswick",2024-12-31,20:00,The Penny Black,"420 Sydney Road Brunswick, VIC 3056",https://www.eventbrite.com.au/e/nye-2025-the-penny-black-brunswick-tickets-1017200372697?aff=ebdssbdestsearch,-37.768078,144.962174
