Event_Title,Date,Time,Venue,Address,url,Latitude,Longitude,Category
 Harvey Pink’s Flying Bathhouse  Monday Nights in May Residency @ Merri Creek Tavern,2025-05-12,00:00,The Merri Creek Tavern,"111 High St, Northcote VIC 3070, Australia",https://www.facebook.com/events/1871693263592727/,-37.7794356,144.996838,
Professional Pizza Master Class with World pizza champion Daniele Gagliotta,2025-05-12,11:00,Hospitium,"118 Rokeby Street Collingwood, VIC 3066",https://www.eventbrite.com.au/e/professional-pizza-master-class-with-world-pizza-champion-daniele-gagliotta-tickets-1285668411829?aff=ebdssbdestsearch,-37.8050765,144.988639,
The Modern Bride Masterclass,2025-05-12,10:00,159 Parker St,"159 Parker Street Templestowe, VIC 3106",https://www.eventbrite.com.au/e/the-modern-bride-masterclass-tickets-1288037407559?aff=ebdssbdestsearch,-37.7578765,145.129572,Talks/Workshops
Adult Inter/Advanced Lyrical,2025-05-12,11:30,Dance Factory,"225 Swan Street Richmond, VIC 3121",https://www.eventbrite.com.au/e/adult-interadvanced-lyrical-tickets-1316048479429?aff=ebdssbdestsearch,-37.8257354,144.9998261,
Experience Sampling Methods (ESM) for Mental Health Research (hybrid),2025-05-12,09:00,Orygen,"35 Poplar Road Parkville, VIC 3052",https://www.eventbrite.com.au/e/experience-sampling-methods-esm-for-mental-health-research-hybrid-tickets-1315798130629?aff=ebdssbdestsearch,-37.7801959,144.9478953,Talks/Workshops
Style Mastery With Noogie Thai,2025-05-12,11:00,365 Salon Group Education Studio,"1/610 Lorimer Street Port Melbourne, VIC 3207",https://www.eventbrite.com.au/e/style-mastery-with-noogie-thai-tickets-1117092406459?aff=ebdssbdestsearch,-37.8214775,144.9167993,Talks/Workshops
Adult Beginner Ballet,2025-05-12,13:00,Dance Factory,"225 Swan Street Richmond, VIC 3121",https://www.eventbrite.com.au/e/adult-beginner-ballet-tickets-1316066172349?aff=ebdssbdestsearch,-37.8257354,144.9998261,
Adult Beginner/Inter Lyrical,2025-05-12,11:30,Dance Factory,"225 Swan Street Richmond, VIC 3121",https://www.eventbrite.com.au/e/adult-beginnerinter-lyrical-tickets-1316054828419?aff=ebdssbdestsearch,-37.8257354,144.9998261,
Pop Icon Dance - casual classes (South Melbourne),2025-05-12,06:45,Dance World Studios,"295 Bank Street South Melbourne, VIC 3205",https://www.eventbrite.com.au/e/pop-icon-dance-casual-classes-south-melbourne-tickets-1341472443189?aff=ebdssbdestsearch,-37.8362059,144.9552333,
CHERRY BOMB COMEDY @ Lilith!,2025-05-12,06:30,Hail Lilith,"40A Leeds Street Footscray, VIC 3011",https://www.eventbrite.com/e/cherry-bomb-comedy-lilith-tickets-1354316680649?aff=ebdssbdestsearch,-37.8005159,144.9008399,
Hampton House,2025-05-12,19:00,The Butterfly Club,"5 Carson Place Melbourne, VIC 3000",https://www.eventbrite.co.uk/e/hampton-house-tickets-1139336920399?aff=ebdssbdestsearch,-37.8154472,144.9652725,
What To Do When You Kill Your Co-Star,2025-05-12,20:30,The Butterfly Club,"5 Carson Place Melbourne, VIC 3000",https://www.eventbrite.co.uk/e/what-to-do-when-you-kill-your-co-star-tickets-1312397077989?aff=ebdssbdestsearch,-37.8154472,144.9652725,
Adult Inter/Advanced Ballet,2025-05-12,13:00,Dance Factory,"225 Swan Street Richmond, VIC 3121",https://www.eventbrite.com.au/e/adult-interadvanced-ballet-tickets-1316062220529?aff=ebdssbdestsearch,-37.8257354,144.9998261,Art
Adult Drama Classes,2025-05-12,15:00,Dance Factory,"225 Swan Street Richmond, VIC 3121",https://www.eventbrite.com.au/e/adult-drama-classes-tickets-1316070124169?aff=ebdssbdestsearch,-37.8257354,144.9998261,Theatre
Allysha Joy,2025-05-12,12:00,Forum Melbourne,"150 Flinders St, Melbourne VIC 3000, Australia",https://premier.ticketek.com.au/shows/show.aspx?sh=ALLYSHAJ25,-37.8166268,144.9695761,
Viet Kieu: an exciting new book from Thi Le & Jia-Yen Lee,2025-05-12,18:30,Books for Cooks,"115-121 Victoria St Queen Victoria Market Melbourne, VIC 3000",https://www.eventbrite.com.au/e/viet-kieu-an-exciting-new-book-from-thi-le-jia-yen-lee-tickets-1349189374739?aff=ebdssbdestsearch,-37.8062382,144.9576549,Talks/Workshops
Queen Rhi & The Velveteers Monday Residency @ BAR OUSSOU!,2025-05-12,00:00,Bar Oussou,"653 Sydney Rd, Brunswick VIC 3056, Australia",https://www.facebook.com/events/1307070087056751/,-37.7618155,144.9628753,
AUDITIONS & CREW RECRUITMENT- The Mutineers by Tavisshi Dhawan,2025-05-12,11:00,Monash Uni Student Theatre,"Campus Centre, Monash University, 21 Chancellors Walk, Clayton VIC 3168, Australia",https://www.facebook.com/events/1662328867978630/,-37.9117585,145.13241,
Daniel Lozakovich,2025-05-12,19:30,Melbourne Recital Centre,"31 Sturt St, Southbank VIC 3006, Australia",https://www.facebook.com/events/963044655221591/,-37.82408485,144.96758763141432,
CIRCADIAN RHYTHMS,2025-05-12,00:00,Wax Music Lounge,"250 Flinders St, Melbourne VIC 3000, Australia",https://www.facebook.com/events/584862551173325/,-37.8176298,144.9661635,
Tavern Trivia - FREE Gaming & Pop Culture Trivia,2025-05-12,00:00,Fortress Melbourne,"Shop 25/23 Caledonian Ln, Melbourne VIC 3000, Australia",https://www.facebook.com/events/584700344451993/,-37.8120357,144.9642299,
Killer Pool Comp - Mondays,2025-05-12,00:00,Inkerman Hotel,"375 Inkerman St, St Kilda East VIC 3183, Australia",https://www.facebook.com/events/1038406204674063/,-37.866444,144.99799715146656,
"‘Social Sanctuary’ Good Booking Takeover with Maxine Gillon, K Walsh + Ruby Jones",2025-05-12,19:00,Northcote Social Club,"301 High St, Northcote VIC 3070, Australia",https://www.facebook.com/events/1306483090434038/,-37.771471,144.998414,
Form Poetry with Dr Strangesmarty ,2025-05-12,00:00,Mamma Chen's,"42A Albert St, Footscray VIC 3011, Australia",https://www.facebook.com/events/679895627992099/,-37.8047552,144.89727240000002,
"Forró Dance Classes - Term 2, 2025",2025-05-13,06:45,Errol's,"69/71 Errol Street North Melbourne, VIC 3051",https://www.eventbrite.com.au/e/forro-dance-classes-term-2-2025-registration-1325072781359?aff=ebdssbdestsearch,-37.8035381,144.9493366,Sport
Sacred Divine Light Meditation Circle,2025-05-13,19:00,Vyve Meditation Centre,"266 Bolton Street #1A Eltham, VIC 3095",https://www.eventbrite.com.au/e/sacred-divine-light-meditation-circle-tickets-1340099386339?aff=ebdssbdestsearch,-37.720178,145.138187,
Weekly Cuban Dance Class (Tuesday),2025-05-13,19:00,277-283 Queensberry St,"277-283 Queensberry Street Melbourne, VIC 3000",https://www.eventbrite.com/e/weekly-cuban-dance-class-tuesday-tickets-1322790926269?aff=ebdssbdestsearch,-37.80426569999999,144.9592835,Sport
Shake It Off - Your Weekly Dose of Physical & Emotional Fitness.,2025-05-13,18:30,Centre of You,"Upstairs, 217 Chapel St Prahran Melbourne, VIC 3181",https://www.eventbrite.com.au/e/shake-it-off-your-weekly-dose-of-physical-emotional-fitness-tickets-1349675679289?aff=ebdssbdestsearch,-37.8509316,144.9933031,
Non Profit Governance Training - Melbourne - May 2025,2025-05-13,10:00,Melbourne,"Online Melbourne, VIC 3000",https://www.eventbrite.com.au/e/non-profit-governance-training-melbourne-may-2025-registration-1246763576419?aff=ebdssbdestsearch,-37.8152065,144.963937,Talks/Workshops
BRAZLOMBIA,2025-05-13,00:00,Wax Music Lounge,"250 Flinders St, Melbourne VIC 3000, Australia",https://www.facebook.com/events/585678634285012/,-37.8176298,144.9661635,
FULL MOON - Breathwork and Sound Immersion - Awaken Your Inner Flow,2025-05-13,19:00,The Healing Garden Williamstown,"139 Nelson Place Williamstown, VIC 3016",https://www.eventbrite.com.au/e/full-moon-breathwork-and-sound-immersion-awaken-your-inner-flow-tickets-1321144190839?aff=ebdssbdestsearch,-37.863395,144.904683,
Over 50's Beginner Ballet,2025-05-13,11:30,Dance Factory,"225 Swan Street Richmond, VIC 3121",https://www.eventbrite.com.au/e/over-50s-beginner-ballet-tickets-1298814080879?aff=ebdssbdestsearch,-37.8257354,144.9998261,
Pool and Gym Day Pass,2025-05-13,06:30,Stamford Plaza Melbourne,"111 Little Collins Street Melbourne, VIC 3000",https://www.eventbrite.com.au/e/pool-and-gym-day-pass-tickets-1253892559399?aff=ebdssbdestsearch,-37.8135512,144.9699174,
Ben Sorensen's Trivia Experience,2025-05-13,19:00,Hofbräuhaus Melbourne,"18-28 Market Lane Melbourne, VIC 3000",https://www.eventbrite.com.au/e/ben-sorensens-trivia-experience-registration-1225783093229?aff=ebdssbdestsearch,-37.8116657,144.9692918,
Adult Beginner/Inter Commercial Jazz,2025-05-13,10:30,Dance Factory,"225 Swan Street Richmond, VIC 3121",https://www.eventbrite.com.au/e/adult-beginnerinter-commercial-jazz-tickets-1317069944659?aff=ebdssbdestsearch,-37.8257354,144.9998261,
Wangzai Badminton Club ABC Social Events (All levels welcomed),2025-05-13,19:00,Abbotsford Badminton Club | ABC Badminton Club | Badminton Club Near | Best Badminton Club,"18 Flockhart Street Abbotsford, VIC 3067",https://www.eventbrite.com/e/wangzai-badminton-club-abc-social-events-all-levels-welcomed-tickets-1351344731469?aff=ebdssbdestsearch,-37.8094849,145.0077443,
One-shots with D&D Australia -  Where in the World is Daniel Nolddo? (lvl2),2025-05-13,18:00,The Gaming Arena,"123 Bakers Road Coburg North, VIC 3058",https://www.eventbrite.com.au/e/one-shots-with-dd-australia-where-in-the-world-is-daniel-nolddo-lvl2-tickets-1347585377139?aff=ebdssbdestsearch,-37.7266428,144.9549903,Games
Language Acquisition,2025-05-13,14:30,Monash University Clayton Campus,"Wellington Road Clayton, VIC 3800",https://www.eventbrite.com.au/e/language-acquisition-tickets-1322660115009?aff=ebdssbdestsearch,-37.9287241,145.2714722,Talks/Workshops
Tuesday Language Exchange at Diesel bar,2025-05-13,18:00,Diesel Bar & Eatery,"202 Little Lonsdale Street Melbourne, VIC 3000",https://www.eventbrite.com.au/e/tuesday-language-exchange-at-diesel-bar-tickets-1270326423529?aff=ebdssbdestsearch,-37.8107335,144.9634703,
Breathwork and Sound Immersion - Awaken Your Inner Flow,2025-05-13,19:00,The Healing Garden Williamstown,"139 Nelson Place Williamstown, VIC 3016",https://www.eventbrite.com.au/e/breathwork-and-sound-immersion-awaken-your-inner-flow-tickets-1321144190839?aff=ebdssbdestsearch,-37.863395,144.904683,Talks/Workshops
StartSpace Flip The Pitch - In-person event,2025-05-13,16:30,StartSpace (located in the Ideas Quarter at State Library of Victoria),"328 Swanston Street Melbourne, VIC 3000",https://www.eventbrite.com.au/e/startspace-flip-the-pitch-in-person-event-tickets-1306474483349?aff=ebdssbdestsearch,-37.8097472,144.9654858,Business/Networking
Melbourne City Night Photography Course-(Melbourne CBD ),2025-05-13,18:30,CBD,"GPO Buliding Elizabeth St Melbourne, VIC 3000",https://www.eventbrite.com.au/e/melbourne-city-night-photography-course-melbourne-cbd-tickets-998124476177?aff=ebdssbdestsearch,-37.8124778,144.9626801,Art
May 13th 2025 In Person BNI Melbourne City Corporate Networking Event,2025-05-13,06:45,Rendezvous Hotel Melbourne,"328 Flinders Street Melbourne, VIC 3000",https://www.eventbrite.com.au/e/may-13th-2025-in-person-bni-melbourne-city-corporate-networking-event-tickets-1318116525009?aff=ebdssbdestsearch,-37.81831330000001,144.9636251,Business/Networking
Floral Drawing Sessions,2025-05-13,11:30,Caelene Nee Glen,"143 Martin Street Brighton, VIC 3186",https://www.eventbrite.com.au/e/floral-drawing-sessions-tickets-1313384290769?aff=ebdssbdestsearch,-37.8971051,145.0033783,
Founder Connect with Memorres!,2025-05-13,18:00,The Commons QV,"3 Albert Coates Lane Melbourne, VIC 3000",https://www.eventbrite.com.au/e/founder-connect-with-memorres-tickets-1088298733809?aff=ebdssbdestsearch,-37.8109508,144.9653291,Business/Networking
Brava  Women Networking IN PERSON May 13th 2025 - Brighton,2025-05-13,13:00,The Deck  Brighton,"212 Bay Street Brighton, VIC 3186",https://www.eventbrite.com.au/e/brava-women-networking-in-person-may-13th-2025-brighton-tickets-1218901119059?aff=ebdssbdestsearch,-37.9052818,144.999296,Business/Networking
Ale Stars Beer Appreciation Night - Foghorn Brewery,2025-05-13,19:00,The Local Taphouse,"184 Carlisle Street St Kilda East, VIC 3183",https://www.eventbrite.com.au/e/ale-stars-beer-appreciation-night-foghorn-brewery-tickets-1317042622939?aff=ebdssbdestsearch,-37.8681208,144.989994,Social/Dating
Will You Retire Broke? 72% Do Without These Strategies,2025-05-13,06:30,Yarra Yarra Golf Club,"567 Warrigal Road Bentleigh East, VIC 3165",https://www.eventbrite.com.au/e/will-you-retire-broke-72-do-without-these-strategies-tickets-1303813925549?aff=ebdssbdestsearch,-37.9314377,145.0755731,Business/Networking
TRIVIA hosted by COMFORTABLY FUN,2025-05-13,00:00,Mamma Chen's,"42A Albert St, Footscray VIC 3011, Australia",https://www.facebook.com/events/600161499746995/,-37.8047552,144.89727240000002,
Morning Melodies 2025 Season,2025-05-13,00:00,Arts Centre Melbourne,"100 St Kilda Rd, Southbank VIC 3004, Australia",https://www.facebook.com/events/527914670197100/?event_time_id=527914700197097,-37.8216405,144.9683143,
Introduction to Visual Arts,2025-05-13,12:45,Holden Street Neighbourhood House,"128 Holden Street Fitzroy North, VIC 3068",https://www.eventbrite.com.au/e/introduction-to-visual-arts-tickets-1260234237529?aff=ebdssbdestsearch,-37.7801608,144.9845632,
Tix at 12,2025-05-13,00:00,Arts Centre Melbourne,"100 St Kilda Rd, Southbank VIC 3004, Australia",https://www.facebook.com/events/473885795706627/,-37.8216405,144.9683143,
Silent Disco  ~ D&C x Radio Monash,2025-05-13,18:30,Sir John's Bar,"Level, 1 21 Chancellors Walk Campus Centre Clayton, VIC 3800",https://www.eventbrite.com.au/e/silent-disco-dc-x-radio-monash-tickets-1329182443469?aff=ebdssbdestsearch,-37.9118892,145.1329277,Music
Cash Prize POOL COMP,2025-05-13,00:00,Inkerman Hotel,"375 Inkerman St, St Kilda East VIC 3183, Australia",https://www.facebook.com/events/1056315672649917/,-37.866444,144.99799715146656,
Good Neighbours | Melbourne,2025-05-13,19:00,Max Watts,"125 Swanston St, Melbourne VIC 3000, Australia",https://www.facebook.com/events/911709474371459/,-37.8147557,144.9659879,
Meet Cute: A Celebration of Romantic Comedies,2025-05-13,00:00,Lido Cinemas,"675 Glenferrie Rd, Hawthorn VIC 3122, Australia",https://www.facebook.com/events/652154180558242/,-37.8205529,145.0355738,
Mikaella Clements and Onjuli Datta: Feast While You Can [Castlemaine],2025-05-13,00:00,The Wheeler Centre,"176 Little Lonsdale St, Melbourne VIC 3000, Australia",https://www.facebook.com/events/1705117350085695/,-37.8101765,144.9652219,
Max McNown,2025-05-13,12:00,Forum Melbourne,"150 Flinders St, Melbourne VIC 3000, Australia",https://premier.ticketek.com.au/shows/show.aspx?sh=MCNOWN25,-37.8166268,144.9695761,
Klub MUK Open Uke Stage @ Bar 303,2025-05-13,00:00,Bar 303,"303 High St, Northcote VIC 3070, Australia",https://www.facebook.com/events/1342520466895247/?event_time_id=1342520490228578,-37.7713296,144.99828116650363,
Nova Film Club: The Surfer,2025-05-13,18:45,Cinema Nova,"380 Lygon St, Carlton VIC 3053, Australia",https://www.facebook.com/events/1195534932220796/,-37.7978092,144.9680124,
Weekly MTG Commander at The Gaming Arena,2025-05-13,00:00,The Gaming Arena,"123 Bakers Rd, Coburg North VIC 3058, Australia",https://www.facebook.com/events/1541838383370198/,-37.72715826,144.96115535488718,
TACO TUEDAYS,2025-05-13,00:00,Inkerman Hotel,"375 Inkerman St, St Kilda East VIC 3183, Australia",https://www.facebook.com/events/1570429663626220/,-37.866444,144.99799715146656,
Spoken Word @ Bar Oussou!,2025-05-13,00:00,Bar Oussou,"653 Sydney Rd, Brunswick VIC 3056, Australia",https://www.facebook.com/events/807715171482397/,-37.7618155,144.9628753,
The Listening Room - A New Kind of Open Mic,2025-05-14,18:45,Nighthawks,"136 Johnston Street Collingwood, VIC 3066",https://www.eventbrite.com.au/e/the-listening-room-a-new-kind-of-open-mic-tickets-1261682950669?aff=ebdssbdestsearch,-37.7993105,144.989544,Music
A night at Siora Tiramisu - Speed Dating Edition,2025-05-14,19:30,286D Tooronga Rd,"286D Tooronga Road Glen Iris, VIC 3146",https://www.eventbrite.com.au/e/a-night-at-siora-tiramisu-speed-dating-edition-tickets-1353037063279?aff=ebdssbdestsearch,-37.852775,145.0423736,
Leadership Lunch - Harlow Richmond,2025-05-14,12:00,Harlow,"447 Church Street Richmond, VIC 3121",https://www.eventbrite.com.au/e/leadership-lunch-harlow-richmond-tickets-1306185659469?aff=ebdssbdestsearch,-37.8268158,144.9979586,Business/Networking
"Richmond Royalty ft. Richardson, Riewoldt, Bartlett & Roach LIVE!",2025-05-14,19:00,Matthew Flinders Hotel,"667 Warragal Road Chadstone, VIC 3148",https://www.eventbrite.com.au/e/richmond-royalty-ft-richardson-riewoldt-bartlett-roach-live-tickets-1309357907749?aff=ebdssbdestsearch,-37.8766477,145.0922449,Sport
TMC x NorthCo Presents: Career Pathways in Marketing,2025-05-14,05:30,NorthCo Workspaces,"222 Hoddle Street Collingwood, VIC 3067",https://www.eventbrite.co.nz/e/tmc-x-northco-presents-career-pathways-in-marketing-tickets-1323034926079?aff=ebdssbdestsearch,-37.80052939999999,144.9932422,Business/Networking
The Business Guild (TBG)  - Business Networking CONVERGE  -  Docklands,2025-05-14,17:45,The Hub at Docklands,"80 Harbour Esplanade Docklands, VIC 3008",https://www.eventbrite.com.au/e/the-business-guild-tbg-business-networking-converge-docklands-tickets-1319644665719?aff=ebdssbdestsearch,-37.8195389,144.9472509,Business/Networking
Unwind and Restore with Yin Yoga,2025-05-14,19:00,1/216 York St,"216 York Street #1 South Melbourne, VIC 3205",https://www.eventbrite.com.au/e/unwind-and-restore-with-yin-yoga-tickets-1296382788819?aff=ebdssbdestsearch,-37.8322093,144.9538918,
Sunset Strategies: Building Your Retirement Journey,2025-05-14,19:20,"The Bunting Room - Box Hill Golf Club, Station Street, Box Hill South VIC, Australia","202 Station Street Box Hill South, VIC 3128",https://www.eventbrite.com.au/e/sunset-strategies-building-your-retirement-journey-tickets-1302771898819?aff=ebdssbdestsearch,-37.8398065,145.1221654,Talks/Workshops
Bachata ConeXion 'Wednesdays',2025-05-14,18:30,160 Lygon St,"160 Lygon Street Carlton, VIC 3053",https://www.eventbrite.com.au/e/bachata-conexion-wednesdays-tickets-945471108537?aff=ebdssbdestsearch,-37.8034383,144.9667231,
Maton Guitars factory Tour,2025-05-14,10:00,6 Clarice Rd,"6 Clarice Road Box Hill South, VIC 3128",https://www.eventbrite.com.au/e/maton-guitars-factory-tour-tickets-1280363364289?aff=ebdssbdestsearch,-37.8356982,145.1335762,Music
"North West Melb Event “What, where, why and how of online marketing”",2025-05-14,10:00,Velvet Bean Airport West,"35 Louis Street #shop 1002, 29 Airport West, VIC 3042",https://www.eventbrite.com.au/e/north-west-melb-event-what-where-why-and-how-of-online-marketing-tickets-1339389573269?aff=ebdssbdestsearch,-37.7138477,144.8882103,Business/Networking
Cuddle Gathering Fitzroy: connection to self and others,2025-05-14,18:00,Melbourne Shiatsu Fitzroy,"43 Rose Street Fitzroy Melbourne, VIC 3065",https://www.eventbrite.com.au/e/cuddle-gathering-fitzroy-connection-to-self-and-others-tickets-1144994753129?aff=ebdssbdestsearch,-37.7956163,144.9769211,Social/Dating
Adult Intermediate Lyrical,2025-05-14,07:30,Dance Factory,"225 Swan Street Richmond, VIC 3121",https://www.eventbrite.com.au/e/adult-intermediate-lyrical-tickets-1261793220489?aff=ebdssbdestsearch,-37.8257354,144.9998261,Art
Brewers and Chewers,2025-05-14,19:00,The Local Taphouse,"184 Carlisle Street St Kilda East, VIC 3183",https://www.eventbrite.com.au/e/brewers-and-chewers-tickets-1311116367349?aff=ebdssbdestsearch,-37.8681208,144.989994,Social/Dating
Art Playgroup at Little Gecko Cafe,2025-05-14,10:00,Little Gecko Boutique Cafe,"113 Blackshaws Road Newport, VIC 3015",https://www.eventbrite.com.au/e/art-playgroup-at-little-gecko-cafe-tickets-1307567522659?aff=ebdssbdestsearch,-37.8341841,144.8740352,Art
Melbourne Supper Club,2025-05-14,06:30,Cam’s Kiosk (Cafe & Bar),"1 Saint Heliers Street Abbotsford, VIC 3067",https://www.eventbrite.com.au/e/melbourne-supper-club-tickets-1316981449969?aff=ebdssbdestsearch,-37.8031791,145.0037812,Social/Dating
Power Lunch for NDIS professionals | Ndipreneur Melbourne,2025-05-14,13:00,MuNoir,"180 High Street Windsor, VIC 3181",https://www.eventbrite.com.au/e/power-lunch-for-ndis-professionals-ndipreneur-melbourne-tickets-1304070141899?aff=ebdssbdestsearch,-37.852145,144.9942005,Business/Networking
Risk Management: Identifying Governance Red Flags  - Melbourne - May 2025,2025-05-14,18:00,Melbourne,"Online Melbourne, VIC 3000",https://www.eventbrite.com.au/e/risk-management-identifying-governance-red-flags-melbourne-may-2025-registration-1109721339399?aff=ebdssbdestsearch,-37.8152065,144.963937,Talks/Workshops
Shadow Boxing,2025-05-14,19:30,TW Explosives Factory,"67 Inkerman Street St Kilda, VIC 3182",https://www.eventbrite.com.au/e/shadow-boxing-tickets-1116083348339?aff=ebdssbdestsearch,-37.8646651,144.9842743,
The Big Sing’s Big Film (About A Big Sing),2025-05-14,18:30,Cinema Nova,"380 Lygon Street Carlton, VIC 3053",https://www.eventbrite.com.au/e/the-big-sings-big-film-about-a-big-sing-tickets-1305731681609?aff=ebdssbdestsearch,-37.7981335,144.9677286,Cinema
Networking at the Women's Table,2025-05-14,12:30,Four Beans Café and Roasting House,"22 High Street Northcote, VIC 3070",https://www.eventbrite.com.au/e/networking-at-the-womens-table-tickets-1281926680209?aff=ebdssbdestsearch,-37.7828982,144.9968559,Business/Networking
Women's Full Moon Ceremony & Sound Bath - Tune Into Your Inner Wisdom.,2025-05-14,19:00,Centre of You,"Upstairs, 217 Chapel St Prahran Melbourne, VIC 3181",https://www.eventbrite.com.au/e/womens-full-moon-ceremony-sound-bath-tune-into-your-inner-wisdom-tickets-1329308380149?aff=ebdssbdestsearch,-37.8509316,144.9933031,Talks/Workshops
Art Jam Session - 14/05 (Pizza Night),2025-05-14,17:30,The Corner Studio,"582 Barkly Street West Footscray, VIC 3012",https://www.eventbrite.com.au/e/art-jam-session-1405-pizza-night-tickets-1316665384609?aff=ebdssbdestsearch,-37.7971301,144.8768395,Art
Fintech - for trade and investment,2025-05-14,17:30,International Chamber House,"Level 5 121 Exhibition Street Melbourne, VIC 3000",https://www.eventbrite.com.au/e/fintech-for-trade-and-investment-tickets-1341493225349?aff=ebdssbdestsearch,-37.8126466,144.9703748,Business/Networking
Albert Park Loop Evening Walk w/DAN - Easy 5km,2025-05-14,19:00,Public Toilet - Albert Park,"30 Aughtie Drive Albert Park, VIC 3206",https://www.eventbrite.com.au/e/albert-park-loop-evening-walk-wdan-easy-5km-tickets-1343776925959?aff=ebdssbdestsearch,-37.8433729,144.9613557,
Port Melbourne Surf Club to Sandridge Lookout Sunrise Walk w/DAN - Easy 5km,2025-05-14,06:00,Port Melbourne Life Saving Club,"38 Beaconsfield Parade Port Melbourne, VIC 3207",https://www.eventbrite.com.au/e/port-melbourne-surf-club-to-sandridge-lookout-sunrise-walk-wdan-easy-5km-tickets-1343760667329?aff=ebdssbdestsearch,-37.8450696,144.9421546,
Tee30Golf Evening Experience,2025-05-14,19:00,Morack Public Golf,"East Road Vermont South, VIC 3133",https://www.eventbrite.com.au/e/tee30golf-evening-experience-tickets-1248100685749?aff=ebdssbdestsearch,-37.8498303,145.2041047,
Bintani Trade Day 2025,2025-05-14,09:00,Bintani Australia PTY Ltd.,"8 Grange Road Moorabbin Airport, VIC 3194",https://www.eventbrite.com.au/e/bintani-trade-day-2025-tickets-1248999233329?aff=ebdssbdestsearch,-37.9750266,145.08697,Business/Networking
Melbourne CBD Speed Dating for ages 26-44 by Cheeky Events Australia,2025-05-14,19:00,Hophaus Bar,"3 Southgate Avenue Southbank Melbourne, VIC 3006",https://www.eventbrite.com.au/e/melbourne-cbd-speed-dating-for-ages-26-44-by-cheeky-events-australia-tickets-1200348337189?aff=ebdssbdestsearch,-37.820556,144.965833,Social/Dating
"Sound Healing, Full Moon in Scorpio Ritual & Sound Bath",2025-05-14,19:30,Private Studio St Kilda East,"Alma Road St Kilda East, VIC 3183",https://www.eventbrite.com.au/e/sound-healing-full-moon-in-scorpio-ritual-sound-bath-tickets-1333753896809?aff=ebdssbdestsearch,-37.8626178,145.0005983,Talks/Workshops
Age of Sigmar - Casual battles at The Arena ,2025-05-14,00:00,The Gaming Arena,"123 Bakers Rd, Coburg North VIC 3058, Australia",https://www.facebook.com/events/1361807911861091/,-37.72715826,144.96115535488718,
"Battle of the Bands - Heat 1 feat. Alisha.K, Hannah & the Heartstrings, FRANKY, The Rartel, Skiptons",2025-05-14,19:00,Bergy Bandroom,"64 Sydney Rd, Brunswick VIC 3056, Australia",https://www.facebook.com/events/1185171729498212/,-37.776327,144.9607158,
Comedy House presents Peter Helliar,2025-05-14,08:00,Altona Sports Club,"11 Altona Rd, Altona VIC 3018, Australia",https://www.facebook.com/events/937298868404860/,-37.85754867,144.85121805353086,
The Harmonix Experience,2025-05-14,18:00,Bird's Basement,"11 Singers Ln, Melbourne VIC 3000, Australia",https://www.facebook.com/events/3342758949188739/,-37.81114416,144.95680390283175,
Trivia Night,2025-05-14,00:00,Inkerman Hotel,"375 Inkerman St, St Kilda East VIC 3183, Australia",https://www.facebook.com/events/2779506008881959/,-37.866444,144.99799715146656,
MELLOWDÍAS THUMP,2025-05-14,00:00,Wax Music Lounge,"250 Flinders St, Melbourne VIC 3000, Australia",https://www.facebook.com/events/1124371722195700/,-37.8176298,144.9661635,
Julien Wilson's STOCK @ Bar 303 /w Craig Fermanis / Chris Hale / Hugh Harvey,2025-05-14,20:00,Bar 303,"303 High St, Northcote VIC 3070, Australia",https://www.facebook.com/events/8946024622168402/,-37.7713296,144.99828116650363,
OPEN MIC,2025-05-14,00:00,Mamma Chen's,"42A Albert St, Footscray VIC 3011, Australia",https://www.facebook.com/events/669969779283980/,-37.8047552,144.89727240000002,
"Mountains, Rivers EP Launch | The Workers Club Fitzroy ",2025-05-14,19:00,The Workers Club,"51 Brunswick St, Fitzroy VIC 3065, Australia",https://www.facebook.com/events/1910205053117108/,-37.8055776,144.9769450659087,
Salmonella Dub SoundSystem - Look For Gold Melbourne Release Party,2025-05-14,19:00,Brunswick Ballroom,"314 Sydney Rd, Brunswick VIC 3056, Australia",https://www.facebook.com/events/556993310779427/,-37.7704205,144.9617083,
Open Thread,2025-05-14,00:00,Bar 303,"303 High St, Northcote VIC 3070, Australia",https://www.facebook.com/events/3891100891128164/,-37.7713296,144.99828116650363,
Hana & Jessie-Lee's Merri Creek Tavern Residency,2025-05-14,00:00,The Merri Creek Tavern,"111 High St, Northcote VIC 3070, Australia",https://www.facebook.com/events/1293148811941620/,-37.7794356,144.996838,
'Kiss Kiss Bang Bang' Film Screening,2025-05-14,20:00,Northcote Social Club,"301 High St, Northcote VIC 3070, Australia",https://www.facebook.com/events/1182630003330248/,-37.771471,144.998414,
Board Game Social,2025-05-14,00:00,Fortress Melbourne,"Shop 25/23 Caledonian Ln, Melbourne VIC 3000, Australia",https://www.facebook.com/events/2385724768449287/,-37.8120357,144.9642299,
Open Mic & Jam @ BAR OUSSOU! ,2025-05-14,00:00,Bar Oussou,"653 Sydney Rd, Brunswick VIC 3056, Australia",https://www.facebook.com/events/530685326228412/,-37.7618155,144.9628753,
Mastering The Pain Selling Mindset,2025-05-15,17:00,The Commons,"38 Gipps Street Collingwood, VIC 3066",https://www.eventbrite.com/e/mastering-the-pain-selling-mindset-tickets-1316033665119?aff=ebdssbdestsearch,-37.8041282,144.9882914,Business/Networking
CATTO Security - Networking for Small Businesses,2025-05-15,18:00,91 Moreland St,"91 Moreland Street Footscray, VIC 3011",https://www.eventbrite.com.au/e/catto-security-networking-for-small-businesses-tickets-1326121197199?aff=ebdssbdestsearch,-37.8077743,144.9043547,
Away by Michael Gow,2025-05-15,19:30,The MUST Space,"Campus Centre 21 Chancellors Walk Monash University, Clayton, VIC 3800",https://www.eventbrite.com.au/e/away-by-michael-gow-tickets-1324784990569?aff=ebdssbdestsearch,-37.911985,145.1329755,
Personal Values Certification | Map of Me (Melbourne),2025-05-15,09:00,Melbourne CBD,"Melbourne, VIC 3000",https://www.eventbrite.com.au/e/personal-values-certification-map-of-me-melbourne-registration-1321075856449?aff=ebdssbdestsearch,-37.8152065,144.963937,
6th PMO Leadership Symposium - Strategy to Execution: The Future of PMO,2025-05-15,08:00,Stamford Plaza Melbourne,"111 Little Collins Street Melbourne, VIC 3000",https://www.eventbrite.com/e/6th-pmo-leadership-symposium-strategy-to-execution-the-future-of-pmo-tickets-1229565556679?aff=ebdssbdestsearch,-37.8135512,144.9699174,
Adult Play Cafe,2025-05-15,10:00,Miss Lucy,"133 Central Road Nunawading, VIC 3131",https://www.eventbrite.com.au/e/adult-play-cafe-tickets-1323172788429?aff=ebdssbdestsearch,-37.8240234,145.1662571,
Queer Yoga,2025-05-15,05:45,Bridge Darebin - Preston,"218 High Street Preston, VIC 3072",https://www.eventbrite.com.au/e/queer-yoga-tickets-1352971025759?aff=ebdssbdestsearch,-37.744297,145.003275,
ICONIC THURSDAYS - University Special,2025-05-15,21:00,8 Jackson St,"8 Jackson Street Toorak, VIC 3142",https://www.eventbrite.com.au/e/iconic-thursdays-university-special-tickets-1277390773189?aff=ebdssbdestsearch,-37.8401524,145.0079428,
Maybelline is in her Slut Era,2025-05-15,19:00,The Butterfly Club,"5 Carson Place Melbourne, VIC 3000",https://www.eventbrite.co.uk/e/maybelline-is-in-her-slut-era-tickets-1110920766919?aff=ebdssbdestsearch,-37.8154472,144.9652725,
Intro to Digital Marketing Workshop,2025-05-15,09:30,Studio 1 Community Hub,"15 Barnet Way Burnley, VIC 3121",https://www.eventbrite.com.au/e/intro-to-digital-marketing-workshop-tickets-1296328847479?aff=ebdssbdestsearch,-37.8250594,145.0111785,Talks/Workshops
Dr J. Abduo Digital workflows in prosthodontics: reliability and challenges,2025-05-15,18:30,Royal South Yarra Lawn Tennis Club,"310 Williams Road North Toorak, VIC 3142",https://www.eventbrite.com/e/dr-j-abduo-digital-workflows-in-prosthodontics-reliability-and-challenges-tickets-1307468827459?aff=ebdssbdestsearch,-37.8352119,145.0061099,Talks/Workshops
Science Amazing Race,2025-05-15,02:30,"Wholefoods, Campus Centre, Monash University Clayton Campus","Wellington Road Clayton, VIC 3800",https://www.eventbrite.com.au/e/science-amazing-race-tickets-1343753134799?aff=ebdssbdestsearch,-37.9287241,145.2714722,Games
Comedy Night ft Troy Kinne and Tony Martin hosted by Jarryd Goundrey!,2025-05-15,19:00,Welcome to Brunswick,"408 Sydney Road Brunswick, VIC 3056",https://www.eventbrite.com.au/e/comedy-night-ft-troy-kinne-and-tony-martin-hosted-by-jarryd-goundrey-tickets-1331460075929?aff=ebdssbdestsearch,-37.7684338,144.9621623,Comedy
Tax debt: A better view | Melbourne,2025-05-15,15:00,Hotel Nacional,"23-25 Hardware Lane Melbourne, VIC 3000",https://www.eventbrite.com/e/tax-debt-a-better-view-melbourne-tickets-1306061548249?aff=ebdssbdestsearch,-37.8140853,144.9613341,Business/Networking
FoodSocial Wine Tasting - Italian Piemonte Region Wines,2025-05-15,18:00,Mamma's Boy Trattoria,"10 Tripovich Street #6 Brunswick, VIC 3056",https://www.eventbrite.com.au/e/foodsocial-wine-tasting-italian-piemonte-region-wines-tickets-1290783972609?aff=ebdssbdestsearch,-37.76623730000001,144.9617429,Social/Dating
St. Morris Sinners w/ Low Monroe & the fugitives & Zero City,2025-05-15,19:30,280 Sydney Rd,"280 Sydney Road Brunswick, VIC 3056",https://www.eventbrite.com.au/e/st-morris-sinners-w-low-monroe-the-fugitives-zero-city-tickets-1329283485689?aff=ebdssbdestsearch,-37.7711488,144.9616353,Music
The Power of Om - An Inner & Outer Journey of Sound.,2025-05-15,06:30,Centre of You,"Upstairs, 217 Chapel St Prahran Melbourne, VIC 3181",https://www.eventbrite.com.au/e/the-power-of-om-an-inner-outer-journey-of-sound-tickets-1301817072909?aff=ebdssbdestsearch,-37.8509316,144.9933031,Talks/Workshops
Storked,2025-05-15,19:30,Theatre Works,"14 Acland Street St Kilda, VIC 3182",https://www.eventbrite.com.au/e/storked-tickets-1110846073509?aff=ebdssbdestsearch,-37.8639513,144.9758262,
Beautiful Sandringham Evening Clifftop Walk - Easy 5km,2025-05-15,18:20,Sandringham Band Rotunda,"Sandringham Band Rotunda Sandringham, VIC 3191",https://www.eventbrite.com.au/e/beautiful-sandringham-evening-clifftop-walk-easy-5km-tickets-1340616864129?aff=ebdssbdestsearch,-37.9513379,145.0026571,
YIPs Vic Presents: YIP'S TALKS - Public Speaking Workshop,2025-05-15,17:30,QBE Insurance,"839 Collins Street Docklands, VIC 3008",https://www.eventbrite.com.au/e/yips-vic-presents-yips-talks-public-speaking-workshop-tickets-1266664029209?aff=ebdssbdestsearch,-37.8216043,144.944596,Talks/Workshops
CIGARETTES & ALCOHOL,2025-05-15,07:30,The Old Bar,"74-76 Johnston Street Fitzroy, VIC 3065",https://www.eventbrite.com/e/cigarettes-alcohol-tickets-1340557927849?aff=ebdssbdestsearch,-37.7983504,144.977068,Music
Fresh Networking Doncaster - Guest Registration,2025-05-15,07:30,Salted Caramel Cafe,"6 Macedon Road Templestowe Lower, VIC 3107",https://www.eventbrite.com.au/e/fresh-networking-doncaster-guest-registration-tickets-803814529897?aff=ebdssbdestsearch,-37.7728879,145.1127533,Business/Networking
RESOLV SIL Summit - Melbourne,2025-05-15,09:00,Batman's Hill On Collins,"623 Collins Street Melbourne, VIC 3000",https://www.eventbrite.com.au/e/resolv-sil-summit-melbourne-tickets-1114615648409?aff=ebdssbdestsearch,-37.8192254,144.9545527,Business/Networking
Inaugural European Artwork,2025-05-15,19:00,Oud Art Gallery,"493 Collins Street Melbourne, VIC 3000",https://www.eventbrite.com/e/inaugural-european-artwork-tickets-1322015547089?aff=ebdssbdestsearch,-37.8181567,144.9580646,
ARTQUEST MELBOURNE MAY 2025,2025-05-15,06:30,Bells Hotel,"157 Moray Street South Melbourne, VIC 3205",https://www.eventbrite.com.au/e/artquest-melbourne-may-2025-tickets-1348394828229?aff=ebdssbdestsearch,-37.830881,144.9628071,Business/Networking
An Introduction to Dialectical Behaviour Therapy (DBT) - 2-day,2025-05-15,09:00,Spectrum,"110 Church Street Richmond, VIC 3121",https://www.eventbrite.com.au/e/an-introduction-to-dialectical-behaviour-therapy-dbt-2-day-registration-1015760536107?aff=ebdssbdestsearch,-37.8142371,144.9995624,Talks/Workshops
30-45 YO | May15th  | Serves & Sparks:  A Pickleball Social for Singles,2025-05-15,18:00,PicklePlay Indoor Pickleball,"1 South Drive Bentleigh East, VIC 3165",https://www.eventbrite.com.au/e/30-45-yo-may15th-serves-sparks-a-pickleball-social-for-singles-tickets-1322015918199?aff=ebdssbdestsearch,-37.9106715,145.0613664,Social/Dating
Non Profit Grant Writing Training - Melbourne - May 2025,2025-05-15,10:00,Melbourne,"Online Melbourne, VIC 3000",https://www.eventbrite.com.au/e/non-profit-grant-writing-training-melbourne-may-2025-registration-1255129378759?aff=ebdssbdestsearch,-37.8152065,144.963937,Business/Networking
MBN Monthly Networking and Catch-Up:  Thursday 15 May 2025,2025-05-15,17:00,The Wharf Hotel  - World Trade Centre,"18-38 Siddeley Street Melbourne, VIC 3000",https://www.eventbrite.com.au/e/mbn-monthly-networking-and-catch-up-thursday-15-may-2025-tickets-1317025120589?aff=ebdssbdestsearch,-37.8229471,144.9536277,Business/Networking
"Made Studio: Offcuts x Melbourne Design Week 2025, Opening Event",2025-05-15,18:00,175 Rose St,"175 Rose Street Fitzroy, VIC 3065",https://www.eventbrite.com/e/made-studio-offcuts-x-melbourne-design-week-2025-opening-event-tickets-1273303638459?aff=ebdssbdestsearch,-37.796294,144.984031,Art
Implementing the Last Planner System on an energy mega project,2025-05-15,17:00,"Room 408 Hansen Yuncken, Level 4, Glyn Davis Building (MSD), University of Melbourne","Masson Road Parkville, VIC 3052",https://www.eventbrite.com.au/e/implementing-the-last-planner-system-on-an-energy-mega-project-tickets-1353240732459?aff=ebdssbdestsearch,-37.7976557,144.9625097,Business/Networking
Introduction to Neurodiversity: Creative Industries,2025-05-15,18:00,CY Venue,"35 Johnston Street #Unit 2 Collingwood, VIC 3066",https://www.eventbrite.com/e/introduction-to-neurodiversity-creative-industries-tickets-1325106752969?aff=ebdssbdestsearch,-37.7992906,144.9861257,Talks/Workshops
AIBconnect: Melbourne,2025-05-15,17:30,QT Melbourne,"133 Russell Street Melbourne, VIC 3000",https://www.eventbrite.com.au/e/aibconnect-melbourne-tickets-1315790828789?aff=ebdssbdestsearch,-37.8133658,144.9680647,Business/Networking
House Too Crowded - The Hits of Crowded House & Split Enz,2025-05-15,18:00,Bird's Basement,"11 Singers Ln, Melbourne VIC 3000, Australia",https://www.facebook.com/events/642581244812438/,-37.81114416,144.95680390283175,
Back to Back Barries: Live,2025-05-15,19:00,The Wheeler Centre,"176 Little Lonsdale St, Melbourne VIC 3000, Australia",https://www.facebook.com/events/1589921515030886/,-37.8101765,144.9652219,
"GUERNS THURS :$4 Pots, Seltzers $6 Vodkas!",2025-05-15,00:00,New Guernica,"64 Smith St, Collingwood VIC 3066, Australia",https://www.facebook.com/events/1078408274317094/,-37.80624775,144.98331211946754,
Hard Boiled with a live score by The Rookies — FFFA Closing Night at Lido Cinemas,2025-05-15,00:00,Lido Cinemas,"675 Glenferrie Rd, Hawthorn VIC 3122, Australia",https://www.facebook.com/events/1187646752835061/,-37.8205529,145.0355738,
Relays With Great Australian Bank At Lulie Tavern,2025-05-15,21:00,Lulie Tavern,"225 Johnston St, Abbotsford VIC 3067, Australia",https://www.facebook.com/events/537837599384137/,-37.8000264,144.9936498,
Gabby Bernstein: Manifesting Masterclass,2025-05-15,19:30,Palais Theatre,"Lower Esplanade, St Kilda VIC 3182, Australia",https://www.facebook.com/events/552403237527048/,-37.86708671,144.97599656199426,
House of Funk @ Bar Oussou!,2025-05-15,00:00,Bar Oussou,"653 Sydney Rd, Brunswick VIC 3056, Australia",https://www.facebook.com/events/1124932826343750/,-37.7618155,144.9628753,
ANGLERR'S 'GHOSTIE' SINGLE LAUNCH AT LAST CHANCE w/ DYSFUNCTION JUNCTION & SEVEN POUND HALO,2025-05-15,19:00,The Last Chance,"238 Victoria St, Melbourne VIC 3000, Australia",https://www.facebook.com/events/1208822677323478/,-37.8059962,144.9585654,
Rob Papp Band & Thursday Night Jam!,2025-05-15,00:00,Hume Blues Club Inc,"27 Ballantyne St, Thornbury VIC 3071, Australia",https://www.facebook.com/events/1142666094206543/,-37.7588241,144.9985126,
Bollywood dance class,2025-05-16,19:00,La Encantada Collective,"69 Abbotsford Street West Melbourne, VIC 3003",https://www.eventbrite.com.au/e/bollywood-dance-class-tickets-1351391521419?aff=ebdssbdestsearch,-37.8064292,144.9443447,
2025 - Ratio Cocoa Roasters behind the scenes chocolate factory tour,2025-05-16,15:00,Ratio Cocoa Roasters,"186 Sydney Road Brunswick, VIC 3056",https://www.eventbrite.com.au/e/2025-ratio-cocoa-roasters-behind-the-scenes-chocolate-factory-tour-tickets-775425427327?aff=ebdssbdestsearch,-37.7735618,144.9611677,
Williamstown Coastal Loop Sunrise Walk w/DAN - Easy 5.5km,2025-05-16,06:00,Williamstown Beach West end carpark,"unnamed rd, Williamstown Williamstown, VIC 3016",https://www.eventbrite.com.au/e/williamstown-coastal-loop-sunrise-walk-wdan-easy-55km-tickets-1343990605079?aff=ebdssbdestsearch,-37.8571449,144.8813738,
"BOLLYWOOD CLUB Presents Friday Night at Crown, Melbourne",2025-05-16,21:30,Crown Melbourne,"8 Whiteman Street Southbank, VIC 3006",https://www.eventbrite.com.au/e/bollywood-club-presents-friday-night-at-crown-melbourne-tickets-999153042647?aff=ebdssbdestsearch,-37.82343669999999,144.9580861,
"Sound Healing - Five Senses, Nurture Sound Bath with Romy",2025-05-16,19:30,Private Studio in St Kilda East (see email for address),"Alma Road St Kilda East, VIC 3183",https://www.eventbrite.com.au/e/sound-healing-five-senses-nurture-sound-bath-with-romy-tickets-1314439286289?aff=ebdssbdestsearch,-37.8626178,145.0005983,Talks/Workshops
2025 Semester 1 Small Ensembles Concert,2025-05-16,18:00,"G36 Music Auditorium, Monash University Clayton Campus","55 Scenic Blvd Clayton, VIC 3168",https://www.eventbrite.com.au/e/2025-semester-1-small-ensembles-concert-tickets-1354484893779?aff=ebdssbdestsearch,-37.9134948,145.1345606,
Sound Dome - A Breathwork & Sound Journey presented by Jayden McGrath.,2025-05-16,06:30,Centre of You,"Upstairs, 217 Chapel St Prahran Melbourne, VIC 3181",https://www.eventbrite.com.au/e/sound-dome-a-breathwork-sound-journey-presented-by-jayden-mcgrath-tickets-1338145973629?aff=ebdssbdestsearch,-37.8509316,144.9933031,Talks/Workshops
Paint in the Dark© - UV Light Disco Party,2025-05-16,19:00,Paint for Fun,"252 Graham Street #Unit 1 Port Melbourne, VIC 3207",https://www.eventbrite.com.au/e/paint-in-the-dark-uv-light-disco-party-tickets-1254030110819?aff=ebdssbdestsearch,-37.8386895,144.9385483,
Artist Talks - 2025 Blacksmiths Festival,2025-05-16,18:00,Waterside Metal Art Studio,"60 Maribrynong St. Footscray, VIC 3011",https://www.eventbrite.com.au/e/artist-talks-2025-blacksmiths-festival-tickets-1243293407049?aff=ebdssbdestsearch,-37.8035424,144.9078967,Art
"Melbourne Language Exchange | Make Friends, Learn Languages & Culture",2025-05-16,17:30,215 Queen's Restaurant and Bar,"215 Queen St Melbourne, VIC 3000",https://www.eventbrite.com.au/e/melbourne-language-exchange-make-friends-learn-languages-culture-tickets-1059091584439?aff=ebdssbdestsearch,-37.8137882,144.9598785,
Bottomless Drinks for 2 Hours only $55 at Heroes Rooftop Bar!,2025-05-16,18:00,Heroes Bar Melbourne,"188 Bourke Street Melbourne, VIC 3000",https://www.eventbrite.com.au/e/bottomless-drinks-for-2-hours-only-55-at-heroes-rooftop-bar-tickets-1306686928779?aff=ebdssbdestsearch,-37.8126897,144.9676214,
MEPSS Parkville: Bowling Night,2025-05-16,19:00,Kingpin Crown,"8 Whiteman Street Southbank, VIC 3006",https://www.eventbrite.com.au/e/mepss-parkville-bowling-night-tickets-1343536035449?aff=ebdssbdestsearch,-37.82343669999999,144.9580861,Social/Dating
Conscious Connection | Cosmic Connections (Gals aged 25-40),2025-05-16,06:30,She'll Space,"8 McIver Street Brunswick, VIC 3056",https://www.eventbrite.com.au/e/conscious-connection-cosmic-connections-gals-aged-25-40-tickets-1343590739069?aff=ebdssbdestsearch,-37.768709,144.963746,Social/Dating
MPW Movie Night 2025,2025-05-16,17:30,Moonee Ponds West Primary School,"150 Athol Street Moonee Ponds, VIC 3039",https://www.eventbrite.com.au/e/mpw-movie-night-2025-tickets-1266667750339?aff=ebdssbdestsearch,-37.7687611,144.9087706,Cinema
Cherry on Top - a burlesque variety show!,2025-05-16,17:30,The Butterfly Club,"5 Carson Place Melbourne, VIC 3000",https://www.eventbrite.co.uk/e/cherry-on-top-a-burlesque-variety-show-tickets-1326131146959?aff=ebdssbdestsearch,-37.8154472,144.9652725,
Glam Jam - Dance Fitness Class,2025-05-16,06:30,1/177 Beavers Rd,"177 Beavers Road #1 Northcote, VIC 3070",https://www.eventbrite.com.au/e/glam-jam-dance-fitness-class-tickets-1319534847249?aff=ebdssbdestsearch,-37.76567989999999,144.9864456,Sport
Comedy On Tap - May 16th. St Luja - St Kilda,2025-05-16,19:30,St LuJa | Cocktail Bar,"9 Fitzroy Street St Kilda, VIC 3182",https://www.eventbrite.com/e/comedy-on-tap-may-16th-st-luja-st-kilda-tickets-1352068767079?aff=ebdssbdestsearch,-37.8627907,144.9733795,Comedy
No Scripts Given,2025-05-16,20:30,The Butterfly Club,"5 Carson Place Melbourne, VIC 3000",https://www.eventbrite.co.uk/e/no-scripts-given-tickets-1309266303759?aff=ebdssbdestsearch,-37.8154472,144.9652725,
Paint  And Sip: Painting Partners | Melbourne Painting Class,2025-05-16,18:45,Paint for Fun,"252 Graham Street #Unit 1 Port Melbourne, VIC 3207",https://www.eventbrite.com.au/e/paint-and-sip-painting-partners-melbourne-painting-class-tickets-1254028766799?aff=ebdssbdestsearch,-37.8386895,144.9385483,
"Words That Win: Influence, Connect & Convert",2025-05-16,10:00,CLIK Collective Vermont,"203 Rooks Road Vermont, VIC 3133",https://www.eventbrite.com/e/words-that-win-influence-connect-convert-tickets-1335026573419?aff=ebdssbdestsearch,-37.83537099999999,145.1889633,Talks/Workshops
William Alexander and The Northern Shiners at The Lomond Hotel.,2025-05-16,21:00,The Lomond Hotel,"225 Nicholson Street Brunswick East, VIC 3057",https://www.eventbrite.com.au/e/william-alexander-and-the-northern-shiners-at-the-lomond-hotel-tickets-1326140565129?aff=ebdssbdestsearch,-37.7670861,144.9800057,Music
Smartphone Photography: Short Course,2025-05-16,10:00,Burnley Backyard,"49 Tudor Street Richmond, VIC 3121",https://www.eventbrite.com.au/e/smartphone-photography-short-course-tickets-1296340271649?aff=ebdssbdestsearch,-37.823214,145.0123301,
Mooody's 1st Birthday - Trivia Night,2025-05-16,19:00,2 Centre Way,"2 Centre Way Balwyn North, VIC 3104",https://www.eventbrite.com/e/mooodys-1st-birthday-trivia-night-tickets-1295577991649?aff=ebdssbdestsearch,-37.7902583,145.0953382,Social/Dating
Senior Victorian Championships,2025-05-16,07:00,State Sport Centres - Parkville,"10 Brens Drive Parkville, VIC 3052",https://www.eventbrite.com.au/e/senior-victorian-championships-tickets-1343436728419?aff=ebdssbdestsearch,-37.7852815,144.9476719,Sport
CLUB HAPPY HOSTING DJ PEREZ,2025-05-16,22:00,REVEL NIGHTCLUB MELBOURNE,"52 Albert Road South Melbourne, VIC 3205",https://www.eventbrite.com.au/e/club-happy-hosting-dj-perez-tickets-1306677420339?aff=ebdssbdestsearch,-37.8341181,144.97095,Music
Yah Yahs RAVE! FRI MAY 16,2025-05-16,21:00,Yah Yahs,"99 Smith Street Fitzroy, VIC 3065",https://www.eventbrite.com.au/e/yah-yahs-rave-fri-may-16-tickets-1347366642899?aff=ebdssbdestsearch,-37.8058635,144.9829641,Music
THUMP,2025-05-16,21:00,Club Pandora,"127 Dorcas Street South Melbourne, VIC 3205",https://www.eventbrite.com.au/e/thump-tickets-1319857552469?aff=ebdssbdestsearch,-37.83173,144.96553,Music
Feathertop Estate 2025 End of Harvest Dinner,2025-05-16,18:30,The Chandlery,"67 Beach Street Port Melbourne, VIC 3207",https://www.eventbrite.com.au/e/feathertop-estate-2025-end-of-harvest-dinner-tickets-1003314890847?aff=ebdssbdestsearch,-37.8418681,144.9362874,Social/Dating
The Butterfly Brand 10 Year Anniversary,2025-05-16,19:00,All Smiles Melbourne Waterfront,"55 Newquay Promenade Docklands, VIC 3008",https://www.eventbrite.com.au/e/the-butterfly-brand-10-year-anniversary-tickets-1200627562359?aff=ebdssbdestsearch,-37.8152957,144.9413315,Business/Networking
The Italian Night at The George on Collins,2025-05-16,21:00,The George on Collins,"162-168 Collins Street Melbourne, VIC 3000",https://www.eventbrite.com.au/e/the-italian-night-at-the-george-on-collins-tickets-1333527268959?aff=ebdssbdestsearch,-37.8144752,144.9678467,Music
Flashback Fridays - Mix Tape 2 - 80s 90s,2025-05-16,21:00,Chasers Nightclub,"386 Chapel Street South Yarra, VIC 3141",https://www.eventbrite.com.au/e/flashback-fridays-mix-tape-2-80s-90s-tickets-1334984738289?aff=ebdssbdestsearch,-37.8459028,144.9947039,Music
SECRET SOCIETY (A Bolly Rave),2025-05-16,22:00,Brown Alley,"585 Lonsdale Street Melbourne, VIC 3000",https://www.eventbrite.com.au/e/secret-society-a-bolly-rave-tickets-1326246231179?aff=ebdssbdestsearch,-37.8145646,144.9551429,Music
BNI Business By The Beach  Weekly Networking,2025-05-16,06:45,Royal Brighton Yacht Club,"253 Esplanade Middle Brighton, VIC 3186",https://www.eventbrite.com.au/e/bni-business-by-the-beach-weekly-networking-tickets-884664684887?aff=ebdssbdestsearch,-37.9171926,144.9870773,
Shrine of Remembrance + South Yarra City Highlights Walk - Easy 6km,2025-05-16,19:00,Riverland Bar (Outside the bar by the Yarra River),"Federation Wharf Vaults 1-9 Melbourne, VIC 3000",https://www.eventbrite.com.au/e/shrine-of-remembrance-south-yarra-city-highlights-walk-easy-6km-tickets-1345436218949?aff=ebdssbdestsearch,-37.8188223,144.969793,Sport
Spiritual Insights and Information - Q & A evening,2025-05-16,18:30,370 St Kilda Rd,"370 Saint Kilda Road Rooftop Room Melbourne, VIC 3004",https://www.eventbrite.com.au/e/spiritual-insights-and-information-q-a-evening-tickets-1353092188159?aff=ebdssbdestsearch,-37.8317058,144.9710513,Talks/Workshops
Join B2B Exclusive REAL ESTATE Business Community - Blackburn,2025-05-16,09:00,Sapore,"162 Whitehorse Rd Blackburn, VIC 3130",https://www.eventbrite.com.au/e/join-b2b-exclusive-real-estate-business-community-blackburn-tickets-1306079792819?aff=ebdssbdestsearch,-37.8181744,145.1554372,Business/Networking
Gay Men Speed Dating Melbourne | In-Person | Cityswoon | Ages  29-49,2025-05-16,19:00,"Wheat, Wine & Whisky","284 Smith Street Collingwood, VIC 3066",https://www.eventbrite.com.au/e/gay-men-speed-dating-melbourne-in-person-cityswoon-ages-29-49-tickets-1307516128939?aff=ebdssbdestsearch,-37.8008428,144.9842391,
"$119 Wildlife, Chandon, Chocolate & Winery Lunch Yarra Valley",2025-05-16,09:30,Russell Street Extension,"Russell Street Extension Melbourne, VIC 3004",https://www.eventbrite.com.au/e/119-wildlife-chandon-chocolate-winery-lunch-yarra-valley-tickets-1342032207459?aff=ebdssbdestsearch,-37.8174106,144.9702863,
"SONIC ALCHEMY: Sound Bath & Guided Meditation (Moorabbin, Vic)",2025-05-16,19:00,Southern Yoga and Health Centre,"24 Station Street Moorabbin, VIC 3189",https://www.eventbrite.com.au/e/sonic-alchemy-sound-bath-guided-meditation-moorabbin-vic-tickets-1311447557949?aff=ebdssbdestsearch,-37.9344228,145.037409,Talks/Workshops
The Mad Hatters UV Party!,2025-05-16,19:00,24 Moons,"2 Arthurton Road Northcote, VIC 3070",https://www.eventbrite.com.au/e/the-mad-hatters-uv-party-tickets-1246859523399?aff=ebdssbdestsearch,-37.7691172,144.9982721,Music
IDAHOBIT 2025: Ending LGBTIQA+ Discrimination Together,2025-05-16,10:00,Fringe Common Rooms,"Victoria Street Carlton, VIC 3053",https://www.eventbrite.com/e/idahobit-2025-ending-lgbtiqa-discrimination-together-tickets-1317910197879?aff=ebdssbdestsearch,-37.8070051,144.9658001,Talks/Workshops
Writing Folio Workshop!,2025-05-16,16:30,Kathleen Syme Library and Community Centre,"251 Faraday Street Carlton, VIC 3053",https://www.eventbrite.com/e/writing-folio-workshop-registration-1329226595529?aff=ebdssbdestsearch,-37.7986481,144.9652272,
FANTMANIA III @ Sleepless Footscray Festival - Presented by T.R.O.U + FANTM,2025-05-16,18:00,TROU SPACE,"47 Paisley Street Footscray, VIC 3011",https://www.eventbrite.com.au/e/fantmania-iii-sleepless-footscray-festival-presented-by-trou-fantm-tickets-1339347417179?aff=ebdssbdestsearch,-37.8009609,144.8984295,Music
Brave New World with Special Guests,2025-05-16,19:30,Kindred Bandroom,"3 Harris St, Footscray VIC 3011, Australia",https://www.facebook.com/events/1849827322462190/,-37.8119001,144.9008247,
Stamped & Laced Leather Bag at Leffler Leather,2025-05-16,09:00,Leffler Leather,"171 Kensington Road West Melbourne, VIC 3003",https://www.eventbrite.com.au/e/stamped-laced-leather-bag-at-leffler-leather-tickets-1244310288569?aff=ebdssbdestsearch,-37.8002118,144.9177331,Talks/Workshops
Symmetrix and Leipzig Lab,2025-05-16,19:30,One2three Bar,"123 Queens Parade, Clifton Hill VIC 3068, Australia",https://www.facebook.com/events/634741992751444/,-37.7892833,144.9901391,
GROND & friends @ Last Chance,2025-05-16,18:00,The Last Chance,"238 Victoria St, Melbourne VIC 3000, Australia",https://www.facebook.com/events/1027713078828629/,-37.8059962,144.9585654,
ALMA ZYGIER | BRUNSWICK BALLROOM,2025-05-16,18:30,Brunswick Ballroom,"314 Sydney Rd, Brunswick VIC 3056, Australia",https://www.facebook.com/events/948419770450327/,-37.7704205,144.9617083,
Genesis Baroque with Sara Macliver,2025-05-16,00:00,Melbourne Recital Centre,"31 Sturt St, Southbank VIC 3006, Australia",https://www.facebook.com/events/625527203432234/?event_time_id=625527206765567,-37.82408485,144.96758763141432,
Eight Miles High Live at 303 the Bar Northcote,2025-05-16,00:00,Bar 303,"303 High St, Northcote VIC 3070, Australia",https://www.facebook.com/events/580890397634908/,-37.7713296,144.99828116650363,
Ahmed Saad Live in Melbourne,2025-05-16,19:30,Palais Theatre,"Lower Esplanade, St Kilda VIC 3182, Australia",https://www.facebook.com/events/631379322999677/,-37.86708671,144.97599656199426,
Flashback Fridays - Mix Tape 2 - 80s 90s,2025-05-16,00:00,Chasers Nightclub,"386 Chapel St, South Yarra VIC 3141, Australia",https://www.facebook.com/events/569066189541930/,-37.8459118,144.9945123,
Into the Ahh Bass! Vol. 3: The Mad Hatter's UV Party!,2025-05-16,00:00,24 Moons,"2 Arthurton Rd, Northcote VIC 3070, Australia",https://www.facebook.com/events/635330408898052/,-37.7691418,144.9982614,
VISITOR'S DAY BUSINESS NETWORKING BREAKFAST,2025-05-16,00:00,Customs House Hotel Williamstown,"161 Nelson Pl, Williamstown VIC 3016, Australia",https://www.facebook.com/events/2163066034144168/,-37.8630972,144.904029,
time for ‘you’ to shine (Single Launch),2025-05-16,18:00,Mamma Chen's,"42A Albert St, Footscray VIC 3011, Australia",https://www.facebook.com/events/1639966219959514/,-37.8047552,144.89727240000002,
SUCK MY DISCO | onesixone,2025-05-16,22:00,onesixone,"161 High St, Prahran VIC 3181, Australia",https://www.facebook.com/events/1185941043222636/,-37.85425256,145.0112666323418,
YES YES YES,2025-05-16,00:00,The Clocktower Centre,"750 Mt Alexander Rd, Moonee Ponds VIC 3039, Australia",https://www.facebook.com/events/1008162161234346/?event_time_id=1008162171234345,-37.7656716,144.9248037207342,
"Cousin In Law with Phoenix Street, Babchia - Album Launch ",2025-05-16,20:00,The Workers Club,"51 Brunswick St, Fitzroy VIC 3065, Australia",https://www.facebook.com/events/1438261610371458/,-37.8055776,144.9769450659087,
Skyscraper Stan and the Commission Flats - Those Were Days album tour - MELBOURNE,2025-05-16,20:00,The Night Cat,"137-141 Johnston St, Fitzroy VIC 3065, Australia",https://www.facebook.com/events/1169924814851540/,-37.7982971,144.978128,
Xani (Album Launch) + Elana Stone // Northcote Social Club,2025-05-16,20:00,Northcote Social Club,"301 High St, Northcote VIC 3070, Australia",https://www.facebook.com/events/1150717516538578/,-37.771471,144.998414,
Screamarts Melbourne ,2025-05-16,00:00,Howler,"7-11 Dawson St, Brunswick VIC 3056, Australia",https://www.facebook.com/events/3832776910308804/,-37.7720304,144.9596527,
Stay Gold Battle Of The Bands - FINALS,2025-05-16,18:00,Stay Gold,"133 Sydney Rd, Brunswick VIC 3056, Australia",https://www.facebook.com/events/647018421544107/,-37.7743469,144.9607404,
Flashback Fridays - Mix Tape 2 - 80s 90s,2025-05-16,21:00,Chasers Nightclub,"386 Chapel St, South Yarra VIC 3141, Australia",https://www.facebook.com/events/678868078468052/,-37.8459118,144.9945123,
The Southern River Band LIVE at Max Watts - Melbourne,2025-05-16,19:00,Max Watts,"125 Swanston St, Melbourne VIC 3000, Australia",https://www.facebook.com/events/463956433467435/,-37.8147557,144.9659879,
"The Divinyls Story- ""It's A Fine Line"" ",2025-05-16,21:00,Lucky 13 Garage,"8 Cochranes Rd, Moorabbin VIC 3189, Australia",https://www.facebook.com/events/532283989495355/,-37.94349189,145.07036236060654,
"Chris McNulty in Concert with Ben Robertson, Brett Williams, Carl Mackey, Lewis Pierre ",2025-05-16,19:30,Bird's Basement,"11 Singers Ln, Melbourne VIC 3000, Australia",https://www.facebook.com/events/654391620318944/,-37.81114416,144.95680390283175,
Weatherboard House + Greg Steps w/ Camilla Rose Sullivan,2025-05-16,00:00,The Merri Creek Tavern,"111 High St, Northcote VIC 3070, Australia",https://www.facebook.com/events/605106471989729/,-37.7794356,144.996838,
"(Fri, May 16) DELSINKI & THE QUIET COACHMEN + CLINT WILSON & THE RUINS",2025-05-16,00:00,George Lane St Kilda,"1 George Ln, St Kilda VIC 3182, Australia",https://www.facebook.com/events/1327853551793763/,-37.85997305,144.9780306,
Melbourne | Musica Do Circulo | Open workshop for all- 16th of May,2025-05-16,18:15,"Bargoonga Nganjin, North Fitzroy Library","182-186 Saint Georges Road Fitzroy North, VIC 3068",https://www.eventbrite.com/e/melbourne-musica-do-circulo-open-workshop-for-all-16th-of-may-tickets-1342226568799?aff=ebdssbdestsearch,-37.7847278,144.9828535,Talks/Workshops
BNI Horizon Networking,2025-05-16,06:45,Sandringham Yacht Club,"32 Jetty Road Sandringham, VIC 3191",https://www.eventbrite.com.au/e/bni-horizon-networking-tickets-1022460947217?aff=ebdssbdestsearch,-37.9458013,144.9958227,Business/Networking
Landscape in Schools - a 'Children-First' Approach,2025-05-16,08:30,City of Melbourne Bowls Club,"Flagstaff Gardens Dudley Street West Melbourne, VIC 3003",https://www.eventbrite.com.au/e/landscape-in-schools-a-children-first-approach-tickets-1204476554799?aff=ebdssbdestsearch,-37.8105577,144.9545199,Talks/Workshops
"Basement Comedy Club: Friday/Saturday, May 16-17",2025-05-16,20:00,Basement Comedy Club,"120 Exhibition Street Melbourne, VIC 3000",https://www.eventbrite.com.au/e/basement-comedy-club-fridaysaturday-may-16-17-tickets-1350871104839?aff=ebdssbdestsearch,-37.8128722,144.9712049,
Glitz & Glam Cruise Party - MoMU x SSS,2025-05-16,18:00,Lady Cutler Melbourne Showboat,"131 Harbour Esplanade Docklands, VIC 3008",https://www.eventbrite.com.au/e/glitz-glam-cruise-party-momu-x-sss-tickets-1335071186859?aff=ebdssbdestsearch,-37.81707129999999,144.9453813,Social/Dating
Novel presents Multinotes Showcase with Lehar & ﻿Samantha Loveridge,2025-05-16,10:00,Sub Club Melbourne,"Flinders Court Melbourne, VIC 3000",https://www.eventbrite.com.au/e/novel-presents-multinotes-showcase-with-lehar-samantha-loveridge-tickets-1319604024159?aff=ebdssbdestsearch,-37.8179755,144.9644539,Music
Max Koenig LIVE at 303,2025-05-16,20:00,Bar 303,"303 High St, Northcote VIC 3070, Australia",https://www.facebook.com/events/615545801176307/,-37.7713296,144.99828116650363,
"MYSTERY & AVALANCHE w/ MALICY @ CHERRY BAR, MELB",2025-05-16,20:00,"Cherry Bar, Little Collins Street, Melbourne VIC, Australia","68 Little Collins Street Melbourne, VIC 3000",https://www.eventbrite.com.au/e/mystery-avalanche-w-malicy-cherry-bar-melb-tickets-1301635279159?aff=ebdssbdestsearch,-37.8129293,144.9714986,Music
PAKKA LOCAL CH 7 FT BABY JEAN Melbourne,2025-05-16,21:00,Royal Melbourne Hotel,"629 Bourke Street Melbourne, VIC 3000",https://www.eventbrite.com.au/e/pakka-local-ch-7-ft-baby-jean-melbourne-tickets-1288043084539?aff=ebdssbdestsearch,-37.8168528,144.9552468,Music
REGGAE AND DANCEHALL JAM SESSION,2025-05-16,20:00,Kindred Bandroom,"3 Harris St, Footscray VIC 3011, Australia",https://www.facebook.com/events/984185133488106/,-37.8119001,144.9008247,
Bebe's Bar - WOLFGANG & Hush Rocker,2025-05-16,00:00,Musicland Melbourne,"1359 Sydney Rd, Fawkner VIC 3060, Australia",https://www.facebook.com/events/1282682462798788/,-37.6916774,144.9585701581541,
Ball Park Music,2025-05-16,12:00,Forum Melbourne,"150 Flinders St, Melbourne VIC 3000, Australia",https://premier.ticketek.com.au/shows/show.aspx?sh=BALLPAR25,-37.8166268,144.9695761,
Yächtley Crëw,2025-05-16,12:00,Northcote Theatre,"216 High St, Northcote VIC 3070, Australia",https://premier.ticketek.com.au/shows/show.aspx?sh=YACHTL25,-37.7737671,144.9985775,
Claymore with The National Celtic Festival Melbourne Launch | MEMO Music Hall,2025-05-16,19:00,MEMO Music Hall,"88 Acland St, St Kilda VIC 3182, Australia",https://www.facebook.com/events/1377937306551659/,-37.8671902,144.9786817,
The Longest Johns // Melbourne // Australia Tour 2025 // The Corner Hotel,2025-05-16,19:00,The Corner Hotel,"57 Swan St, Richmond VIC 3121",https://www.facebook.com/events/838914441728135/,-37.82464307,144.9926962,
Circles,2025-05-16,00:00,Arts Centre Melbourne,"100 St Kilda Rd, Southbank VIC 3004, Australia",https://www.facebook.com/events/896724962490357/,-37.8216405,144.9683143,
Bam Trax Label Launch - Cosmic Cast x Revolver Fridays,2025-05-16,00:00,Revolver Upstairs,"Level 2/229 Chapel St, Prahran VIC 3181, Australia",https://www.facebook.com/events/1398764464587017/,-37.8505902,144.9933469,
Bam Trax Label Launch — Cosmic Cast x Revolver Fridays,2025-05-16,00:00,Revolver Upstairs,"Level 2/229 Chapel St, Prahran VIC 3181, Australia",https://www.facebook.com/events/1256036785938111/,-37.8505902,144.9933469,
RAT PACK - 'Those Dirty Rats',2025-05-16,00:00,Musicland Melbourne,"1359 Sydney Rd, Fawkner VIC 3060, Australia",https://www.facebook.com/events/1516737526380410/,-37.6916774,144.9585701581541,
Ace it!,2025-05-16,09:00,Carson Conference Centre,"535 Elizabeth Street Melbourne, VIC 3000",https://www.eventbrite.com/e/ace-it-registration-998108568597?aff=ebdssbdestsearch,-37.805634,144.9587234,Talks/Workshops
Adult Beginner Jazz,2025-05-17,13:00,Dance Factory,"225 Swan Street Richmond, VIC 3121",https://www.eventbrite.com.au/e/adult-beginner-jazz-tickets-1317185149239?aff=ebdssbdestsearch,-37.8257354,144.9998261,
Baby Safe Program: Deluxe Package 2025,2025-05-17,10:00,Prahran High School,"138 High Street Windsor, VIC 3181",https://www.eventbrite.com.au/e/baby-safe-program-deluxe-package-2025-tickets-1095143827669?aff=ebdssbdestsearch,-37.8517332,144.9913415,
POKEMON - Destined Rivals Pre-Release - Gameology CLAYTON SOUTH - 17/05/25,2025-05-17,11:30,Gameology,"12 Eileen Road Clayton South, VIC 3169",https://www.eventbrite.com.au/e/pokemon-destined-rivals-pre-release-gameology-clayton-south-170525-tickets-1333516998239?aff=ebdssbdestsearch,-37.9512104,145.1347381,Games
Cabaret Ridiculous,2025-05-17,17:00,Speakeasy Theatre,"522 Flinders Street Melbourne, VIC 3000",https://www.eventbrite.com.au/e/cabaret-ridiculous-tickets-1114249944579?aff=ebdssbdestsearch,-37.82029199999999,144.9569223,
Bebe's Bar - CRAZY TRAIN,2025-05-17,00:00,Musicland Melbourne,"1359 Sydney Rd, Fawkner VIC 3060, Australia",https://www.facebook.com/events/649703627506080/,-37.6916774,144.9585701581541,
HOLY HOLY – A Grand Hiatus Tour | Melbourne #1,2025-05-17,19:00,Forum Melbourne,"154 Flinders St, Melbourne VIC 3000, Australia",https://www.facebook.com/events/1137699201057665/,-37.81644145,144.9693768124984,
"PARIS NOCTURNE (Paris Cat Jazz Club, Melbourne)",2025-05-17,00:00,Paris Cat Jazz Club,"6 Goldie Pl, Melbourne VIC 3000, Australia",https://www.facebook.com/events/1498087007818081/,-37.8133262,144.96060714767358,
The Regnans Live @ The Toff ,2025-05-17,00:00,The Toff,"2f/252 Swanston St, Melbourne VIC 3000, Australia",https://www.facebook.com/events/684873143893570/,-37.80660325,144.9628141258931,
Western Bulldogs v Essendon - AFL Reserve,2025-05-17,19:35,Marvel Stadium,"740 Bourke St, Docklands VIC 3008, Australia",https://www.facebook.com/events/1528798797754060/,-37.816529,144.94751697668812,
Hank Marvin Gypsy Jazz – LIVE In Melbourne | MEMO Music Hall,2025-05-17,00:00,MEMO Music Hall,"88 Acland St, St Kilda VIC 3182, Australia",https://www.facebook.com/events/654394153600434/,-37.8671902,144.9786817,
Moon Rituals ‘Aura’ LP Launch,2025-05-17,00:00,THE CURTIN (John Curtin hotel),"29 Lygon St, Carlton VIC 3053, Australia",https://www.facebook.com/events/660044433474568/,-37.8061581,144.9657057,
JOSH SETTERFIELD - MELBOURNE | RISE & FALL' TOUR,2025-05-17,19:00,Kindred Bandroom,"3 Harris St, Footscray VIC 3011, Australia",https://www.facebook.com/events/621395390766716/,-37.8119001,144.9008247,
Mayhem at Mamma Chen's,2025-05-17,19:00,Mamma Chen's,"42A Albert St, Footscray VIC 3011, Australia",https://www.facebook.com/events/3134855486666450/,-37.8047552,144.89727240000002,
DCB Trivia Night Fundraiser,2025-05-17,19:00,Darebin City Brass,"Mary Street, Cramer St, Preston VIC 3072, Australia",https://www.facebook.com/events/1702804314448593/,-37.7403983,145.002136,
Holy Holy - A Grand Hiatus - 2025 Australian Tour,2025-05-17,12:00,Forum Melbourne,"150 Flinders St, Melbourne VIC 3000, Australia",https://premier.ticketek.com.au/shows/show.aspx?sh=HOLY25,-37.8166268,144.9695761,
Tezza Leaves Rezza (Farewell *Goodbye* Fark Off),2025-05-17,06:30,Reservoir,"Reservoir Reservoir, VIC 3073",https://www.eventbrite.com.au/e/tezza-leaves-rezza-farewell-goodbye-fark-off-tickets-1338136665789?aff=ebdssbdestsearch,-37.7118644,145.0107588,Comedy
Acro/Cheer Classes for 6-12 Year Olds,2025-05-17,10:15,Dance Factory,"225 Swan Street Richmond, VIC 3121",https://www.eventbrite.com.au/e/acrocheer-classes-for-6-12-year-olds-tickets-1321985206339?aff=ebdssbdestsearch,-37.8257354,144.9998261,
Friends On Purpose: Dance Class,2025-05-17,12:00,CreativeCubes.Co - Hawthorn,"10 Oxley Road #Level 1 Hawthorn, VIC 3122",https://www.eventbrite.com.au/e/friends-on-purpose-dance-class-tickets-1324775151139?aff=ebdssbdestsearch,-37.8245027,145.0363325,Social/Dating
Adult Beginner Lyrical,2025-05-17,12:00,Dance Factory,"225 Swan Street Richmond, VIC 3121",https://www.eventbrite.com.au/e/adult-beginner-lyrical-tickets-1317177105179?aff=ebdssbdestsearch,-37.8257354,144.9998261,
Sound healing guided meditation,2025-05-17,18:00,"Saint Margaret's Anglican Church, Pitt Street, Eltham VIC, Australia","Pitt Street Eltham, VIC 3095",https://www.eventbrite.com.au/e/sound-healing-guided-meditation-tickets-1276015890879?aff=ebdssbdestsearch,-37.7218177,145.1540378,Talks/Workshops
BACIO ITALIAN NIGHT!,2025-05-17,21:00,Trombar,"492 Mount Alexander Road Ascot Vale, VIC 3032",https://www.eventbrite.com/e/bacio-italian-night-tickets-1329533864579?aff=ebdssbdestsearch,-37.7753814,144.9285597,Social/Dating
Melbourne | Speed Dating | Saturday Event | Ages 27-49 | Fancy A Go?,2025-05-17,19:00,The Metropolitan Hotel,"265 William Street Melbourne, VIC 3000",https://www.eventbrite.com/e/melbourne-speed-dating-saturday-event-ages-27-49-fancy-a-go-tickets-1281355120659?aff=ebdssbdestsearch,-37.812902,144.9566615,Social/Dating
"Mind Body Balance: Cacao, Breathwork & Yin Yoga",2025-05-17,15:00,Brighton - Exact Location shared with ticket,"North Brighton North Brighton, VIC 3186",https://www.eventbrite.com/e/mind-body-balance-cacao-breathwork-yin-yoga-registration-1324613908859?aff=ebdssbdestsearch,-37.903623,145.004905,Talks/Workshops
Melbourne International CINEVERSE FF: Asian Excellence Awards @ ACMI,2025-05-17,12:45,ACMI,"Flinders Street Melbourne, VIC 3000",https://www.eventbrite.fr/e/melbourne-international-cineverse-ff-asian-excellence-awards-acmi-tickets-1305729755849?aff=ebdssbdestsearch,-37.8185815,144.9637799,Cinema
"Ghost Medium ""River Song"" - Single Launch",2025-05-17,19:30,280 Sydney Rd,"280 Sydney Road Brunswick, VIC 3056",https://www.eventbrite.com.au/e/ghost-medium-river-song-single-launch-tickets-1296422407319?aff=ebdssbdestsearch,-37.7711488,144.9616353,Music
Workshop with Alchemy Orange,2025-05-17,09:30,Tait Melbourne,"211 Smith Street #209 Fitzroy, VIC 3065",https://www.eventbrite.com.au/e/workshop-with-alchemy-orange-tickets-1306082551069?aff=ebdssbdestsearch,-37.802878,144.983423,Talks/Workshops
Nostalgia Room - '001',2025-05-17,20:00,The Valiant Cocktail Bar,"412 Little Collins Street #Level 1 Melbourne, VIC 3000",https://www.eventbrite.com.au/e/nostalgia-room-001-tickets-1338104981019?aff=ebdssbdestsearch,-37.8157453,144.9607827,Music
MTG - Throwback Draft: Baldur's Gate - Gameology BRUNSWICK - 17/05/2025,2025-05-17,11:30,Gameology Brunswick,"36 Hope Street Brunswick, VIC 3056",https://www.eventbrite.com.au/e/mtg-throwback-draft-baldurs-gate-gameology-brunswick-17052025-tickets-1319634786169?aff=ebdssbdestsearch,-37.7636924,144.9595539,Games
Launch Class - Breath & Movement,2025-05-17,08:15,11b/60 Fitzroy St,"60 Fitzroy Street #11b St Kilda, VIC 3182",https://www.eventbrite.com.au/e/launch-class-breath-movement-tickets-1349476433339?aff=ebdssbdestsearch,-37.8592263,144.9769056,Talks/Workshops
Eat The Beat : Together ft. PAKO S (IT),2025-05-17,22:00,New Guernica,"64 Smith Street Collingwood, VIC 3066",https://www.eventbrite.com.au/e/eat-the-beat-together-ft-pako-s-it-tickets-1344971338479?aff=ebdssbdestsearch,-37.8062529,144.9832565,Music
Spellcrafting Circle: Weaving the Threads of Ancestral Magic,2025-05-17,14:00,Ricketts Road,"Ricketts Road Mount Waverley, VIC 3149",https://www.eventbrite.com/e/spellcrafting-circle-weaving-the-threads-of-ancestral-magic-tickets-1300236013919?aff=ebdssbdestsearch,-37.8951411,145.1371889,Talks/Workshops
After Midnight Jazz Band - Free at Ragtime Tavern 17 May ,2025-05-17,19:00,Ragtime Tavern,"206 Tyler St, Preston VIC 3072, Australia",https://www.facebook.com/events/1184604306374788/,-37.7310367,145.0142411,
"(Sat, May 17) THE MODFATHERS",2025-05-17,00:00,George Lane St Kilda,"1 George Ln, St Kilda VIC 3182, Australia",https://www.facebook.com/events/1363334474706191/,-37.85997305,144.9780306,
SOLD OUT  Tamara & the dreams - Successful Bisexual LIVE (with Pollyman) at Merri Creek Tavern,2025-05-17,00:00,The Merri Creek Tavern,"111 High St, Northcote VIC 3070, Australia",https://www.facebook.com/events/1043795740934857/,-37.7794356,144.996838,
Dale Barlow Quartet - early show! 6.30pm,2025-05-17,18:30,Uptown Jazz Cafe,"1/177 Brunswick St, Fitzroy VIC 3065, Australia",https://www.facebook.com/events/9541623075953495/,-37.79705404,144.97869049756974,
"Renee Alison ""She was buried but not gone"" EP launch",2025-05-17,13:00,Bergy Bandroom,"64 Sydney Rd, Brunswick VIC 3056, Australia",https://www.facebook.com/events/1530270531692879/,-37.776327,144.9607158,
Horatio Luna @ The Night Cat | Sat 17 May,2025-05-17,23:00,The Night Cat,"137-141 Johnston St, Fitzroy VIC 3065, Australia",https://www.facebook.com/events/645133895190668/,-37.7982971,144.978128,
Olives to Oil Festival Whittlesea,2025-05-17,00:00,CERES Environment Park,"Stewart St & Roberts St East, Brunswick VIC 3056, Australia",https://www.facebook.com/events/670085022099828/,-37.765454,144.9831564,
B# Big Band with Sarah C and Dom Bagnato,2025-05-17,18:00,Bird's Basement,"11 Singers Ln, Melbourne VIC 3000, Australia",https://www.facebook.com/events/606172368828866/,-37.81114416,144.95680390283175,
POP PUNKS FORVER - A FREE LIVE POP PUNK PARTY,2025-05-17,21:00,The BEAST,"80 Lygon Street, Brunswick East Melbourne, VIC, Australia, Victoria 3057",https://www.facebook.com/events/551630257975597/,-37.77615718,144.97129424232867,
"Music In Exile 5th Anniversary (Melbourne) with Ajak Kwai, Ausecuma Beats, MIndy Meng Wang, Sui Zhen",2025-05-17,19:00,The Night Cat,"137-141 Johnston St, Fitzroy VIC 3065, Australia",https://www.facebook.com/events/1378369856948550/,-37.7982971,144.978128,
Eat The Beat : Together ft. PAKO S (IT),2025-05-17,00:00,New Guernica,"64 Smith St, Collingwood VIC 3066, Australia",https://www.facebook.com/events/1367664327612884/,-37.80624775,144.98331211946754,
nightlight “how does it feel?” EP release show,2025-05-17,19:00,Bergy Bandroom,"64 Sydney Rd, Brunswick VIC 3056, Australia",https://www.facebook.com/events/883298280517857/,-37.776327,144.9607158,
VELVET PARADE Japan Tour Send-Off Sat 17th May SHOTKICKERS w/Death Of Art + NIHL,2025-05-17,19:30,Shotkickers,"744 High St, Thornbury VIC 3071, Australia",https://www.facebook.com/events/1373839067791719/,-37.75592655,145.0013923,
Country Struts - Line Dancing Class & Party,2025-05-17,19:00,The Corner Hotel,"57 Swan St, Richmond VIC 3121",https://www.facebook.com/events/701888055831226/,-37.82464307,144.9926962,
 THIS IS JONI: Performed by Lauren Elizabeth & 6-Piece Band | Dinner & Show,2025-05-17,18:30,arcobar heatherton,"8 Arco Ln, Heatherton VIC 3202, Australia",https://www.facebook.com/events/9201312923282593/,-37.94673685,145.07837928457485,
Urban Wine Walk // Northcote (VIC),2025-05-17,00:00,Northcote Social Club,"301 High St, Northcote VIC 3070, Australia",https://www.facebook.com/events/1366468008110666/,-37.771471,144.998414,
Western Bulldogs v Essendon,2025-05-17,19:35,Marvel Stadium,"740 Bourke St, Docklands VIC 3008, Australia",https://www.facebook.com/events/1121469816187474/,-37.816529,144.94751697668812,
"Bollywood Saturdays at Decibles, Melbourne",2025-05-17,22:00,Inflation Entertainment Complex,"60 King Street Melbourne, VIC 3000",https://www.eventbrite.com.au/e/bollywood-saturdays-at-decibles-melbourne-tickets-1311401269499?aff=ebdssbdestsearch,-37.8188863,144.9571605,
The TEN Tenors: 30th Anniversary World Tour,2025-05-17,19:00,Palais Theatre,"Lower Esplanade, St Kilda VIC 3182, Australia",https://www.facebook.com/events/2532095673647979/,-37.86708671,144.97599656199426,
Amie Kaufman and Meagan Spooner: Lady's Knight,2025-05-17,00:00,The Wheeler Centre,"176 Little Lonsdale St, Melbourne VIC 3000, Australia",https://www.facebook.com/events/1697904641124530/,-37.8101765,144.9652219,
Elixir : The pleasure of Life,2025-05-17,00:00,Club Voltaire,"1st Floor/14 Raglan St, North Melbourne VIC 3051, Australia",https://www.facebook.com/events/663003249994968/,-37.8042869,144.9501372,
70’s Rock Revolutions play Dutch club Carnegie ,2025-05-17,00:00,Carnegie Hall,"60 Rosstown Rd, Carnegie VIC 3163, Australia",https://www.facebook.com/events/972506838178122/,-37.8864262,145.05686284914034,
CASTLES IN PARIS: PEEP AND $B APPRECIATION NIGHT - MELBOURNE,2025-05-17,23:00,Stay Gold,"133 Sydney Rd, Brunswick VIC 3056, Australia",https://www.facebook.com/events/2946478452199525/,-37.7743469,144.9607404,
"Dan McCabe - Live at Northcote Theatre, Melbourne",2025-05-17,00:00,Northcote Theatre,"216 High St, Northcote VIC 3070, Australia",https://www.facebook.com/events/854360699973471/,-37.7737068,144.9982706,
The Herberts: 60's Classic Show @ Oakleigh Music Hall,2025-05-17,00:00,Oakleigh Carnegie RSL,"95/97 Drummond St, Oakleigh VIC 3166, Australia",https://www.facebook.com/events/570215399407828/,-37.8968576,145.08963741959553,
Thndo @ Chapel Off Chapel,2025-05-17,20:00,Chapel Off Chapel,"12 Little Chapel St, Prahran VIC 3181, Australia",https://www.facebook.com/events/9690113407733983/,-37.84832452,144.99496955222065,
"""LOIS LANE"" ROCK @ L13G",2025-05-17,20:00,Lucky 13 Garage,"8 Cochranes Rd, Moorabbin VIC 3189, Australia",https://www.facebook.com/events/1604869626833984/,-37.94349189,145.07036236060654,
"(Sat, May 17) THE TIME TRAVELLERS' (Feat Jeff Jenkins) (George Lane Matinee Sessions)",2025-05-17,00:00,George Lane St Kilda,"1 George Ln, St Kilda VIC 3182, Australia",https://www.facebook.com/events/9432654186817691/,-37.85997305,144.9780306,
Thndo | Chapel Sessions,2025-05-17,20:00,Chapel Off Chapel,"12 Little Chapel St, Prahran VIC 3181, Australia",https://www.facebook.com/events/2090319154771727/,-37.84832452,144.99496955222065,
"The World At A Glance, Latibulate, Canary Bones, Snailgun, Reckon @ Cactus Room, Thornbury 17/05/25",2025-05-17,19:00,Cactus Room,"614 High St, Thornbury VIC 3071, Australia",https://www.facebook.com/events/640600965178335/,-37.76125825,145.00041662186553,
"The Coolabahs ""Ute Root"" single launch with The RSA's and Banjzig - FREE ENTRY",2025-05-17,15:00,The Last Chance,"238 Victoria St, Melbourne VIC 3000, Australia",https://www.facebook.com/events/2391646441220627/,-37.8059962,144.9585654,
"Middle Palms Single Launch (Workers Club, Fitzroy)",2025-05-17,19:00,The Workers Club,"51 Brunswick St, Fitzroy VIC 3065, Australia",https://www.facebook.com/events/9885137621517605/,-37.8055776,144.9769450659087,
Traditional Hide Tanning Workshop,2025-05-17,00:00,CERES Environment Park,"Stewart St & Roberts St East, Brunswick VIC 3056, Australia",https://www.facebook.com/events/1385783512670081/,-37.765454,144.9831564,
Beyond The Rock - Niue Short Film,2025-05-17,15:30,Sun Theatre,"8 Ballarat Street Yarraville, VIC 3013",https://www.eventbrite.com.au/e/beyond-the-rock-niue-short-film-tickets-1312792621069?aff=ebdssbdestsearch,-37.8157446,144.8905291,Cinema
Melbourne City Photo Walk- Travel Photography Course,2025-05-17,09:30,State Library,"State Library Melbourne, VIC 3000",https://www.eventbrite.com.au/e/melbourne-city-photo-walk-travel-photography-course-tickets-1099520267719?aff=ebdssbdestsearch,-37.8097255,144.9654504,Art
‍ Unleashed x Breath: Nervous System Reset & Emotional Release Breathwork,2025-05-17,10:00,Artful Yoga Gallery,"1 Vale Street St Kilda, VIC 3182",https://www.eventbrite.com/e/unleashed-x-breath-nervous-system-reset-emotional-release-breathwork-tickets-1334853014299?aff=ebdssbdestsearch,-37.8661713,144.9817611,Talks/Workshops
MTG - Throwback Draft: Baldur's Gate - Gameology CLAYTON - 17/05/2025,2025-05-17,11:30,Gameology,"12 Eileen Road Clayton South, VIC 3169",https://www.eventbrite.com.au/e/mtg-throwback-draft-baldurs-gate-gameology-clayton-17052025-tickets-1319654394819?aff=ebdssbdestsearch,-37.9512104,145.1347381,Games
1920s Speakeasy,2025-05-17,18:00,THE ANGRY DOG,"435 Spencer Street West Melbourne, VIC 3003",https://www.eventbrite.com.au/e/1920s-speakeasy-tickets-1143822918139?aff=ebdssbdestsearch,-37.8104755,144.9498932,Social/Dating
Urban Wine Walk // Northcote (VIC),2025-05-17,12:00,Northcote,"Multiple Venues Northcote, VIC 3070",https://www.eventbrite.com/e/urban-wine-walk-northcote-vic-tickets-1247751200429?aff=ebdssbdestsearch,-37.7736132,144.9997396,Social/Dating
Over 50's Beginner Jazz,2025-05-17,11:00,Dance Factory,"225 Swan Street Richmond, VIC 3121",https://www.eventbrite.com.au/e/over-50s-beginner-jazz-tickets-1298816116969?aff=ebdssbdestsearch,-37.8257354,144.9998261,
N-VITRAL [NL] | Presented by DEBASER,2025-05-17,22:00,2 Geddes Ln,"2 Geddes Lane Melbourne, VIC 3000",https://www.eventbrite.com/e/n-vitral-nl-presented-by-debaser-tickets-1309285370789?aff=ebdssbdestsearch,-37.8189705,144.957155,Music
Hoai Linh Australia Tour,2025-05-17,20:00,Westend Market Hotel,"47 McIntyre Road Sunshine, VIC 3020",https://www.eventbrite.com.au/e/hoai-linh-australia-tour-tickets-1216539685949?aff=ebdssbdestsearch,-37.7723171,144.8284077,Comedy
Tex Walker & Rory Sloane LIVE in Melbourne!,2025-05-17,19:00,Carlton Brewhouse,"24 Thompson Street Abbotsford, VIC 3067",https://www.eventbrite.com.au/e/tex-walker-rory-sloane-live-in-melbourne-tickets-1236817768239?aff=ebdssbdestsearch,-37.8096501,145.0041255,Sport
MAKEUP HOUSE PRESENTS: BASE MASTERCLASS,2025-05-17,17:30,MAKEUP HOUSE PRAHRAN,"161-165 Greville Street Prahran, VIC 3181",https://www.eventbrite.com/e/makeup-house-presents-base-masterclass-tickets-1349423484969?aff=ebdssbdestsearch,-37.8491773,144.9922413,Talks/Workshops
LA FIESTA NEGRA - Salsa Night,2025-05-17,21:30,Deluxe Bar,"595 Mount Alexander Road Moonee Ponds, VIC 3039",https://www.eventbrite.com.au/e/la-fiesta-negra-salsa-night-tickets-1321911987339?aff=ebdssbdestsearch,-37.768313,144.925046,Music
Multicultural Collections and the State Library of Victoria,2025-05-17,12:30,Museo Italiano,"199 Faraday Street Carlton, VIC 3053",https://www.eventbrite.com.au/e/multicultural-collections-and-the-state-library-of-victoria-tickets-1265638832819?aff=ebdssbdestsearch,-37.7989761,144.9679657,Talks/Workshops
Perioperative Cardiac Nursing Group,2025-05-17,08:00,Epworth Richmond,"89 Bridge Road Richmond, VIC 3121",https://www.eventbrite.com.au/e/perioperative-cardiac-nursing-group-tickets-1277403561439?aff=ebdssbdestsearch,-37.8176308,144.9928415,Talks/Workshops
**MEN SOLD OUT** Speed Dating | Melbourne | Ages 27-49 | SpeedAustralia,2025-05-17,19:00,The Metropolitan Hotel,"265 William Street Melbourne, VIC 3000",https://www.eventbrite.com/e/men-sold-out-speed-dating-melbourne-ages-27-49-speedaustralia-tickets-1281242393489?aff=ebdssbdestsearch,-37.812902,144.9566615,
Give-it-a-go Blacksmithing Sessions 2025,2025-05-17,10:00,Blacksmiths Festival 2025,"60 Maribyrnong Street Footscray, VIC 3011",https://www.eventbrite.com.au/e/give-it-a-go-blacksmithing-sessions-2025-tickets-1243291310779?aff=ebdssbdestsearch,-37.8035424,144.9078967,Art
Speed Dating | Melbourne Saturday Night | Ages 27-49 | SpeedAustralia,2025-05-17,19:00,The Metropolitan Hotel,"265 William Street Melbourne, VIC 3000",https://www.eventbrite.com/e/speed-dating-melbourne-saturday-night-ages-27-49-speedaustralia-tickets-1281242393489?aff=ebdssbdestsearch,-37.812902,144.9566615,Social/Dating
**MEN SOLD OUT** Melbourne | Speed Dating | Ages 27-49 | SpeedMelbourne,2025-05-17,19:00,The Metropolitan Hotel,"265 William Street Melbourne, VIC 3000",https://www.eventbrite.com/e/men-sold-out-melbourne-speed-dating-ages-27-49-speedmelbourne-tickets-1280784032519?aff=ebdssbdestsearch,-37.812902,144.9566615,
VisualArts360 Workshop,2025-05-17,10:00,Art Education Victoria (AEV),"233 Sydney Road Brunswick, VIC 3056",https://www.eventbrite.com.au/e/visualarts360-workshop-tickets-1280379773369?aff=ebdssbdestsearch,-37.7720699,144.9608123,Talks/Workshops
Curate Your Essence: A Creative Wellness Workshop 2hr Experience,2025-05-17,10:30,Prana House,"Level 1, 885 High Street Thornbury, VIC 3071",https://www.eventbrite.com.au/e/curate-your-essence-a-creative-wellness-workshop-2hr-experience-tickets-1245781579239?aff=ebdssbdestsearch,-37.7537691,145.0011906,
Sound Bath & Breathwork – A One-Hour Healing Escape,2025-05-17,16:30,"L1/216 York Street, South Melbourne","L1/216 York Street South Melbourne, VIC 3205",https://www.eventbrite.com.au/e/sound-bath-breathwork-a-one-hour-healing-escape-tickets-1068903692719?aff=ebdssbdestsearch,-37.8322093,144.9538918,
**MEN SOLD OUT** Speed Dating | Melbourne Saturday Night | Ages 27-49,2025-05-17,19:00,The Metropolitan Hotel,"265 William Street Melbourne, VIC 3000",https://www.eventbrite.com/e/men-sold-out-speed-dating-melbourne-saturday-night-ages-27-49-tickets-1281695759519?aff=ebdssbdestsearch,-37.812902,144.9566615,
Soulful Style Retreat,2025-05-17,13:00,The Healing Garden Williamstown,"139 Nelson Place Williamstown, VIC 3016",https://www.eventbrite.com/e/soulful-style-retreat-tickets-1288110476109?aff=ebdssbdestsearch,-37.863395,144.904683,Talks/Workshops
**MEN SOLD OUT** Melbourne | Speed Dating | Saturday Event | Ages 27-49,2025-05-17,19:00,The Metropolitan Hotel,"265 William Street Melbourne, VIC 3000",https://www.eventbrite.com/e/men-sold-out-melbourne-speed-dating-saturday-event-ages-27-49-tickets-1281543133009?aff=ebdssbdestsearch,-37.812902,144.9566615,
SUPERSONIC90s - Britpop & UK Electronic Beats,2025-05-17,21:00,The Moser Room (Chasers),"386 Chapel Street South Yarra, VIC 3141",https://www.eventbrite.com.au/e/supersonic90s-britpop-uk-electronic-beats-tickets-1318620943739?aff=ebdssbdestsearch,-37.8459028,144.9947039,Music
SERÜM. & CORTEX PRESENT - A.N.I.,2025-05-17,22:00,117 Lonsdale St,"117 Lonsdale Street Melbourne, VIC 3000",https://www.eventbrite.com.au/e/serum-cortex-present-ani-tickets-1309450966089?aff=ebdssbdestsearch,-37.8107079,144.9689063,Music
Adult Beginner Tap,2025-05-17,10:00,Dance Factory,"225 Swan Street Richmond, VIC 3121",https://www.eventbrite.com.au/e/adult-beginner-tap-tickets-1317170224599?aff=ebdssbdestsearch,-37.8257354,144.9998261,
Burlesque Bingo,2025-05-17,16:00,Speakeasy Theatre,"522 Flinders Street Melbourne, VIC 3000",https://www.eventbrite.com.au/e/burlesque-bingo-tickets-1112184165779?aff=ebdssbdestsearch,-37.82029199999999,144.9569223,
Psycho Sequinz  Live at Wheat Wine Whisky,2025-05-17,20:00,"Wheat, Wine & Whisky","284 Smith Street Collingwood, VIC 3066",https://www.eventbrite.com/e/psycho-sequinz-live-at-wheat-wine-whisky-tickets-1250886588459?aff=ebdssbdestsearch,-37.8008428,144.9842391,Music
Content Creation Essentials with Mike Jeffrey,2025-05-17,14:00,Got Next Studios,"105 Whitehall Street #Suite 4 Footscray, VIC 3011",https://www.eventbrite.com.au/e/content-creation-essentials-with-mike-jeffrey-tickets-1319631987799?aff=ebdssbdestsearch,-37.8069293,144.9036935,Talks/Workshops
Mother's Day: Cannoli Making Class,2025-05-17,10:00,Cannoleria | Carlton,"334 Lygon Street Carlton, VIC 3053",https://www.eventbrite.com.au/e/mothers-day-cannoli-making-class-tickets-1333524390349?aff=ebdssbdestsearch,-37.7991724,144.9674409,
Sacral Chakradance,2025-05-17,16:00,Wild Grace Yoga and Healing,"4a Canterbury Rd Toorak, VIC 3142",https://www.eventbrite.com.au/e/sacral-chakradance-tickets-1315827719129?aff=ebdssbdestsearch,-37.84860159999999,145.0094229,Talks/Workshops
Techno Time & Tone Deaf : Rave Collab @ My Aeon,2025-05-17,21:00,my aeon,"791 Sydney Road Brunswick, VIC 3056",https://www.eventbrite.com.au/e/techno-time-tone-deaf-rave-collab-my-aeon-tickets-1350485842509?aff=ebdssbdestsearch,-37.7581868,144.9633301,Music
JOE DAYMOND - HOPE I MADE YOU PROUD - MELBOURNE,2025-05-17,19:30,The Comic's Lounge,"26 Errol Street #1 North Melbourne, VIC 3051",https://www.eventbrite.com.au/e/joe-daymond-hope-i-made-you-proud-melbourne-tickets-1220184477619?aff=ebdssbdestsearch,-37.8045082,144.9495239,Comedy
Energy In Motion - An Ecstatic Dance & Cacao Journey Through the Chakras.,2025-05-17,18:30,Centre of You,"Upstairs, 217 Chapel St Prahran Melbourne, VIC 3181",https://www.eventbrite.com.au/e/energy-in-motion-an-ecstatic-dance-cacao-journey-through-the-chakras-tickets-1331412373249?aff=ebdssbdestsearch,-37.8509316,144.9933031,Talks/Workshops
Flex & Flirt: Speed Dating at the Gym- Melbourne Singles- Ages 26-42,2025-05-17,13:00,Melbourne Calisthenics,"12 Lothian Street North Melbourne, VIC 3051",https://www.eventbrite.com.au/e/flex-flirt-speed-dating-at-the-gym-melbourne-singles-ages-26-42-tickets-1316021528819?aff=ebdssbdestsearch,-37.8036918,144.9446,Social/Dating
Melbourne International CINEVERSE FF: Top Genre Films Showcase @ ACMI,2025-05-17,14:45,ACMI,"Flinders Street Melbourne, VIC 3000",https://www.eventbrite.fr/e/melbourne-international-cineverse-ff-top-genre-films-showcase-acmi-tickets-1305730357649?aff=ebdssbdestsearch,-37.8185815,144.9637799,Cinema
MCW High Stakes 2025,2025-05-17,19:00,Thornbury Theatre,"859 High Street Thornbury, VIC 3071",https://www.eventbrite.com.au/e/mcw-high-stakes-2025-tickets-1236841589489?aff=ebdssbdestsearch,-37.7547501,145.0010877,Sport
"Melbourne| Immersive Masterclass for Facilitators & Music Educators, MDC",2025-05-17,10:00,Wxyz Studios,"130 Dryburgh Street North Melbourne, VIC 3051",https://www.eventbrite.com/e/melbourne-immersive-masterclass-for-facilitators-music-educators-mdc-tickets-1349220287199?aff=ebdssbdestsearch,-37.80357,144.9436662,Talks/Workshops
Hip Hop/Jazz Classes for 6-12 Year Olds,2025-05-17,09:30,Dance Factory,"225 Swan Street Richmond, VIC 3121",https://www.eventbrite.com.au/e/hip-hopjazz-classes-for-6-12-year-olds-tickets-1321983039859?aff=ebdssbdestsearch,-37.8257354,144.9998261,
Tactile Dialogues-Melbourne Design Week | Weaving Workshop,2025-05-17,14:00,Made By Morgen,"57-59 Weston Street Brunswick, VIC 3056",https://www.eventbrite.com.au/e/tactile-dialogues-melbourne-design-week-weaving-workshop-registration-1320524848369?aff=ebdssbdestsearch,-37.775073,144.9654,Talks/Workshops
Japanese Art Workshop: Craft a One-of-a-Kind Photo Frame,2025-05-17,11:00,29 Victoria St,"29 Victoria Street Box Hill, VIC 3128",https://www.eventbrite.com.au/e/japanese-art-workshop-craft-a-one-of-a-kind-photo-frame-tickets-1320683202009?aff=ebdssbdestsearch,-37.8227931,145.129747,
Solace on Chapel Exclusive Singles Over 40 Mixer,2025-05-17,19:00,SOLACE ON CHAPEL,"56 Chapel Street Windsor, VIC 3181",https://www.eventbrite.com.au/e/solace-on-chapel-exclusive-singles-over-40-mixer-tickets-1297735785669?aff=ebdssbdestsearch,-37.855793,144.992801,Social/Dating
Xclusive  The Show | By MenXclusive Melbourne 17  MAY,2025-05-17,19:00,Platform One,"375 Flinders Street Melbourne, VIC 3000",https://www.eventbrite.com.au/e/xclusive-the-show-by-menxclusive-melbourne-17-may-tickets-1216232717799?aff=ebdssbdestsearch,-37.8192278,144.9622577,Theatre
Melbourne International CINEVERSE FF: Rising Star Awards @ ACMI,2025-05-17,11:00,ACMI,"Flinders Street Melbourne, VIC 3000",https://www.eventbrite.fr/e/melbourne-international-cineverse-ff-rising-star-awards-acmi-tickets-1225769813509?aff=ebdssbdestsearch,-37.8185815,144.9637799,Cinema
MAKEUP HOUSE PRESENTS: EYES MASTERCLASS,2025-05-17,15:00,MAKEUP HOUSE PRAHRAN,"161-165 Greville Street Prahran, VIC 3181",https://www.eventbrite.com/e/makeup-house-presents-eyes-masterclass-tickets-1349448559969?aff=ebdssbdestsearch,-37.8491773,144.9922413,Talks/Workshops
Lamb Masterclass with Gary McBean - 17/05,2025-05-17,14:00,G.McBean Family Butcher,"163 Commercial Road #Stall 515 South Yarra, VIC 3141",https://www.eventbrite.com/e/lamb-masterclass-with-gary-mcbean-1705-tickets-1307733629489?aff=ebdssbdestsearch,-37.8460808,144.9924635,
Havana Social Club,2025-05-17,20:00,277 Queensberry St,"277 Queensberry Street Melbourne, VIC 3000",https://www.eventbrite.com/e/havana-social-club-tickets-1311292594449?aff=ebdssbdestsearch,-37.8043429,144.9593929,
Gong Sound Bath - Blue Angel Reiki (May 17th  2025),2025-05-17,16:00,Blue Angel Reiki Centre,"11-15 Leicester Avenue #2 Glen Waverley, VIC 3150",https://www.eventbrite.com.au/e/gong-sound-bath-blue-angel-reiki-may-17th-2025-tickets-1332892189419?aff=ebdssbdestsearch,-37.8873685,145.1461858,
"Women's Dance Classes: Tango, Conditioning, and Salsa",2025-05-17,15:30,I.AM.DANCE,"Kerr Street Fitzroy, VIC 3065",https://www.eventbrite.com.au/e/womens-dance-classes-tango-conditioning-and-salsa-tickets-1353065999829?aff=ebdssbdestsearch,-37.7968685,144.9798521,
"BOLLYWOOD RETRO Night at Inflation Nightclub, Melbourne",2025-05-17,22:00,Inflation Entertainment Complex,"60 King Street Melbourne, VIC 3000",https://www.eventbrite.com.au/e/bollywood-retro-night-at-inflation-nightclub-melbourne-tickets-1312754095839?aff=ebdssbdestsearch,-37.8188863,144.9571605,
Paint for Fun: Pop Up Studio at Younghusband Market,2025-05-17,10:00,2-50 Elizabeth St,"2-50 Elizabeth Street Kensington, VIC 3031",https://www.eventbrite.com.au/e/paint-for-fun-pop-up-studio-at-younghusband-market-tickets-1318420775029?aff=ebdssbdestsearch,-37.7965257,144.9319277,
Breathe and Reset: In person Guided Breathwork and Mindfulness Session,2025-05-17,12:00,Albert Park Lake,"Albert Park Melbourne, VIC 3206",https://www.eventbrite.com.au/e/breathe-and-reset-in-person-guided-breathwork-and-mindfulness-session-tickets-1344891208809?aff=ebdssbdestsearch,-37.8460268,144.9584302,
Paint and Sip: Paint in the Dark© Disco Party,2025-05-17,19:00,Paint for Fun,"252 Graham Street #Unit 1 Port Melbourne, VIC 3207",https://www.eventbrite.com.au/e/paint-and-sip-paint-in-the-dark-disco-party-tickets-1257732855829?aff=ebdssbdestsearch,-37.8386895,144.9385483,
Diploma in Reflexology,2025-05-17,09:30,St Joseph's,"16 Esplanade Williamstown, VIC 3016",https://www.eventbrite.com.au/e/diploma-in-reflexology-tickets-1123728364789?aff=ebdssbdestsearch,-37.869719,144.8987936,
Glow Up After 40: Makeup Masterclass in Docklands,2025-05-17,10:00,39 Caravel Ln,"39 Caravel Lane Docklands, VIC 3008",https://www.eventbrite.com.au/e/glow-up-after-40-makeup-masterclass-in-docklands-tickets-1333541501529?aff=ebdssbdestsearch,-37.8146285,144.9404117,
Design By Touch Ceramics  / Melbourne Design Week,2025-05-17,13:00,Gasworks Arts Park,"21 Graham Street Albert Park, VIC 3206",https://www.eventbrite.com.au/e/design-by-touch-ceramics-melbourne-design-week-tickets-1277377483439?aff=ebdssbdestsearch,-37.8424592,144.9470737,
Melbourne | Speed Dating | Friday Event | Ages 27-49 | SpeedMelbourne,2025-05-17,19:00,The Metropolitan Hotel,"265 William Street Melbourne, VIC 3000",https://www.eventbrite.com/e/melbourne-speed-dating-friday-event-ages-27-49-speedmelbourne-tickets-1280784032519?aff=ebdssbdestsearch,-37.812902,144.9566615,Error
Creative Therapy Circle -  Gaia Mother Earth Workshops In-Person,2025-05-17,10:30,Cheltenham Community Centre,"8 Chesterville Road Cheltenham, VIC 3192",https://www.eventbrite.com.au/e/creative-therapy-circle-gaia-mother-earth-workshops-in-person-tickets-1325219670709?aff=ebdssbdestsearch,-37.9623015,145.0566002,
Play with Clay | Melbourne Clay and Sip Class,2025-05-17,13:45,Paint for Fun's Studios,"252 Graham Street Port Melbourne, VIC 3207",https://www.eventbrite.com.au/e/play-with-clay-melbourne-clay-and-sip-class-tickets-1257731582019?aff=ebdssbdestsearch,-37.8386778,144.9385789,
Pasta Making Class- Northern Suburbs,2025-05-17,15:00,36 Barry Rd,"36 Barry Road Lalor, VIC 3075",https://www.eventbrite.com.au/e/pasta-making-class-northern-suburbs-tickets-1312613455179?aff=ebdssbdestsearch,-37.6707579,144.99752,
Women in Film Networking Night,2025-05-18,17:00,Nevermind Bar,"336 Burwood Road Hawthorn, VIC 3122",https://www.eventbrite.com.au/e/women-in-film-networking-night-tickets-1343454682119?aff=ebdssbdestsearch,-37.8228221,145.0347931,Business/Networking
Darebin Winter 2025 Chess Tournament,2025-05-18,14:00,220 High St,"220 High Street Preston, VIC 3072",https://www.eventbrite.com.au/e/darebin-winter-2025-chess-tournament-registration-1304997425429?aff=ebdssbdestsearch,-37.7441358,145.0033888,Games
The Groomer CEO Workshop - Melbourne,2025-05-18,09:00,Cuts For Pups,"14 Prime Street Thomastown, VIC 3074",https://www.eventbrite.com.au/e/the-groomer-ceo-workshop-melbourne-tickets-1317045982989?aff=ebdssbdestsearch,-37.6934422,145.0366007,Talks/Workshops
"Embodied Rest: A Somatic Journey of Yin Yoga, Nidra, Movement, Song & Sound",2025-05-18,05:30,Centre of You,"Upstairs, 217 Chapel St Prahran Melbourne, VIC 3181",https://www.eventbrite.com.au/e/embodied-rest-a-somatic-journey-of-yin-yoga-nidra-movement-song-sound-tickets-1338133706939?aff=ebdssbdestsearch,-37.8509316,144.9933031,Talks/Workshops
Prenatal Yoga and Meditation Autumn Sessions,2025-05-18,17:00,Elwood + St Kilda Neighbourhood Learning Centre (ESNLC),"87 Tennyson Street Elwood, VIC 3184",https://www.eventbrite.com/e/prenatal-yoga-and-meditation-autumn-sessions-tickets-1316904941129?aff=ebdssbdestsearch,-37.8800441,144.9895395,Talks/Workshops
"CRACKERJACK SUNDAY SESSIONS - with LISA EDWARDS, BRENDEN MASON & RICK EVANS",2025-05-18,14:30,Melbourne Bowling Club,"138 Union Street Windsor, VIC 3181",https://www.eventbrite.com.au/e/crackerjack-sunday-sessions-with-lisa-edwards-brenden-mason-rick-evans-tickets-1334806445009?aff=ebdssbdestsearch,-37.8546958,144.9915895,Music
Many Hands Make – Creative Support Group | 18 May,2025-05-18,14:00,Kathleen Syme Library and Community Centre,"251 Faraday Street Carlton, VIC 3053",https://www.eventbrite.com.au/e/many-hands-make-creative-support-group-18-may-tickets-1339336925799?aff=ebdssbdestsearch,-37.7986481,144.9652272,Talks/Workshops
Fitness Business Accelerator LIVE MELBOURNE,2025-05-18,10:30,Glow Cosmetique,"23 Ebony Close Springvale, VIC 3171",https://www.eventbrite.com/e/fitness-business-accelerator-live-melbourne-tickets-1329226806159?aff=ebdssbdestsearch,-37.9353702,145.1484444,Talks/Workshops
Andy Scott Collective at The Lomond Hotel,2025-05-18,17:00,The Lomond Hotel,"225 Nicholson Street Brunswick East, VIC 3057",https://www.eventbrite.com.au/e/andy-scott-collective-at-the-lomond-hotel-tickets-1344934628679?aff=ebdssbdestsearch,-37.7670861,144.9800057,
"Meet Dr Sandra Cabot MD, One Day Only Health Seminar Melbourne, 18th May 25",2025-05-18,09:30,Malvern Town Hall,"1251 High Street Malvern, VIC 3144",https://www.eventbrite.com.au/e/meet-dr-sandra-cabot-md-one-day-only-health-seminar-melbourne-18th-may-25-tickets-1307490000789?aff=ebdssbdestsearch,-37.8562757,145.0297103,Talks/Workshops
"Learn stand-up comedy in Melbourne this May 2025, with Doug Chappel",2025-05-18,18:30,Limerick Arms Hotel,"364 Clarendon Street South Melbourne, VIC 3205",https://www.eventbrite.com.au/e/learn-stand-up-comedy-in-melbourne-this-may-2025-with-doug-chappel-tickets-1023147691287?aff=ebdssbdestsearch,-37.8354562,144.9614044,Comedy
Heart Body Soul - Brunswick -  Sunday 18 May,2025-05-18,11:00,Brunswick Town Hall,"233 Sydney Road Brunswick, VIC",https://www.eventbrite.com.au/e/heart-body-soul-brunswick-sunday-18-may-tickets-1288059262929?aff=ebdssbdestsearch,-37.7720699,144.9608123,Art
Voices of the Drum: Evoking Elemental & Ancestral Sounds Through Chanting.,2025-05-18,10:30,Centre of You,"Upstairs, 217 Chapel St Prahran Melbourne, VIC 3181",https://www.eventbrite.com.au/e/voices-of-the-drum-evoking-elemental-ancestral-sounds-through-chanting-tickets-1339329884739?aff=ebdssbdestsearch,-37.8509316,144.9933031,Talks/Workshops
Melbourne Singles Mixer for ages 26-44 by Cheeky Events Australia,2025-05-18,17:00,Bar Blanco,"102 Chapel Street Windsor Melbourne, VIC 3181",https://www.eventbrite.com.au/e/melbourne-singles-mixer-for-ages-26-44-by-cheeky-events-australia-tickets-1332089007079?aff=ebdssbdestsearch,-37.854455,144.993076,Social/Dating
Yoga & Art Sundays,2025-05-18,10:00,Artful Yoga Gallery,"1 Vale Street St Kilda, VIC 3182",https://www.eventbrite.com.au/e/yoga-art-sundays-tickets-1329332512329?aff=ebdssbdestsearch,-37.8661713,144.9817611,Art
Sound Healing - Vibro Acoustic Sound Bath with Romy,2025-05-18,18:30,Private Studio in St Kilda East (see email for address),"Alma Road St Kilda East, VIC 3183",https://www.eventbrite.com.au/e/sound-healing-vibro-acoustic-sound-bath-with-romy-tickets-1314442345439?aff=ebdssbdestsearch,-37.8626178,145.0005983,Talks/Workshops
"Colour + decoration: the Paterson Bros., interiors and art: 1875 - 1915",2025-05-18,02:30,Villa Alba Museum,"44 Walmer Street Kew, VIC 3101",https://www.eventbrite.com.au/e/colour-decoration-the-paterson-bros-interiors-and-art-1875-1915-tickets-1268098720409?aff=ebdssbdestsearch,-37.8051441,145.0112191,Talks/Workshops
$129 Public Wine Tour Melbourne to Yarra Valley,2025-05-18,09:00,20 Russell St,"20 Russell Street Melbourne, VIC 3000",https://www.eventbrite.com.au/e/129-public-wine-tour-melbourne-to-yarra-valley-tickets-1332672692899?aff=ebdssbdestsearch,-37.8160815,144.9698463,
Made in Casa Pizza Degustation with World Pizza Champion Daniele Gagliotta,2025-05-18,18:30,Made In Casa,"99 Glenferrie Road Malvern, VIC 3144",https://www.eventbrite.com.au/e/made-in-casa-pizza-degustation-with-world-pizza-champion-daniele-gagliotta-tickets-1312576564839?aff=ebdssbdestsearch,-37.8625805,145.0280637,Social/Dating
"""PINK OUT"" 2025",2025-05-18,11:00,Glen Eira Sports and Aquatic Centre (GESAC),"200 East Boundary Road Bentleigh East, VIC 3165",https://www.eventbrite.com.au/e/pink-out-2025-tickets-1354302227419?aff=ebdssbdestsearch,-37.9161161,145.0606312,
The Art of Authentic Relating - deep dive - 4 class immersion,2025-05-18,02:30,AKA Studio Yoga,"130C Nicholson Street Brunswick East, VIC 3057",https://www.eventbrite.com.au/e/the-art-of-authentic-relating-deep-dive-4-class-immersion-tickets-1266659605979?aff=ebdssbdestsearch,-37.767095,144.980478,
POOF DOOF Drag Brunch at The Espy - Every Sunday,2025-05-18,12:00,Hotel Esplanade,"11 The Esplanade St Kilda, VIC 3182",https://www.eventbrite.com.au/e/poof-doof-drag-brunch-at-the-espy-every-sunday-tickets-1319647143129?aff=ebdssbdestsearch,-37.8641604,144.9730092,
40+ Lunch Club,2025-05-18,13:30,Neighbourhood Wine,"1 Reid Street Fitzroy North, VIC 3068",https://www.eventbrite.com.au/e/40-lunch-club-tickets-1326088850449?aff=ebdssbdestsearch,-37.7850504,144.977762,Social/Dating
Melbourne's Annual Wedding Expo 2025 - Wedding Expos Australia,2025-05-18,10:00,Melbourne Convention and Exhibition Centre (MCEC),"1 Convention Centre Place South Wharf, VIC 3006",https://www.eventbrite.com.au/e/melbournes-annual-wedding-expo-2025-wedding-expos-australia-tickets-919854117427?aff=ebdssbdestsearch,-37.82520299999999,144.952251,Business/Networking
"AfroSexy | Reggaeton & Tacos , Afrohouse & Afrobeats",2025-05-18,18:30,Lady T - Tatiana bar,"104 Swan Street Cremorne, VIC 3121",https://www.eventbrite.com.au/e/afrosexy-reggaeton-tacos-afrohouse-afrobeats-tickets-1345555445559?aff=ebdssbdestsearch,-37.8253201,144.9933766,Music
MHCMS Local Artists Recital,2025-05-18,02:30,Kew Court House,"188 High Street Kew, VIC 3101",https://www.eventbrite.com.au/e/mhcms-local-artists-recital-tickets-1353022589989?aff=ebdssbdestsearch,-37.80681060000001,145.0316391,
Tarot Club,2025-05-18,16:30,Shellspace,"8 McIver Street Brunswick, VIC 3056",https://www.eventbrite.com.au/e/tarot-club-tickets-1344997657199?aff=ebdssbdestsearch,-37.768709,144.963746,Talks/Workshops
Incense crafting workshop ༄,2025-05-18,14:30,Ford Street,"Ford Street Footscray, VIC 3011",https://www.eventbrite.com.au/e/incense-crafting-workshop-tickets-1341784697149?aff=ebdssbdestsearch,-37.79764,144.8992831,Art
The Martini Set,2025-05-18,14:00,Clayton RSL,"171 Carinish Road Clayton, VIC 3168",https://www.eventbrite.com.au/e/the-martini-set-tickets-1329227046879?aff=ebdssbdestsearch,-37.9253129,145.1225275,
SUNDAY - Fitzroy Market (May and June 2025),2025-05-18,10:00,Fitzroy Mills Market,"75 Rose Street Fitzroy, VIC 3065",https://www.eventbrite.com.au/e/sunday-fitzroy-market-may-and-june-2025-tickets-1298688344799?aff=ebdssbdestsearch,-37.7956693,144.9779514,
Visible Voices - upcycling workshop with Penne's Pants,2025-05-18,16:30,55 Edward St,"55 Edward Street Brunswick, VIC 3056",https://www.eventbrite.com/e/visible-voices-upcycling-workshop-with-pennes-pants-tickets-1343432666269?aff=ebdssbdestsearch,-37.7738491,144.9631088,Art
