Event_Title,Date,Time,Venue,Address,url,Latitude,Longitude,Category
EM RUSCIANO | BRUNSWICK BALLROOM,2025-07-07,00:00,Brunswick Ballroom,"314 Sydney Rd, Brunswick VIC 3056, Australia",https://www.facebook.com/events/2069710233508003/?event_time_id=2069710250174668,-37.7704205,144.9617083,Comedy
Sound Bath & iRest Yoga Nidra Emersion,2025-07-07,06:30,Castlefield Community Centre,"505 Bluff Road Hampton, VIC 3188",https://www.eventbrite.com.au/e/sound-bath-irest-yoga-nidra-emersion-tickets-1336196442529?aff=ebdssbdestsearch,-37.9329002,145.0244454,Talks/Workshops
Bird Collage Workshop for Kids,2025-07-07,10:00,54 Errol St,"54 Errol Street North Melbourne, VIC 3051Get directions",https://www.eventbrite.com.au/e/bird-collage-workshop-for-kids-tickets-1404504674289?aff=ebdssbdestsearch,-37.803855,144.949731,Art
"Art, War, and Other Catastrophes",2025-07-07,20:30,The Butterfly Club,"5 Carson Place Melbourne, VIC 3000",https://www.eventbrite.co.uk/e/art-war-and-other-catastrophes-tickets-1349305913309?aff=ebdssbdestsearch,-37.8154472,144.9652725,Theatre
"DAVINES - Services and More Workshop - Melbourne, VIC",2025-07-07,10:00,shibui,"139 Toorak Road South Yarra, VIC 3141",https://www.eventbrite.com.au/e/davines-services-and-more-workshop-melbourne-vic-tickets-1253931154839?aff=ebdssbdestsearch,-37.8386846,144.991012,Talks/Workshops
Soccer · Winter Holiday Program (Brighton),2025-07-07,09:00,Dendy Park,"Dendy Street Brighton, VIC 3186Get directions",https://www.eventbrite.com.au/e/soccer-winter-holiday-program-brighton-tickets-1391175265669?aff=ebdssbdestsearch,-37.9196289,144.994495,Sport
St Kilda Highlights Sunrise Walk - Easy 6km - Dog Friendly!,2025-07-07,06:00,Donovans,"40 Jacka Boulevard St Kilda, VIC 3182Get directions",https://www.eventbrite.com.au/e/st-kilda-highlights-sunrise-walk-easy-6km-dog-friendly-tickets-1430608130429?aff=ebdssbdestsearch,-37.8685776,144.9751279,Social/Dating
Spice Girls (4 week dance course) South Melbourne,2025-07-07,07:30,Goodlife,"111 Cecil Street South Melbourne, VIC 3205Get directions",https://www.eventbrite.com.au/e/spice-girls-4-week-dance-course-south-melbourne-tickets-1432544983609?aff=ebdssbdestsearch,-37.8308543,144.957072,Talks/Workshops
2025 Literacy for All Intensive Course,2025-07-07,09:00,Glenroy Specialist School,"208 Hilton Street Glenroy, VIC 3046",https://www.eventbrite.com.au/e/2025-literacy-for-all-intensive-course-tickets-1078018033959?aff=ebdssbdestsearch,-37.6991225,144.9208392,Talks/Workshops
Adobe After Effects Essentials - Melbourne Campus,2025-07-07,09:00,Australian City Design College,"802, 343 Little Collins Street Melbourne, VICGet directions",https://www.eventbrite.com/e/adobe-after-effects-essentials-melbourne-campus-tickets-380828236507?aff=ebdssbdestsearch,-37.8154152,144.9634432,Talks/Workshops
Kew Traffic School Public Ride Sessions - Term 2 School Holidays 2025,2025-07-07,09:00,Kew Traffic School,"Corner of Grange Rd & Coltham Rd Kew, VIC 3101Get directions",https://www.eventbrite.com.au/e/kew-traffic-school-public-ride-sessions-term-2-school-holidays-2025-tickets-1391906743539?aff=ebdssbdestsearch,-37.8118098,145.0572052,Sport
Have a Goodnight Walter,2025-07-07,19:00,The Butterfly Club,"5 Carson Place Melbourne, VIC 3000",https://www.eventbrite.co.uk/e/have-a-goodnight-walter-tickets-1285611722269?aff=ebdssbdestsearch,-37.8154472,144.9652725,Theatre
Vapiano Bourke Street Mall Pizza Kids!,2025-07-07,10:00,Vapiano Bourke Street Mall,"271 Bourke Street #Level 1 Melbourne, VIC 3000Get directions",https://www.eventbrite.com.au/e/vapiano-bourke-street-mall-pizza-kids-tickets-1296420993089?aff=ebdssbdestsearch,-37.813789,144.9654603,Talks/Workshops
School Holiday Workshop - Illusions in Art (Afternoon Session),2025-07-07,12:30,Paint for Fun,"252 Graham Street #Unit 1 Port Melbourne, VIC 3207",https://www.eventbrite.com.au/e/school-holiday-workshop-illusions-in-art-afternoon-session-tickets-1381232556759?aff=ebdssbdestsearch,-37.8386895,144.9385483,Art
Traditional Leatherwork: Dog Collar or Belt with Alison Berton,2025-07-07,10:00,Leffler Leather,"171 Kensington Road West Melbourne, VIC 3003Get directions",https://www.eventbrite.com.au/e/traditional-leatherwork-dog-collar-or-belt-with-alison-berton-tickets-1409690836239?aff=ebdssbdestsearch,-37.8002118,144.9177331,Talks/Workshops
Jess Hitchcock & Penny Quartet,2025-07-07,19:30,Melbourne Recital Centre,"31 Sturt St, Southbank VIC 3006, Australia",https://www.facebook.com/events/1357515342237584/,-37.82408485,144.96758763141432,Music
Harnessing AI for Marketing Innovation | Melbourne,2025-07-08,15:00,Melbourne,"Online Event Melbourne, VIC 3000",https://www.eventbrite.com.au/e/harnessing-ai-for-marketing-innovation-melbourne-tickets-1052300297517?aff=ebdssbdestsearch,-37.8279601,144.9683224,Talks/Workshops
Melbourne - Leica Geosystems iCON FIELD - Hands on Training,2025-07-08,09:00,C.R. Kennedy & Company Pty. Ltd.,"300 Lorimer Street Port Melbourne, VIC 3207Get directions",https://www.eventbrite.com.au/e/melbourne-leica-geosystems-icon-field-hands-on-training-tickets-1357973277629?aff=ebdssbdestsearch,-37.8253841,144.907166,Talks/Workshops
DIY Funko Pop Workshop 7 - 12 year olds,2025-07-08,13:00,Yarraville Community Centre,"59 Francis Street Yarraville, VIC 3013Get directions",https://www.eventbrite.com/e/diy-funko-pop-workshop-7-12-year-olds-tickets-1365157876959?aff=ebdssbdestsearch,-37.8217577,144.8927644,Art
Fresh Networking South Yarra - Guest Registration,2025-07-08,07:30,Hobba,"428 Malvern Road Prahran, VIC 3181Get directions",https://www.eventbrite.com.au/e/fresh-networking-south-yarra-guest-registration-tickets-105344454098?aff=ebdssbdestsearch,-37.8479584,145.000708,Business/Networking
Waterloo,2025-07-08,19:30,Theatre Works,"Saint Leonards Avenue St Kilda, VIC 3182",https://www.eventbrite.com.au/e/waterloo-tickets-1110981518629?aff=ebdssbdestsearch,-37.8638328,144.9768976,Theatre
Endgame Academy Balwyn,2025-07-08,10:00,Macleay Park,"189 Belmore Road Balwyn North, VIC 3104Get directions",https://www.eventbrite.com.au/e/endgame-academy-balwyn-tickets-1358755808199?aff=ebdssbdestsearch,-37.8023888,145.0765814,Sport
Fresh Networking Bundoora - Guest Registration,2025-07-08,07:30,Mini Me Mango cafe,"24 Scholar Drive Bundoora, VIC 3083Get directions",https://www.eventbrite.com.au/e/fresh-networking-bundoora-guest-registration-tickets-894193967227?aff=ebdssbdestsearch,-37.6827562,145.0733925,Business/Networking
"Winter 2025 School Holidays Creative Workshop: Hair, Beauty, MakeUp",2025-07-08,10:00,The Masters Institute of Creative Education,"185 Spring Street #2 Melbourne, VIC 3000Get directions",https://www.eventbrite.com.au/e/winter-2025-school-holidays-creative-workshop-hair-beauty-makeup-tickets-1368143095829?aff=ebdssbdestsearch,-37.810315,144.9722181,Talks/Workshops
Nightingale 1 Public Tours,2025-07-08,10:00,Nightingale 1,"6 Florence St Brunswick, VIC 3056Get directions",https://www.eventbrite.com/e/nightingale-1-public-tours-tickets-803565314487?aff=ebdssbdestsearch,-37.7614186,144.9609838,Talks/Workshops
Adventures with Dungeons and Dragons Australia - Lair of the Shadow Mage.,2025-07-08,18:00,The Gaming Arena,"123 Bakers Road Coburg North, VIC 3058Get directions",https://www.eventbrite.com.au/e/adventures-with-dungeons-and-dragons-australia-lair-of-the-shadow-mage-registration-1425134298049?aff=ebdssbdestsearch,-37.7266428,144.9549903,Games
TSN Celebration: Reunions & Stories from the Community that built it,2025-07-08,18:00,The Commons QV,"3 Albert Coates Lane Melbourne, VIC 3000",https://www.eventbrite.com.au/e/tsn-celebration-reunions-stories-from-the-community-that-built-it-tickets-1088341240949?aff=ebdssbdestsearch,-37.8109508,144.9653291,Business/Networking
Steelo & Howe LIVE at Braybrook Hotel!,2025-07-08,18:00,Braybrook Hotel,"353 Ballarat Road Braybrook, VIC 3019Get directions",https://www.eventbrite.com.au/e/steelo-howe-live-at-braybrook-hotel-tickets-1379196316309?aff=ebdssbdestsearch,-37.779589,144.8485432,Sport
Shake It Off - Your Weekly Dose of Physical & Emotional Fitness.,2025-07-08,18:30,Centre of You,"Upstairs, 217 Chapel St Prahran Melbourne, VIC 3181Get directions",https://www.eventbrite.com.au/e/shake-it-off-your-weekly-dose-of-physical-emotional-fitness-tickets-1425622929559?aff=ebdssbdestsearch,-37.8509316,144.9933031,Talks/Workshops
Brava  Women Networking IN PERSON July 8th 2025 - Brighton,2025-07-08,13:00,The Deck  Brighton,"212 Bay Street Brighton, VIC 3186",https://www.eventbrite.com.au/e/brava-women-networking-in-person-july-8th-2025-brighton-tickets-1277793949099?aff=ebdssbdestsearch,-37.9052818,144.999296,Business/Networking
MIG Workshop: Multivariate analysis for omics data integration (bulk),2025-07-08,09:30,The Florey Institute of Neuroscience and Mental Health,"30 Royal Parade Parkville, VIC 3010",https://www.eventbrite.com/e/mig-workshop-multivariate-analysis-for-omics-data-integration-bulk-tickets-1246825952989?aff=ebdssbdestsearch,-37.7982843,144.9585746,Talks/Workshops
Unravelling NFTs | Melbourne,2025-07-08,15:00,Melbourne,"Online Event Melbourne, VIC 3000Get directions",https://www.eventbrite.com.au/e/unravelling-nfts-melbourne-tickets-336940356677?aff=ebdssbdestsearch,-37.8279601,144.9683224,Talks/Workshops
PMP Pass Guarantee In-Person Training in Melbourne,2025-07-08,09:00,"Levels 31 & 50/120 Collins St, Melbourne, VIC, 3000, Australia","Levels 31 & 50/120 Collins St Melbourne, VIC 3000",https://www.eventbrite.com/e/pmp-pass-guarantee-in-person-training-in-melbourne-tickets-1397267327189?aff=ebdssbdestsearch,-37.8144291,144.9696066,Talks/Workshops
Street Art - Spray Paint Skateboard Workshop for 6-12 year olds,2025-07-08,10:00,Yarraville Community Centre,"59 Francis Street Yarraville, VIC 3013Get directions",https://www.eventbrite.com/e/street-art-spray-paint-skateboard-workshop-for-6-12-year-olds-tickets-1365126753869?aff=ebdssbdestsearch,-37.8217577,144.8927644,Art
"CAPM Exam Prep In-Person Course in Melbourne, VIC",2025-07-08,09:00,"Levels 31 & 50/120 Collins St, Melbourne, VIC, 3000, Australia","Levels 31 & 50/120 Collins St Melbourne, VIC 3000",https://www.eventbrite.com/e/capm-exam-prep-in-person-course-in-melbourne-vic-tickets-1350248061299?aff=ebdssbdestsearch,-37.8144291,144.9696066,Talks/Workshops
Sensory Tray Session- SCHOOL HOLIDAYS,2025-07-08,10:00,Janefield Community Centre,"2 Manchester Crescent Bundoora, VIC 3083Get directions",https://www.eventbrite.com.au/e/sensory-tray-session-school-holidays-tickets-1392255055349?aff=ebdssbdestsearch,-37.6830538,145.0745348,Talks/Workshops
Founder Connect!,2025-07-08,18:00,The Commons QV,"3 Albert Coates Lane Melbourne, VIC 3000",https://www.eventbrite.com.au/e/founder-connect-tickets-1088341240949?aff=ebdssbdestsearch,-37.8109508,144.9653291,Business/Networking
"Movie: ""Jurassic World Rebirth""",2025-07-08,13:00,HOYTS Greensborough,"25 Main Street Greensborough, VIC 3088Get directions",https://www.eventbrite.com.au/e/movie-jurassic-world-rebirth-tickets-1366617653189?aff=ebdssbdestsearch,-37.7040103,145.1030264,Cinema
Roola Boola Chidren's Art Festival: Kids Clay Workshop at the Duldig Studio,2025-07-08,10:30,Duldig Studio Museum & Sculpture Garden,"92 Burke Road East Malvern, VIC 3145",https://www.eventbrite.com.au/e/roola-boola-chidrens-art-festival-kids-clay-workshop-at-the-duldig-studio-tickets-1319606692139?aff=ebdssbdestsearch,-37.8689721,145.0498034,Art
July 8th 2025 In Person BNI Melbourne City Corporate Networking Event,2025-07-08,06:45,Rendezvous Hotel Melbourne,"328 Flinders Street Melbourne, VIC 3000Get directions",https://www.eventbrite.com.au/e/july-8th-2025-in-person-bni-melbourne-city-corporate-networking-event-tickets-1383203642329?aff=ebdssbdestsearch,-37.81831330000001,144.9636251,Business/Networking
Etching #1 - Hard-ground & Soft-ground,2025-07-08,10:00,Australian Print Workshop,"210 Gertrude Street Fitzroy, VIC 3065",https://www.eventbrite.com.au/e/etching-1-hard-ground-soft-ground-tickets-1204082054839?aff=ebdssbdestsearch,-37.8064244,144.9815567,Art
CAPM Pass Guarantee In-Person Training in Melbourne,2025-07-08,09:00,"Levels 31 & 50/120 Collins St, Melbourne, VIC, 3000, Australia","Levels 31 & 50/120 Collins St Melbourne, VIC 3000",https://www.eventbrite.com/e/capm-pass-guarantee-in-person-training-in-melbourne-tickets-1406420765369?aff=ebdssbdestsearch,-37.8144291,144.9696066,Talks/Workshops
Fermentation 101 Workshop with Caitlin Koether,2025-07-08,18:00,Little Molli,"66 Nicholson Street Abbotsford, VIC 3067",https://www.eventbrite.com/e/fermentation-101-workshop-with-caitlin-koether-tickets-1344936835279?aff=ebdssbdestsearch,-37.8069067,144.9966637,Talks/Workshops
Hakima – Bukjeh,2025-07-08,00:00,Melbourne Recital Centre,"31 Sturt St, Southbank VIC 3006, Australia",https://www.facebook.com/events/3689110251224257/?event_time_id=3689113927890556,-37.82408485,144.96758763141432,Other
Haus of Dizzy | Bling it on a Keychain,2025-07-09,11:30,Bundoora Homestead Art Centre,"7 Prospect Hill Drive Bundoora, VIC 3083Get directions",https://www.eventbrite.com.au/e/haus-of-dizzy-bling-it-on-a-keychain-tickets-1407949668359?aff=ebdssbdestsearch,-37.7051404,145.0499516,Art
Curso de Teatro Inmersivo + Obra Profesional,2025-07-09,06:30,7 Cozens St,"7 Cozens Street Brunswick, VIC 3056Get directions",https://www.eventbrite.com/e/curso-de-teatro-inmersivo-obra-profesional-tickets-1422965561299?aff=ebdssbdestsearch,-37.756259,144.963307,Theatre
Speed Dating Glen Waverley | 25-38yrs | 20% OFF Promo,2025-07-09,19:00,Gambino Restaurant & Rooftop,"73-75 Kingsway #L5 Glen Waverley, VIC 3150",https://www.eventbrite.com.au/e/speed-dating-glen-waverley-25-38yrs-20-off-promo-tickets-1341819370859?aff=ebdssbdestsearch,-37.88046569999999,145.1634312,Social/Dating
Understand Weight Management Treatment Options as a Person with Obesity,2025-07-09,13:00,Heidelberg Repatriation Hospital,"300 Waterdale Road Ivanhoe, VIC 3079",https://www.eventbrite.com.au/e/understand-weight-management-treatment-options-as-a-person-with-obesity-registration-1315964979679?aff=ebdssbdestsearch,-37.755455,145.045315,Talks/Workshops
BDM EOFY CELEBRATION  |  FLOW: Where Growth Meets Momentum,2025-07-09,17:00,Kolmeo HQ,"31 Queen Street #Level 6 Melbourne, VIC 3000",https://www.eventbrite.com.au/e/bdm-eofy-celebration-flow-where-growth-meets-momentum-registration-1302646523819?aff=ebdssbdestsearch,-37.81822349999999,144.9617763,Business/Networking
Sound Healing - NURTURE Sound Bath with Romy,2025-07-09,19:30,Please see the email for the address,"Alma Rd St Kilda East, VIC 3183Get directions",https://www.eventbrite.com.au/e/sound-healing-nurture-sound-bath-with-romy-tickets-1420082076719?aff=ebdssbdestsearch,-37.8626822,145.001162,Talks/Workshops
Winter Night Market Wonders + Carlton Gardens Evening walk - Easy 5km,2025-07-09,18:30,IMAX Melbourne (Museums Victoria) - At front of Imax building,"Rathdowne Street Carlton, VIC 3053Get directions",https://www.eventbrite.com.au/e/winter-night-market-wonders-carlton-gardens-evening-walk-easy-5km-tickets-1430984315609?aff=ebdssbdestsearch,-37.8001246,144.9701069,Social/Dating
Effie - UPYOURSELFNESS LIVE at Olympic Hotel!,2025-07-09,18:00,Olympic Hotel,"31 Albert Street Preston, VIC 3072",https://www.eventbrite.com.au/e/effie-upyourselfness-live-at-olympic-hotel-tickets-1295351403919?aff=ebdssbdestsearch,-37.7465792,145.021604,Comedy
Speed Dating Glen Waverley | 25-38yrs | GUYS TIX SOLD OUT!,2025-07-09,19:00,Gambino Restaurant & Rooftop,"73-75 Kingsway #L5 Glen Waverley, VIC 3150",https://www.eventbrite.com.au/e/speed-dating-glen-waverley-25-38yrs-guys-tix-sold-out-tickets-1341819370859?aff=ebdssbdestsearch,-37.88046569999999,145.1634312,Social/Dating
Spice Girls (4 week dance course) Brunswick,2025-07-09,19:00,Transit Dance Studio,"64 Dawson Street Brunswick, VIC 3056Get directions",https://www.eventbrite.com.au/e/spice-girls-4-week-dance-course-brunswick-tickets-1432580730529?aff=ebdssbdestsearch,-37.7701752,144.9559255,Talks/Workshops
Make your Happy Snowmen,2025-07-09,10:00,124 South Parade,"124 South Parade Blackburn, VIC 3130",https://www.eventbrite.com.au/e/make-your-happy-snowmen-tickets-1353035628989?aff=ebdssbdestsearch,-37.8205834,145.1523742,Art
.NET 9 Superpowers Tour - Melbourne,2025-07-09,09:00,SSW Melbourne,"Level 1/370 Little Bourke St MELBOURNE, VIC 3000",https://www.eventbrite.com.au/e/net-9-superpowers-tour-melbourne-tickets-1098433296559?aff=ebdssbdestsearch,-37.8132971,144.9615923,Talks/Workshops
Clonakilla Dinner Melbourne: Perfume & Power July 9th 2025 6.30pm,2025-07-09,06:30,Entrecôte,"142-144 Greville Street Prahran, VIC 3181",https://www.eventbrite.com.au/e/clonakilla-dinner-melbourne-perfume-power-july-9th-2025-630pm-tickets-1341726392759?aff=ebdssbdestsearch,-37.849427,144.991519,Social/Dating
AusSTS 2025 “Signals & Noises” Conference,2025-07-09,08:30,"National Communication Museum, Hawthorn, Naarm, (Day1) and Deakin Downtown (Docklands) Day 2 and 3","NCM and Deakin Downtown Narrm, Melbourne, VIC 3008",https://www.eventbrite.com.au/e/aussts-2025-signals-noises-conference-tickets-1312609132249?aff=ebdssbdestsearch,-37.8206284,144.9500129,Talks/Workshops
Blackburn Winter Rock Camp!!,2025-07-09,10:00,Urban Climb Blackburn,"15/33 Alfred St Blackburn, VIC 3130Get directions",https://www.eventbrite.com.au/e/blackburn-winter-rock-camp-tickets-1359831194709?aff=ebdssbdestsearch,-37.820086,145.1600346,Sport
Navigating Healthcare as a Person in a Bigger Body Workshop,2025-07-09,10:00,Heidelberg Repatriation Hospital,"300 Waterdale Road Ivanhoe, VIC 3079",https://www.eventbrite.com.au/e/navigating-healthcare-as-a-person-in-a-bigger-body-workshop-registration-1271846068829?aff=ebdssbdestsearch,-37.755455,145.045315,Talks/Workshops
Port Melbourne Surf Club to Sandridge Lookout Sunrise Walk w/DAN - Easy 5km,2025-07-09,06:00,Port Melbourne Life Saving Club,"38 Beaconsfield Parade Port Melbourne, VIC 3207Get directions",https://www.eventbrite.com.au/e/port-melbourne-surf-club-to-sandridge-lookout-sunrise-walk-wdan-easy-5km-tickets-1430940634959?aff=ebdssbdestsearch,-37.8450696,144.9421546,Social/Dating
"Little Yogis School Holiday 10,11,15,17 JULY - Unique Unicorn Kids' Yoga",2025-07-10,09:45,75 Greville St,"75 Greville Street Prahran, VIC 3181Get directions",https://www.eventbrite.com.au/e/little-yogis-school-holiday-programadventure-unique-unicorn-kids-yoga-tickets-1432518574619?aff=ebdssbdestsearch,-37.8487629,144.989092,Talks/Workshops
"Young Yogis School Holiday Program 10,11,15,17/07 Unique Unicorn Kids' Yoga",2025-07-10,10:30,75 Greville St,"75 Greville Street Prahran, VIC 3181Get directions",https://www.eventbrite.com.au/e/young-yogis-school-holiday-program-1011151707-unique-unicorn-kids-yoga-tickets-1432609115429?aff=ebdssbdestsearch,-37.8487629,144.989092,Talks/Workshops
Build A Seasonal Arrangement,2025-07-10,06:30,7a/91 Moreland St,"91 Moreland Street #7a Footscray, VIC 3011Get directions",https://www.eventbrite.com.au/e/build-a-seasonal-arrangement-tickets-1429404018899?aff=ebdssbdestsearch,-37.8085329,144.9046758,Talks/Workshops
Creative Tech | MELB July | School Holiday Workshop,2025-07-10,10:00,The Australian Institute of Music,"120 King Street Melbourne, VIC 3000",https://www.eventbrite.com.au/e/creative-tech-melb-july-school-holiday-workshop-tickets-1254001936549?aff=ebdssbdestsearch,-37.81714789999999,144.9564705,Talks/Workshops
Responding to Disclosures of Sexual Assault Workshop,2025-07-10,09:30,level 2/210 Lonsdale St,"210 Lonsdale Street #level 2 Melbourne, VIC 3000",https://www.eventbrite.com.au/e/responding-to-disclosures-of-sexual-assault-workshop-tickets-1301652029259?aff=ebdssbdestsearch,-37.8109379,144.9658254,Talks/Workshops
Back Alley Sally & Thursday Night Jam!,2025-07-10,00:00,Hume Blues Club Inc,"27 Ballantyne St, Thornbury VIC 3071, Australia",https://www.facebook.com/events/1003879275182853/,-37.7588241,144.9985126,Music
A Bunch Of Smooth Operators at Paris Cat Jazz Club ,2025-07-10,19:00,Paris Cat Jazz Club,"6 Goldie Pl, Melbourne VIC 3000, Australia",https://www.facebook.com/events/2220949085028932/,-37.8133262,144.96060714767358,Music
Henry Manetta and the Trip Live at The Paris Cat,2025-07-10,00:00,Paris Cat Jazz Club,"6 Goldie Pl, Melbourne VIC 3000, Australia",https://www.facebook.com/events/1214175740211911/,-37.8133262,144.96060714767358,Music
Endgame Academy Thornbury,2025-07-10,10:00,Darebin International Sports Centre,"281 Darebin Road Thornbury, VIC 3071Get directions",https://www.eventbrite.com.au/e/endgame-academy-thornbury-tickets-1361418562569?aff=ebdssbdestsearch,-37.7644916,145.0232182,Sport
Stage & Songcraft | MELB July | School Holiday Workshop,2025-07-10,10:00,Australian Institute of Music,"120 King Street Melbourne, VIC 3000Get directions",https://www.eventbrite.com.au/e/stage-songcraft-melb-july-school-holiday-workshop-tickets-1254003772039?aff=ebdssbdestsearch,-37.81714789999999,144.9564705,Talks/Workshops
Bands n Fans X Floravera Bookings Residency Night 1 W/ Sunday Honey,2025-07-10,19:00,Stay Gold,"133 Sydney Road Brunswick, VIC 3056Get directions",https://www.eventbrite.com.au/e/bands-n-fans-x-floravera-bookings-residency-night-1-w-sunday-honey-tickets-1388924242799?aff=ebdssbdestsearch,-37.77435880000001,144.9606103,Music
2025  HKABA (VIC) Business Awards Gala Dinner,2025-07-10,06:30,Palladium at Crown,"Palladium at Crown Southbank, VIC 3006Get directions",https://www.eventbrite.com.au/e/2025-hkaba-vic-business-awards-gala-dinner-tickets-1409211121399?aff=ebdssbdestsearch,-37.822181,144.959875,Business/Networking
Glee Club,2025-07-10,17:30,The Butterfly Club,"5 Carson Place Melbourne, VIC 3000",https://www.eventbrite.co.uk/e/glee-club-tickets-880593116717?aff=ebdssbdestsearch,-37.8154472,144.9652725,Music
"Come as strangers, leave as friends",2025-07-10,19:00,the birdcage,"215 Swan Street Richmond, VIC 3121Get directions",https://www.eventbrite.com.au/e/come-as-strangers-leave-as-friends-tickets-1414498776919?aff=ebdssbdestsearch,-37.8256242,144.9994168,Social/Dating
Interview Coaching for Early Childhood Professionals – South Melbourne,2025-07-10,06:30,230 Albert Rd,"230 Albert Road South Melbourne, VIC 3205Get directions",https://www.eventbrite.com.au/e/interview-coaching-for-early-childhood-professionals-south-melbourne-tickets-1416160868279?aff=ebdssbdestsearch,-37.8374093,144.9662222,Talks/Workshops
Aesop x To Be Read Book Swap,2025-07-10,19:00,Aesop Collins Street,"162 Collins Street Melbourne, VIC 3000Get directions",https://www.eventbrite.com.au/e/aesop-x-to-be-read-book-swap-tickets-1426321990469?aff=ebdssbdestsearch,-37.814798,144.9680584,Social/Dating
Speed Dating Meets Paint by Numbers | 28-39 yr | Nth Melb,2025-07-10,18:30,Twang Brewing,"21 Melrose Street North Melbourne, VIC 3051Get directions",https://www.eventbrite.com.au/e/speed-dating-meets-paint-by-numbers-28-39-yr-nth-melb-tickets-1392014074569?aff=ebdssbdestsearch,-37.7951293,144.9415481,Social/Dating
Monkey Business Comedy,2025-07-10,19:30,The Railway Hotel- Windsor,"29 Chapel Street Windsor, VIC 3181",https://www.eventbrite.com.au/e/monkey-business-comedy-tickets-1305703186379?aff=ebdssbdestsearch,-37.8566744,144.9922172,Comedy
"LGBTeeHeeHee - Thursday 10th July - Trinity, St Kilda",2025-07-10,18:30,Trinity St Kilda,"2 Brighton Road St Kilda, VIC 3182",https://www.eventbrite.com/e/lgbteeheehee-thursday-10th-july-trinity-st-kilda-tickets-1352066490269?aff=ebdssbdestsearch,-37.871047,144.989459,Comedy
July 10 | 35-58 YO Pickleball Social for Singles,2025-07-10,18:00,PicklePlay Indoor Pickleball,"1 South Drive Bentleigh East, VIC 3165Get directions",https://www.eventbrite.com.au/e/july-10-35-58-yo-pickleball-social-for-singles-tickets-1432545485109?aff=ebdssbdestsearch,-37.9106715,145.0613664,Sport
STILL,2025-07-10,19:30,TW Explosives Factory,"67 Inkerman Street St Kilda, VIC 3182",https://www.eventbrite.com.au/e/still-tickets-1113299351329?aff=ebdssbdestsearch,-37.8646651,144.9842743,Theatre
Conscious Connection | Games Night (ages 35-45),2025-07-10,06:30,Lulie Tavern (Rooftop),"225 Johnston Street Abbotsford, VIC 3067Get directions",https://www.eventbrite.com.au/e/conscious-connection-games-night-ages-35-45-tickets-1406833800769?aff=ebdssbdestsearch,-37.8000784,144.993596,Games
More than a Fish Kill NAIDOC Week Screening Event,2025-07-10,06:30,Cinema Nova,"380 Lygon Street Carlton, VIC 3053Get directions",https://www.eventbrite.com/e/more-than-a-fish-kill-naidoc-week-screening-event-tickets-1400818689409?aff=ebdssbdestsearch,-37.7981335,144.9677286,Cinema
The Greg Larsen Show - Live Filming,2025-07-10,18:00,Stupid Old Studios,"10 Peveril Street #8 Brunswick, VIC 3056Get directions",https://www.eventbrite.com/e/the-greg-larsen-show-live-filming-tickets-1400623716239?aff=ebdssbdestsearch,-37.756795,144.963199,Comedy
International Symposium on Accounting Information Systems 2025,2025-07-10,09:00,The Spot,"198 Berkeley Street Carlton, VIC 3053",https://www.eventbrite.com.au/e/international-symposium-on-accounting-information-systems-2025-tickets-1040183997337?aff=ebdssbdestsearch,-37.8015846,144.9588604,Business/Networking
STILL X 6,2025-07-10,19:30,TW Explosives Factory,"67 Inkerman Street St Kilda, VIC 3182",https://www.eventbrite.com.au/e/still-x-6-tickets-1113299351329?aff=ebdssbdestsearch,-37.8646651,144.9842743,Theatre
Kekoson Cuban Sounds - Salsa/Latin Night (5 piece band),2025-07-11,09:30,Barton Fink,"816 High Street Thornbury, VIC 3071Get directions",https://www.eventbrite.com.au/e/kekoson-cuban-sounds-salsalatin-night-5-piece-band-tickets-1416650161769?aff=ebdssbdestsearch,-37.753395,145.0016879,Music
"Comedy House Au presents Troy Kinne LIVE- July 11th, LOEV Moorabbin",2025-07-11,19:30,LOEV,"77 Keys Road Moorabbin, VIC 3189Get directions",https://www.eventbrite.com.au/e/comedy-house-au-presents-troy-kinne-live-july-11th-loev-moorabbin-tickets-1426122664279?aff=ebdssbdestsearch,-37.9484271,145.067727,Comedy
"Data+AI Conference 2025 Igniting Innovation, Empowering Careers",2025-07-11,09:00,Victoria University - City Queen Campus,"300 Queen Street Melbourne, VIC 3000Get directions",https://www.eventbrite.com.au/e/dataai-conference-2025-igniting-innovation-empowering-careers-tickets-1395586329279?aff=ebdssbdestsearch,-37.8119058,144.9589465,Business/Networking
"The Plot Twist live at Cherry Bar, SAT JULY 11",2025-07-11,20:00,"Cherry Bar, Little Collins Street, Melbourne VIC, Australia","68 Little Collins Street Melbourne, VIC 3000Get directions",https://www.eventbrite.com.au/e/the-plot-twist-live-at-cherry-bar-sat-july-11-tickets-1387198852109?aff=ebdssbdestsearch,-37.8129293,144.9714986,Music
MOORABBIN (Vic): Full Moon Sound Bath & Guided Meditation,2025-07-11,19:00,Southern Yoga and Health Centre,"24 Station Street Moorabbin, VIC 3189Get directions",https://www.eventbrite.com.au/e/moorabbin-vic-full-moon-sound-bath-guided-meditation-tickets-1392079399959?aff=ebdssbdestsearch,-37.9344228,145.037409,Talks/Workshops
Prokick Australia - MELBOURNE TRY-OUTS NFL/COLLEGE *MULTIPLE DATES*,2025-07-11,11:00,Glenferrie Oval,"34 Linda Crescent Hawthorn, VIC 3122Get directions",https://www.eventbrite.com/e/prokick-australia-melbourne-try-outs-nflcollege-multiple-dates-tickets-1415013325949?aff=ebdssbdestsearch,-37.8206186,145.0316522,Sport
Dean Lister No Gi Leg Lock Seminar,2025-07-11,18:00,Jean Jacques Machado Jiu Jitsu Melbourne,"625 Waterdale Road Heidelberg West, VIC 3081Get directions",https://www.eventbrite.com/e/dean-lister-no-gi-leg-lock-seminar-tickets-1362558472069?aff=ebdssbdestsearch,-37.7321844,145.0491599,Sport
Women's Full Moon Ceremony & Sound Bath - Tune Into Your Inner Wisdom.,2025-07-11,19:00,Centre of You,"Upstairs, 217 Chapel St Prahran Melbourne, VIC 3181Get directions",https://www.eventbrite.com.au/e/womens-full-moon-ceremony-sound-bath-tune-into-your-inner-wisdom-tickets-1369928265319?aff=ebdssbdestsearch,-37.8509316,144.9933031,Talks/Workshops
Interactive Business Networking on the Messed-Up Murray Express,2025-07-11,07:00,Dorsett Melbourne,"615 Little Lonsdale Street Melbourne, VIC 3000Get directions",https://www.eventbrite.com.au/e/interactive-business-networking-on-the-messed-up-murray-express-tickets-896553454517?aff=ebdssbdestsearch,-37.8139857,144.9532276,Business/Networking
Jazz & Cocktails ,2025-07-11,00:00,Paris Cat Jazz Club,"6 Goldie Pl, Melbourne VIC 3000, Australia",https://www.facebook.com/events/646261508572778/,-37.8133262,144.96060714767358,Music
Nirvanna (USA) Tribute - Live in Melbourne ,2025-07-11,00:00,Max Watts,"125 Swanston St, Melbourne VIC 3000, Australia",https://www.facebook.com/events/688431397013412/,-37.8147557,144.9659879,Music
Zoho Campaigns Training Online - Melbourne,2025-07-11,08:00,Melbourne,"Zoom Melbourne, VIC 3000",https://www.eventbrite.com.au/e/zoho-campaigns-training-online-melbourne-tickets-1258027998609?aff=ebdssbdestsearch,-37.8152065,144.963937,Talks/Workshops
Project Mayhem w/ The Need at Mr Boogie Man Bar,2025-07-11,20:00,Mr Boogie Man Bar,"160 Hoddle St, Abbotsford VIC 3067, Australia",https://www.facebook.com/events/1212167326582137/,-37.80245,144.99295304614787,Music
MSEP Emergency Birth program for Paramedics (Melbourne),2025-07-11,08:00,The Royal Women's Hospital,"20 Flemington Road Parkville, VIC 3050",https://www.eventbrite.com.au/e/msep-emergency-birth-program-for-paramedics-melbourne-tickets-1324567580289?aff=ebdssbdestsearch,-37.7989848,144.9550748,Talks/Workshops
Mother Tongue Poetry Melbourne: JULY 2025: Shyaire Ganglani,2025-07-11,07:30,St Andrews Alphington / Fairfield Uniting Church,"87 Gillies Street Fairfield, VIC 3078",https://www.eventbrite.com.au/e/mother-tongue-poetry-melbourne-july-2025-shyaire-ganglani-tickets-1214667044829?aff=ebdssbdestsearch,-37.776972,145.017551,Theatre
Stamped & Laced Leather Bag at Leffler Leather,2025-07-11,09:00,Leffler Leather,"171 Kensington Road West Melbourne, VIC 3003",https://www.eventbrite.com.au/e/stamped-laced-leather-bag-at-leffler-leather-tickets-1347329000309?aff=ebdssbdestsearch,-37.8002118,144.9177331,Talks/Workshops
Spell for the Full Moon in Capricorn with Yuchen,2025-07-11,05:30,The SpellBox Cauldron,"24 Block Place Melbourne, VIC 3000Get directions",https://www.eventbrite.com.au/e/spell-for-the-full-moon-in-capricorn-with-yuchen-tickets-1432394694089?aff=ebdssbdestsearch,-37.8158809,144.9644733,Talks/Workshops
"Don Benét: Live '25 @ Corner Hotel, Melbourne",2025-07-11,20:00,The Corner Hotel,"57 Swan St, Richmond VIC 3121",https://www.facebook.com/events/1222985336501211/,-37.82464307,144.9926962,Music
候场喜剧“她·在场”全女拼盘-墨尔本站,2025-07-11,19:30,Library at The Dock,"107 Victoria Harbour Promenade Docklands, VIC 3008Get directions",https://www.eventbrite.com/e/1383662605099?aff=ebdssbdestsearch,-37.8200128,144.9404861,Comedy
SINISTER: ZHEANI [LIVE],2025-07-11,00:00,EMO NEVER SLEEPS,"629 Bourke St, Melbourne VIC 3004, Australia",https://www.facebook.com/events/1852553662225859/,-37.8167994,144.9552063,Music
Crown Casino – Prestige Tower Suite Instagram Photoshoot,2025-07-11,12:00,Crown Melbourne,"8 Whiteman Street Southbank, VIC 3006Get directions",https://www.eventbrite.com.au/e/crown-casino-prestige-tower-suite-instagram-photoshoot-tickets-1390764296449?aff=ebdssbdestsearch,-37.8239578,144.9594467,Art
Radical Women of Cycling: Melbourne [Strength Session],2025-07-11,18:45,Ciclo - Cycling Physio & Bike Fit Melbourne,"11/3 Bromham Place Richmond, VIC 3121Get directions",https://www.eventbrite.com.au/e/radical-women-of-cycling-melbourne-strength-session-tickets-1388683843759?aff=ebdssbdestsearch,-37.8137066,144.9985372,Sport
"Carlton’s 95’ Anniversary Show - Kouta, “Diesel” Williams & Sticks Kernahan",2025-07-11,20:00,Missing Gorilla,"70 Commercial Place #1 Eltham, VIC 3095",https://www.eventbrite.com.au/e/carltons-95-anniversary-show-kouta-diesel-williams-sticks-kernahan-tickets-1303880725349?aff=ebdssbdestsearch,-37.7127434,145.1494258,Sport
Conscious Connection | Pitch Your Single Friend (ages 25 - 35),2025-07-11,06:30,Bridge Hotel,"642 Bridge Road Upstairs Richmond, VIC 3121Get directions",https://www.eventbrite.com.au/e/conscious-connection-pitch-your-single-friend-ages-25-35-tickets-1426622860379?aff=ebdssbdestsearch,-37.8202131,145.0134924,Social/Dating
"MELBOURNE, FITZROY SPEED DATING FOR AGES 26-44 by Cheeky Events Australia",2025-07-11,19:00,Evies Disco Diner,"232 Gertrude Street #230 Fitzroy, VIC 3065Get directions",https://www.eventbrite.com.au/e/melbourne-fitzroy-speed-dating-for-ages-26-44-by-cheeky-events-australia-tickets-1381481922619?aff=ebdssbdestsearch,-37.8064561,144.98229,Social/Dating
No Face No Case Australia 2025,2025-07-11,19:00,Stay Gold,"133 Sydney Road Brunswick, VIC 3056",https://www.eventbrite.com.au/e/no-face-no-case-australia-2025-tickets-1319604676109?aff=ebdssbdestsearch,-37.77435880000001,144.9606103,Music
HELLO PITTY ♥️ EMO PARTY | 170 RUSSELL,2025-07-11,21:30,170 Russell,"170 Russell Street Melbourne, VIC 3000Get directions",https://www.eventbrite.com.au/e/hello-pitty-emo-party-170-russell-tickets-1414808372929?aff=ebdssbdestsearch,-37.8119586,144.9679969,Music
Sip n Paint in Melbourne: Looking Out The Window,2025-07-11,18:30,Ladder Art Space,"4/81 Denmark St Kew, VIC 3101Get directions",https://www.eventbrite.com.au/e/sip-n-paint-in-melbourne-looking-out-the-window-tickets-1387253896749?aff=ebdssbdestsearch,-37.8089958,145.0285779,Art
Jo Dellin and the Bone Spurs Album Launch at The Lomond Hotel.,2025-07-11,21:00,The Lomond Hotel,"225 Nicholson Street Brunswick East, VIC 3057Get directions",https://www.eventbrite.com.au/e/jo-dellin-and-the-bone-spurs-album-launch-at-the-lomond-hotel-tickets-1408119576559?aff=ebdssbdestsearch,-37.7670861,144.9800057,Music
Projectile Dysfunction Album Launch at The Retreat Hotel Brunswick,2025-07-11,19:30,280 Sydney Rd,"280 Sydney Road Brunswick, VIC 3056Get directions",https://www.eventbrite.com.au/e/projectile-dysfunction-album-launch-at-the-retreat-hotel-brunswick-tickets-1431025649239?aff=ebdssbdestsearch,-37.7711488,144.9616353,Music
"Bollywood Club Presents KALA CHASHMA at Crown, Melbourne",2025-07-11,21:30,Crown Melbourne,"8 Whiteman Street Southbank, VIC 3006Get directions",https://www.eventbrite.com.au/e/bollywood-club-presents-kala-chashma-at-crown-melbourne-tickets-1416467485379?aff=ebdssbdestsearch,-37.8239578,144.9594467,Music
De-mystifying AI in manufacturing!,2025-07-11,08:30,Swinburne University of Technology,"John Street Hawthorn, VIC 3122Get directions",https://www.eventbrite.com.au/e/de-mystifying-ai-in-manufacturing-tickets-1354108939289?aff=ebdssbdestsearch,-37.8216292,145.0390703,Talks/Workshops
"Sound Healing - Full Moon in Capricorn, Ritual and Sound Bath",2025-07-11,19:30,Private Studio (near the corner Alma Rd & Hotham St),"Alma Road St Kilda East, VIC 3183Get directions",https://www.eventbrite.com.au/e/sound-healing-full-moon-in-capricorn-ritual-and-sound-bath-tickets-1414463270719?aff=ebdssbdestsearch,-37.8626822,145.001162,Talks/Workshops
Sedative - Love Is Not Enough Album Tour,2025-07-11,19:00,Stay Gold,"133 Sydney Road Brunswick, VIC 3056",https://www.eventbrite.com.au/e/sedative-love-is-not-enough-album-tour-tickets-1319604676109?aff=ebdssbdestsearch,-37.77435880000001,144.9606103,Music
Solana Collective. & AustrAliens Presents: SOLANAALIENS,2025-07-11,21:00,my aeon,"791 Sydney Road Brunswick, VIC 3056Get directions",https://www.eventbrite.com/e/solana-collective-australiens-presents-solanaaliens-tickets-1398183216639?aff=ebdssbdestsearch,-37.7581868,144.9633301,Music
UNIQUE Royal Botanical Gardens Lightscape Experience - Easy 5km,2025-07-11,18:00,Riverland Bar (Outside the bar by the Yarra River),"Federation Wharf Vaults 1-9 Melbourne, VIC 3000Get directions",https://www.eventbrite.com.au/e/unique-royal-botanical-gardens-lightscape-experience-easy-5km-tickets-1414586729989?aff=ebdssbdestsearch,-37.984885,145.2205323,Social/Dating
Birds Are Spies 2025 East Coast Tour - Old Bar,2025-07-11,20:00,The Old Bar,"74-76 Johnston Street Fitzroy, VIC 3065Get directions",https://www.eventbrite.com/e/birds-are-spies-2025-east-coast-tour-old-bar-tickets-1420335996199?aff=ebdssbdestsearch,-37.7983504,144.977068,Music
Faye Webster,2025-07-12,12:00,Forum Melbourne,"150 Flinders St, Melbourne VIC 3000, Australia",https://premier.ticketek.com.au/shows/show.aspx?sh=FAYEWEB25,-37.8166268,144.9695761,
"LOEV's Trivia Night Plus- July 12th, Moorabbin",2025-07-12,19:00,LOEV,"77 Keys Road Moorabbin, VIC 3189Get directions",https://www.eventbrite.com.au/e/loevs-trivia-night-plus-july-12th-moorabbin-tickets-1412993705209?aff=ebdssbdestsearch,-37.9484271,145.067727,Games
Love `More `Move `More - 4 Hour Intensive,2025-07-12,13:00,527 Sydney Rd,"527 Sydney Road Brunswick, VIC 3056Get directions",https://www.eventbrite.com/e/love-more-move-more-4-hour-intensive-tickets-1407967210829?aff=ebdssbdestsearch,-37.7648479,144.9622989,Talks/Workshops
Totally Stonez - The Rolling Stones Show,2025-07-12,07:30,Deer Park Club,"780 Ballarat Road Deer Park, VIC 3023",https://www.eventbrite.com.au/e/totally-stonez-the-rolling-stones-show-tickets-1309341197769?aff=ebdssbdestsearch,-37.770093,144.7804984,Music
Tone Deaf x Techno Time - July 12th - My Aeon,2025-07-12,21:00,My Aeon,"791 Sydney Rd Melbourne, VIC 3458Get directions",https://www.eventbrite.com.au/e/tone-deaf-x-techno-time-july-12th-my-aeon-tickets-1420629734779?aff=ebdssbdestsearch,-37.7581868,144.9633301,Music
Melbourne International Comedy Festival Roadshow - Hobart,2025-07-12,19:30,Melbourne International Comedy Festival,Melbourne,https://www.facebook.com/events/652321984236229/,-37.8136,144.9631,Comedy
Soothing Sounds: Healing Soundbath with Yoga Nidra,2025-07-12,16:30,Wild Grace Studio,"4a Canterbury Rd Toorak, VIC 3142Get directions",https://www.eventbrite.com.au/e/soothing-sounds-healing-soundbath-with-yoga-nidra-tickets-1414813207389?aff=ebdssbdestsearch,-37.84860159999999,145.0094229,Talks/Workshops
Masterclass: Cheese and Wine Pairing,2025-07-12,15:30,Veriu Queen Victoria Market,"101 Therry Street #91 Melbourne, VIC 3000Get directions",https://www.eventbrite.com.au/e/masterclass-cheese-and-wine-pairing-tickets-1307425608189?aff=ebdssbdestsearch,-37.8075026,144.9591449,Talks/Workshops
DANCE FOR A CAUSE KIDS DISCO,2025-07-12,18:00,95-105 Railway Ave,"95-105 Railway Avenue Laverton, VIC 3028",https://www.eventbrite.com.au/e/dance-for-a-cause-kids-disco-tickets-1344959984519?aff=ebdssbdestsearch,-37.8653343,144.7688539,Games
Beauty as Energy,2025-07-12,13:30,"Oracle of Crystals, 228 Glenferrie Road, Malvern VIC, Australia","228 Glenferrie Road Malvern, VIC 3144Get directions",https://www.eventbrite.com.au/e/beauty-as-energy-tickets-1365222189319?aff=ebdssbdestsearch,-37.8585334,145.0292064,Talks/Workshops
Alison Ferrier and the Upshots and  Little Faiths at The Lomond Hotel.,2025-07-12,21:00,The Lomond Hotel,"225 Nicholson Street Brunswick East, VIC 3057Get directions",https://www.eventbrite.com.au/e/alison-ferrier-and-the-upshots-and-little-faiths-at-the-lomond-hotel-tickets-1404584914289?aff=ebdssbdestsearch,-37.7670861,144.9800057,Music
Live Jazz at the VJC with the Sugarfoot Ramblers,2025-07-12,20:00,Clayton RSL,"171 Carinish Road Clayton, VIC 3168Get directions",https://www.eventbrite.com.au/e/live-jazz-at-the-vjc-with-the-sugarfoot-ramblers-tickets-1380185344519?aff=ebdssbdestsearch,-37.9253129,145.1225275,Music
GUNDAM - Starter Deck Release Event - Gameology BRUNSWICK - 12/07/25,2025-07-12,11:30,Gameology Brunswick,"36 Hope Street Brunswick, VIC 3056Get directions",https://www.eventbrite.com.au/e/gundam-starter-deck-release-event-gameology-brunswick-120725-tickets-1414586288669?aff=ebdssbdestsearch,-37.7638098,144.9595269,Games
Vive l'Art: A French-Themed Stencil Masterclass with Blender Studios,2025-07-12,12:30,Veriu Queen Victoria Market,"101 Therry Street #91 Melbourne, VIC 3000Get directions",https://www.eventbrite.com.au/e/vive-lart-a-french-themed-stencil-masterclass-with-blender-studios-tickets-1391900845899?aff=ebdssbdestsearch,-37.8075026,144.9591449,Talks/Workshops
Fast Friending: the fastest way to make new friends! (25-50/Happy Hour)MEL,2025-07-12,19:00,La Di Da,"577 Little Bourke Street Melbourne, VIC 3000Get directions",https://www.eventbrite.co.uk/e/fast-friending-the-fastest-way-to-make-new-friends-25-50happy-hourmel-tickets-1420374812299?aff=ebdssbdestsearch,-37.8154693,144.9556119,Social/Dating
Winter Breaks Feat. Aphrodite (UK),2025-07-12,17:00,Howler,"7-11 Dawson Street Brunswick, VIC 3056",https://www.eventbrite.com.au/e/winter-breaks-feat-aphrodite-uk-tickets-1352069408999?aff=ebdssbdestsearch,-37.771511,144.959539,Music
A Morning of Magic with Mandy Holland,2025-07-12,10:30,TGBC PTY LTD T/A HMWRK,"150 Junction Road Nunawading, VIC 3131Get directions",https://www.eventbrite.com.au/e/a-morning-of-magic-with-mandy-holland-tickets-1414471886489?aff=ebdssbdestsearch,-37.8083611,145.1745281,Talks/Workshops
South Sudan Independence Day,2025-07-12,14:00,206 Glengala Rd,"206 Glengala Road Sunshine West, VIC 3020Get directions",https://www.eventbrite.com.au/e/south-sudan-independence-day-tickets-1413545796529?aff=ebdssbdestsearch,-37.7871868,144.8040636,Unknown
THE PIANO MEN | The Songs of BILLY JOEL & ELTON JOHN | Dinner & Show (50% Sold!),2025-07-12,00:00,arcobar heatherton,"8 Arco Ln, Heatherton VIC 3202, Australia",https://www.facebook.com/events/1587982052084249/,-37.94673685,145.07837928457485,Music
"LADIES NIGHT! - Saturday 12th July - St Luja, St Kilda",2025-07-12,18:00,St LuJa | Cocktail Bar,"9 Fitzroy Street St Kilda, VIC 3182",https://www.eventbrite.com/e/ladies-night-saturday-12th-july-st-luja-st-kilda-tickets-1352097071739?aff=ebdssbdestsearch,-37.8627907,144.9733795,Comedy
THE REAL TURBANATOR IS BACK,2025-07-12,19:00,Festival Hall,"300 Dudley St, West Melbourne VIC 3003, Australia",https://www.facebook.com/events/3926478064334274/,-37.8098193,144.9508057,Other
ALLER REVIENS SEASON 4,2025-07-12,21:00,Chaise Lounge,"105 Queen Street Basement Melbourne, VIC 3000Get directions",https://www.eventbrite.com/e/aller-reviens-season-4-tickets-1415868774619?aff=ebdssbdestsearch,-37.8160614,144.9609546,Unknown
Masterclass : L’Oréal Groupe's Look & Learn,2025-07-12,10:00,Veriu Queen Victoria Market,"101 Therry Street #91 Melbourne, VIC 3000Get directions",https://www.eventbrite.com.au/e/masterclass-loreal-groupes-look-learn-tickets-1352957625679?aff=ebdssbdestsearch,-37.8075026,144.9591449,Talks/Workshops
"Come as strangers, leave as lovers - Speed Dating Night",2025-07-12,16:00,the birdcage,"215 Swan Street Richmond, VIC 3121Get directions",https://www.eventbrite.com.au/e/come-as-strangers-leave-as-lovers-speed-dating-night-tickets-1416278500119?aff=ebdssbdestsearch,-37.8256242,144.9994168,Social/Dating
Open Hands,2025-07-12,07:30,49 Nicholson St,"49 Nicholson Street Brunswick East, VIC 3057Get directions",https://www.eventbrite.com.au/e/open-hands-tickets-1380254822329?aff=ebdssbdestsearch,-37.7774831,144.9780927,Music
Learn to cook Thai: Crab Fried Rice and Chocolate Banana Spring Roll,2025-07-12,11:00,BangPop,"35 South Wharf Promenade South Wharf, VIC 3006Get directions",https://www.eventbrite.com.au/e/learn-to-cook-thai-crab-fried-rice-and-chocolate-banana-spring-roll-tickets-1356253032329?aff=ebdssbdestsearch,-37.824201,144.95135,Talks/Workshops
THE SIMON KINNY-LEWIS BAND,2025-07-13,14:00,Way Out West Roots Music Club,"4 Market St, Newport VIC 3015, Australia",https://www.facebook.com/events/1371251167544020/,-37.8439028,144.8823845,Music
Live Aid Revival 40 Year Anniversary Show @ Altona Sports Club,2025-07-13,14:00,Altona Sports Club,"11 Altona Rd, Altona VIC 3018, Australia",https://www.facebook.com/events/1956578348414671/,-37.85754867,144.85121805353086,Music
2025 Barry Murray Classic Powerlifting Comp,2025-07-13,10:00,Ares Strength Headquarters,"62 Slater Parade Keilor East, VIC 3033",https://www.eventbrite.com.au/e/2025-barry-murray-classic-powerlifting-comp-tickets-1332058586089?aff=ebdssbdestsearch,-37.7336736,144.8583243,Sport
Lisa Simone,2025-07-13,12:00,Hamer Hall,"32 Southgate Ave, Southbank VIC 3006, Australia",https://premier.ticketek.com.au/shows/show.aspx?sh=LISAVHH25,-37.8201455,144.9679946,
Dance in the Park,2025-07-13,11:00,Alfred Crescent,"Alfred Crescent Fitzroy North, VIC 3068",https://www.eventbrite.com.au/e/dance-in-the-park-tickets-1218642736229?aff=ebdssbdestsearch,-37.7879796,144.9855187,Talks/Workshops
Botanical Beauty: Simple Watercolour Florals (art materials included),2025-07-13,10:00,"Melbourne Central ""The Between"" Skybridge https://maps.app.goo.gl/JAhHg44rDVJyszzD6","Level 1 , 211 La Trobe St, Melbourne VIC 3000 Melbourne, VIC 3000",https://www.eventbrite.com.au/e/botanical-beauty-simple-watercolour-florals-art-materials-included-tickets-1285314041899?aff=ebdssbdestsearch,-37.8106228,144.9631884,Talks/Workshops
"Ha-Ha Bingo - Sunday 13th July - Red Eye Bar, St Kilda",2025-07-13,19:30,Red Eye Bar,"17 Carlisle Street St Kilda, VIC 3182",https://www.eventbrite.com/e/ha-ha-bingo-sunday-13th-july-red-eye-bar-st-kilda-tickets-1352097252279?aff=ebdssbdestsearch,-37.8672306,144.9801502,Comedy
Radiant Connection's Women's Circle,2025-07-13,15:00,12 Acacia Pl,"12 Acacia Place Abbotsford, VIC 3067",https://www.eventbrite.com/e/radiant-connections-womens-circle-tickets-934234369147?aff=ebdssbdestsearch,-37.8114011,145.0138844,Social/Dating
"The Smith Street Band, Bad Neighbour, Big League at Corner Hotel, Melbourne (Second show)",2025-07-13,19:00,The Corner Hotel,"57 Swan St, Richmond VIC 3121",https://www.facebook.com/events/3084462818382718/,-37.82464307,144.9926962,Music
Paint and Sip in Melbourne: Golden Hour Walk,2025-07-13,17:30,Ladder Art Space,"4/81 Denmark St Kew, VIC 3101",https://www.eventbrite.com.au/e/paint-and-sip-in-melbourne-golden-hour-walk-tickets-1339439933899?aff=ebdssbdestsearch,-37.8089958,145.0285779,Art
Morning Melodies 2025 Season,2025-07-14,00:00,Arts Centre Melbourne,"100 St Kilda Rd, Southbank VIC 3004, Australia",https://www.facebook.com/events/527914670197100/,-37.8216405,144.9683143,Music
muk Master Colourist MELBOURNE featuring Judi Seeley,2025-07-14,10:00,Salon Baby Hair,"Rear 423 Brunswick Street Fitzroy, VIC 3065",https://www.eventbrite.com.au/e/muk-master-colourist-melbourne-featuring-judi-seeley-tickets-1106842909939?aff=ebdssbdestsearch,-37.7943429,144.9790463,Talks/Workshops
Between The Fractures,2025-07-14,19:00,The Butterfly Club,"5 Carson Place Melbourne, VIC 3000",https://www.eventbrite.co.uk/e/between-the-fractures-tickets-1312392393979?aff=ebdssbdestsearch,-37.8154472,144.9652725,Theatre
"PMP Exam Prep In-Person Course in Melbourne, VIC",2025-07-15,09:00,"Levels 31 & 50/120 Collins St, Melbourne, VIC, 3000, Australia","Levels 31 & 50/120 Collins St Melbourne, VIC 3000Get directions",https://www.eventbrite.com/e/pmp-exam-prep-in-person-course-in-melbourne-vic-tickets-1333379527059?aff=ebdssbdestsearch,-37.8144291,144.9696066,Talks/Workshops
In-Person LSSBB Exam Prep Course in Melbourne,2025-07-15,09:00,"Levels 31 & 50/120 Collins St, Melbourne, VIC, 3000, Australia","Levels 31 & 50/120 Collins St Melbourne, VIC 3000Get directions",https://www.eventbrite.com/e/in-person-lssbb-exam-prep-course-in-melbourne-tickets-1330379935199?aff=ebdssbdestsearch,-37.8144291,144.9696066,Talks/Workshops
Breaking the Castle,2025-07-15,19:30,Theatre Works,"Saint Leonards Avenue St Kilda, VIC 3182",https://www.eventbrite.com.au/e/breaking-the-castle-tickets-1110985219699?aff=ebdssbdestsearch,-37.8638328,144.9768976,Theatre
Stand Up Comedy Showcase! - Tuesday 15th July - St Kilda Sports Club,2025-07-15,19:30,St Kilda Sports Club,"66 Fitzroy Street St Kilda, VIC 3182",https://www.eventbrite.com/e/stand-up-comedy-showcase-tuesday-15th-july-st-kilda-sports-club-tickets-1352098766809?aff=ebdssbdestsearch,-37.8588818,144.9786016,Comedy
Biz Growth Network - In Person - Chadstone Networking Event,2025-07-15,07:45,LXD Lounge,"1341 Dandenong Road #1 Ground Floor Chadstone, VIC 3148",https://www.eventbrite.com.au/e/biz-growth-network-in-person-chadstone-networking-event-tickets-1259187055379?aff=ebdssbdestsearch,-37.8859034,145.085521,Business/Networking
Screenwriting 101: From Idea to Industry - Ready Screenplay,2025-07-15,09:00,Australian City Design College,"343 Little Collins Street #802 Melbourne, VIC 3000",https://www.eventbrite.com/e/screenwriting-101-from-idea-to-industry-ready-screenplay-tickets-1008888331157?aff=ebdssbdestsearch,-37.8154538,144.9634298,Talks/Workshops
Leveraging Robotics for Success | Melbourne,2025-07-15,15:00,Melbourne,"Online Event Melbourne, VIC 3000",https://www.eventbrite.com.au/e/leveraging-robotics-for-success-melbourne-tickets-1052301701717?aff=ebdssbdestsearch,-37.8279601,144.9683224,Talks/Workshops
Lean Six Sigma Green & Black Belt Training with Exam Voucher in Melbourne,2025-07-15,09:00,"Levels 31 & 50/120 Collins St, Melbourne, VIC, 3000, Australia","Levels 31 & 50/120 Collins St Melbourne, VIC 3000Get directions",https://www.eventbrite.com/e/lean-six-sigma-green-black-belt-training-with-exam-voucher-in-melbourne-tickets-1395372910939?aff=ebdssbdestsearch,-37.8144291,144.9696066,Talks/Workshops
The Steward Leadership Edge - Maximising Profit by Maximising Purpose,2025-07-15,09:00,Deakin Downtown,"Tower2, Level 12, 727 Collins Street Melbourne, VIC 3008",https://www.eventbrite.com.au/e/the-steward-leadership-edge-maximising-profit-by-maximising-purpose-tickets-1344934167299?aff=ebdssbdestsearch,-37.8206847,144.949995,Business/Networking
Lean Six Sigma Green Belt with Exam Voucher In-Person Training in Melbourne,2025-07-15,09:00,"Levels 31 & 50/120 Collins St, Melbourne, VIC, 3000, Australia","Levels 31 & 50/120 Collins St Melbourne, VIC 3000Get directions",https://www.eventbrite.com/e/lean-six-sigma-green-belt-with-exam-voucher-in-person-training-in-melbourne-tickets-1383106632169?aff=ebdssbdestsearch,-37.8144291,144.9696066,Business/Networking
In-Person Dual Lean Six Sigma Green and Black Belt Training in Melbourne,2025-07-15,09:00,"Levels 31 & 50/120 Collins St, Melbourne, VIC, 3000, Australia","Levels 31 & 50/120 Collins St Melbourne, VIC 3000Get directions",https://www.eventbrite.com/e/in-person-dual-lean-six-sigma-green-and-black-belt-training-in-melbourne-tickets-1324194404109?aff=ebdssbdestsearch,-37.8144291,144.9696066,Talks/Workshops
In-Person LSSGB Exam Prep Course in Melbourne,2025-07-15,09:00,"Levels 31 & 50/120 Collins St, Melbourne, VIC, 3000, Australia","Levels 31 & 50/120 Collins St Melbourne, VIC 3000Get directions",https://www.eventbrite.com/e/in-person-lssgb-exam-prep-course-in-melbourne-tickets-1331098835449?aff=ebdssbdestsearch,-37.8144291,144.9696066,Talks/Workshops
Dual Lean Six Sigma Green & Black Exam Prep In-Person Course in Melbourne,2025-07-15,09:00,"Levels 31 & 50/120 Collins St, Melbourne, VIC, 3000, Australia","Levels 31 & 50/120 Collins St Melbourne, VIC 3000Get directions",https://www.eventbrite.com/e/dual-lean-six-sigma-green-black-exam-prep-in-person-course-in-melbourne-tickets-1363554681759?aff=ebdssbdestsearch,-37.8144291,144.9696066,Talks/Workshops
In-Person CAPM Exam Prep Course in Melbourne,2025-07-15,09:00,"Levels 31 & 50/120 Collins St, Melbourne, VIC, 3000, Australia","Levels 31 & 50/120 Collins St Melbourne, VIC 3000Get directions",https://www.eventbrite.com/e/in-person-capm-exam-prep-course-in-melbourne-tickets-1320525149269?aff=ebdssbdestsearch,-37.8144291,144.9696066,Talks/Workshops
RETHINKING FIRST EPISODE PSYCHOSIS AND PERSONALITY DISORDER,2025-07-16,09:30,Orygen Colonial  Foundation Innovation Centre,"35 Poplar Road Parkville, VIC 3052",https://www.eventbrite.com.au/e/rethinking-first-episode-psychosis-and-personality-disorder-tickets-1108777024929?aff=ebdssbdestsearch,-37.7801959,144.9478953,Talks/Workshops
International Comedy Showcase! - Wednesday 16th July - Harvey's Sports Bar,2025-07-16,19:30,Harvey's Sports Bar & Grill,"169 Fitzroy Street St Kilda, VIC 3182",https://www.eventbrite.com/e/international-comedy-showcase-wednesday-16th-july-harveys-sports-bar-tickets-1352099157979?aff=ebdssbdestsearch,-37.8580554,144.9807704,Comedy
In-Person PMI ACP Exam Prep Course in Melbourne,2025-07-16,09:00,120 Collins St,"120 Collins Street Levels 31 & 50/120 Collins St Melbourne, VIC 3000",https://www.eventbrite.com/e/in-person-pmi-acp-exam-prep-course-in-melbourne-tickets-1119732212189?aff=ebdssbdestsearch,-37.8138656,144.9695281,Talks/Workshops
MPG 23rd Student Symposium,2025-07-16,09:00,Bio21 Institute - David Penington Building,"30 Flemington Road Parkville, VIC 3052",https://www.eventbrite.com.au/e/mpg-23rd-student-symposium-tickets-1285229348579?aff=ebdssbdestsearch,-37.7970666,144.9540095,Talks/Workshops
Riot Underage • July 16th 2025,2025-07-16,17:00,Chasers Venue,"386 Chapel Street South Yarra, VIC 3141",https://www.eventbrite.com.au/e/riot-underage-july-16th-2025-tickets-1331450637699?aff=ebdssbdestsearch,-37.8459028,144.9947039,Music
"Harry Sheezel & Tristan Xerri LIVE at Union Hotel, Ascot Vale!",2025-07-16,19:00,Union Hotel,"252 Union Road Ascot Vale, VIC 3032",https://www.eventbrite.com.au/e/harry-sheezel-tristan-xerri-live-at-union-hotel-ascot-vale-tickets-1311410156079?aff=ebdssbdestsearch,-37.7719746,144.9163728,Talks/Workshops
Exclusive Industry Luncheon with special guest  Jess Wilson MP,2025-07-17,12:30,Centonove,"109 Cotham Road Kew, VIC 3101",https://www.eventbrite.com.au/e/exclusive-industry-luncheon-with-special-guest-jess-wilson-mp-tickets-1303839441869?aff=ebdssbdestsearch,-37.8075681,145.0387546,Business/Networking
​Connecting Hydrogen APAC 2025,2025-07-17,09:00,Melbourne Convention and Exhibition Centre (MCEC),"1 Convention Centre Place South Wharf, VIC 3006",https://www.eventbrite.sg/e/connecting-hydrogen-apac-2025-tickets-1083791001059?aff=ebdssbdestsearch,-37.82520299999999,144.952251,Business/Networking
Australia Wind Energy 2025,2025-07-17,09:00,Melbourne Convention and Exhibition Centre (MCEC),"1 Convention Centre Place South Wharf, VIC 3006",https://www.eventbrite.sg/e/australia-wind-energy-2025-tickets-1095037910869?aff=ebdssbdestsearch,-37.82520299999999,144.952251,Business/Networking
Carbon Capture APAC Summit 2025,2025-07-17,09:00,Melbourne Convention and Exhibition Centre (MCEC),"1 Convention Centre Place South Wharf, VIC 3006",https://www.eventbrite.sg/e/carbon-capture-apac-summit-2025-tickets-1106870713099?aff=ebdssbdestsearch,-37.82520299999999,144.952251,Business/Networking
Monoprint,2025-07-17,10:00,Australian Print Workshop,"210 Gertrude Street Fitzroy, VIC 3065",https://www.eventbrite.com.au/e/monoprint-registration-1204319274369?aff=ebdssbdestsearch,-37.8064244,144.9815567,Talks/Workshops
Touche Amore Aus Tour with Militarie Gun – Melbourne 18+,2025-07-17,19:00,170 Russell,"170 Russell St, Melbourne VIC 3000, Australia",https://www.facebook.com/events/1460835815272910/,-37.8120109,144.9679369,Music
John Williams Blues Band & Thursday Night Jam!,2025-07-17,00:00,Hume Blues Club Inc,"27 Ballantyne St, Thornbury VIC 3071, Australia",https://www.facebook.com/events/1406769783686080/,-37.7588241,144.9985126,Music
Melbourne Magic Show - Impossible Occurrences,2025-07-18,21:30,Melbourne Marriott Hotel,"Cnr Lonsdale & Exhibition St Melbourne, VIC 3000",https://www.eventbrite.com.au/e/melbourne-magic-show-impossible-occurrences-tickets-947627648807?aff=ebdssbdestsearch,-37.8100597,144.9697004,Theatre
Dinner & Show Package - Melbourne Magic Show,2025-07-18,20:00,Melbourne Marriott Hotel,"Cnr Lonsdale & Exhibition St Melbourne, VIC 3000",https://www.eventbrite.com.au/e/dinner-show-package-melbourne-magic-show-tickets-1075339743119?aff=ebdssbdestsearch,-37.8100597,144.9697004,Theatre
Northern Awards Scholarship Luncheon,2025-07-18,11:30,Melbourne Pavilion,"135-157 Racecourse Road Kensington, VIC 3031",https://www.eventbrite.com.au/e/northern-awards-scholarship-luncheon-tickets-919271244037?aff=ebdssbdestsearch,-37.7891081,144.9364233,Business/Networking
Zoho CRM Training Online - Melbourne,2025-07-18,08:00,Melbourne,"Zoom Melbourne, VIC 3000",https://www.eventbrite.com.au/e/zoho-crm-training-online-melbourne-tickets-1258065831769?aff=ebdssbdestsearch,-37.8152065,144.963937,Talks/Workshops
360,2025-07-18,12:00,Forum Melbourne,"150 Flinders St, Melbourne VIC 3000, Australia",https://premier.ticketek.com.au/shows/show.aspx?sh=THREESIX25,-37.8166268,144.9695761,
"Literally Presents KC Lights (UK) , John Course ++",2025-07-18,20:00,The Emerson Rooftop Bar and Club,"141-145 Commercial Rd, South Yarra VIC 3141, Australia",https://www.facebook.com/events/1049603260464873/,-37.84659833,144.99210205798175,Music
"THE SPILL CANVAS + THE JULIANA THEORY @ MAX WATTS, MELBOURNE",2025-07-18,19:30,Max Watts,"125 Swanston St, Melbourne VIC 3000, Australia",https://www.facebook.com/events/1177322870806011/,-37.8147557,144.9659879,Music
The Uncle Louie Variety Show,2025-07-18,19:00,The Astor Theatre,"1 Chapel Street St Kilda, VIC 3182",https://www.eventbrite.com.au/e/the-uncle-louie-variety-show-tickets-1080266348729?aff=ebdssbdestsearch,-37.857906,144.991994,Comedy
Mandy Connell & Jhana Allan at The Lomond Hotel.,2025-07-19,17:00,The Lomond Hotel,"225 Nicholson Street Brunswick East, VIC 3057",https://www.eventbrite.com.au/e/mandy-connell-jhana-allan-at-the-lomond-hotel-tickets-1322707727419?aff=ebdssbdestsearch,-37.7670861,144.9800057,Music
Men Of Dreams - Melbourne,2025-07-19,18:00,60 King St,"60 King Street Melbourne, VIC 3000",https://www.eventbrite.com.au/e/men-of-dreams-melbourne-tickets-1256985019029?aff=ebdssbdestsearch,-37.8188863,144.9571605,Social/Dating
Where Love Lives 3rd Bday Melbourne feat: BARBARA TUCKER (USA) Live PA,2025-07-19,15:00,The Emerson Rooftop Bar and Club,"141-145 Commercial Road South Yarra, VIC 3141",https://www.eventbrite.com.au/e/where-love-lives-3rd-bday-melbourne-feat-barbara-tucker-usa-live-pa-tickets-1339126155379?aff=ebdssbdestsearch,-37.8462997,144.9911964,Music
Where Love Lives 3rd Bday feat: BARBARA TUCKER (USA),2025-07-19,15:00,The Emerson Rooftop Bar and Club,"141-145 Commercial Road South Yarra, VIC 3141",https://www.eventbrite.com.au/e/where-love-lives-3rd-bday-feat-barbara-tucker-usa-tickets-1339126155379?aff=ebdssbdestsearch,-37.8462997,144.9911964,Music
Synthony,2025-07-19,12:00,Margaret Court Arena,"5XHH+G3 Melbourne VIC, Australia",https://premier.ticketek.com.au/shows/show.aspx?sh=SYNTHONY25,-37.8211276,144.9776364,
THE FLOYD SHOW - The Pink Floyd Tribute @ Oakleigh Music Hall,2025-07-19,00:00,Oakleigh Carnegie RSL,"95/97 Drummond St, Oakleigh VIC 3166, Australia",https://www.facebook.com/events/1697504987820279/,-37.8968576,145.08963741959553,Music
VRC Members Race Day,2025-07-19,11:30,Flemington Racecourse,"448 Epsom Road, Flemington Flemington VIC 3031, Australia",https://www.facebook.com/events/696237956333483/,-37.78925135,144.9127712588256,Sport
The Herberts - The Ultimate 60s Rock and Pop Experience,2025-07-19,00:00,Carnegie Hall,"60 Rosstown Rd, Carnegie VIC 3163, Australia",https://www.facebook.com/events/1708252393413691/,-37.8864262,145.05686284914034,Music
Barnyard Yoga Melbourne,2025-07-19,09:30,Second Story,"222A Johnston Street Collingwood, VIC 3066",https://www.eventbrite.com.au/e/barnyard-yoga-melbourne-tickets-1220530201689?aff=ebdssbdestsearch,-37.799574,144.9924469,Talks/Workshops
Science Fantasy Rave Melbourne #2,2025-07-19,20:00,Deluxe Bar,"595 Mount Alexander Road Moonee Ponds, VIC 3039",https://www.eventbrite.com.au/e/science-fantasy-rave-melbourne-2-tickets-1306936104069?aff=ebdssbdestsearch,-37.768307,144.9249239,Music
The Hives,2025-07-19,12:00,Forum Melbourne,"150 Flinders St, Melbourne VIC 3000, Australia",https://premier.ticketek.com.au/shows/show.aspx?sh=HIVES25,-37.8166268,144.9695761,
The Gin Club at The Curtin,2025-07-19,20:00,THE CURTIN (John Curtin hotel),"29 Lygon St, Carlton VIC 3053, Australia",https://www.facebook.com/events/1357286522186941/,-37.8061581,144.9657057,Music
Rainbow Hoedown- Sat July 19th at LOEV Moorabbin,2025-07-19,19:00,LOEV,"77 Keys Road Moorabbin, VIC 3189",https://www.eventbrite.com.au/e/rainbow-hoedown-sat-july-19th-at-loev-moorabbin-tickets-1127313056699?aff=ebdssbdestsearch,-37.9484271,145.067727,Social/Dating
Junk Journal Making Workshop,2025-07-20,11:00,The District Docklands,"440 Docklands Drive Docklands, VIC 3008",https://www.eventbrite.com.au/e/junk-journal-making-workshop-tickets-1297669286769?aff=ebdssbdestsearch,-37.8139029,144.9376542,Talks/Workshops
Hardcover Journal Making Workshop,2025-07-20,11:00,The District Docklands,"440 Docklands Drive Docklands, VIC 3008",https://www.eventbrite.com.au/e/hardcover-journal-making-workshop-tickets-1352035778409?aff=ebdssbdestsearch,-37.8139029,144.9376542,Talks/Workshops
"Learn stand-up comedy in Melbourne this July, 2025 with Dave Hughes",2025-07-20,18:30,Limerick Arms Hotel,"364 Clarendon Street South Melbourne, VIC 3205",https://www.eventbrite.com.au/e/learn-stand-up-comedy-in-melbourne-this-july-2025-with-dave-hughes-tickets-1187648942959?aff=ebdssbdestsearch,-37.8354562,144.9614044,Comedy
"Learn stand-up comedy in Melbourne this July, 2025",2025-07-20,18:30,Limerick Arms Hotel,"364 Clarendon Street South Melbourne, VIC 3205",https://www.eventbrite.com.au/e/learn-stand-up-comedy-in-melbourne-this-july-2025-tickets-1187648942959?aff=ebdssbdestsearch,-37.8354562,144.9614044,Comedy
Bloom Seddon Melbourne -  Feminine Self Love Experience with Taryn Darlow,2025-07-20,11:00,77 Charles St,"77 Charles Street Seddon, VIC 3011Get directions",https://www.eventbrite.com.au/e/bloom-seddon-melbourne-feminine-self-love-experience-with-taryn-darlow-tickets-880700176937?aff=ebdssbdestsearch,-37.8068439,144.8917066,Talks/Workshops
SELLING FAST! ALL-AGES TAYLOR SWIFT TRIBUTE SHOW AT THE PALMS AT CROWN,2025-07-20,14:30,Palladium at Crown,"Level 1 Crown Towers, Crown Melbourne, 8 Whiteman St, Southbank VIC 3006, Australia",https://www.facebook.com/events/3964871110467381/,-37.822181,144.959875,Music
JULES BOULT AND THE REDEEMERS,2025-07-20,14:00,Way Out West Roots Music Club,"4 Market St, Newport VIC 3015, Australia",https://www.facebook.com/events/632014106404547/,-37.8439028,144.8823845,Music
Sound Circle - Enjoy a deeply relaxing and rebalancing Journey inwards,2025-07-20,16:00,level 1/14 Pakington St,"14 Pakington Street #level 1 St Kilda, VIC 3182",https://www.eventbrite.com.au/e/sound-circle-enjoy-a-deeply-relaxing-and-rebalancing-journey-inwards-tickets-1341455161499?aff=ebdssbdestsearch,-37.8655601,144.9873231,Talks/Workshops
2025 Truffle Workshop at Ratio Cocoa Roasters,2025-07-20,11:00,Ratio Cocoa Roasters,"186 Sydney Road Brunswick, VIC 3056",https://www.eventbrite.com.au/e/2025-truffle-workshop-at-ratio-cocoa-roasters-tickets-1083659206859?aff=ebdssbdestsearch,-37.7735618,144.9611677,Talks/Workshops
Woodcut,2025-07-22,10:00,Australian Print Workshop,"210 Gertrude St Fitzroy, VIC 3065",https://www.eventbrite.com.au/e/woodcut-tickets-1204348491759?aff=ebdssbdestsearch,-37.8064244,144.9815567,Art
Change Professional 3-Day Course,2025-07-22,09:30,Melbourne,"To Be Confirmed Melbourne, VIC 3000",https://www.eventbrite.com.au/e/change-professional-3-day-course-tickets-651559701607?aff=ebdssbdestsearch,-37.8152065,144.963937,Business/Networking
2025 State Library School Program,2025-07-22,10:00,State Library Victoria,"328 Swanston Street Melbourne, VIC 3000",https://www.eventbrite.com.au/e/2025-state-library-school-program-tickets-1081252839349?aff=ebdssbdestsearch,-37.8097472,144.9654858,Talks/Workshops
"4 Day Project Management  In-Person Training In Rockford, IL",2025-07-22,23:00,220 Spencer St,"220 Spencer Street Melbourne, VIC 3000Get directions",https://www.eventbrite.com/e/4-day-project-management-in-person-training-in-rockford-il-tickets-959877277777?aff=ebdssbdestsearch,-37.8153283,144.9528703,Business/Networking
Anime and manga digital and traditional illustrating club,2025-07-22,11:30,City Library,"253 Flinders Lane Melbourne, VIC 3000Get directions",https://www.eventbrite.com.au/e/anime-and-manga-digital-and-traditional-illustrating-club-tickets-1108971346149?aff=ebdssbdestsearch,-37.8171117,144.9660625,Art
EQUATE '25,2025-07-23,10:30,Flemington Racecourse,"448 Epsom Road Flemington, VIC 3031",https://www.eventbrite.com.au/e/equate-25-tickets-1210334235279?aff=ebdssbdestsearch,-37.7868916,144.9203908,Talks/Workshops
The Listening Room - A New Kind of Open Mic,2025-07-23,18:45,Nighthawks,"136 Johnston Street Collingwood, VIC 3066",https://www.eventbrite.com.au/e/the-listening-room-a-new-kind-of-open-mic-tickets-1261682950669?aff=ebdssbdestsearch,-37.7993105,144.989544,Music
RELATIONAL FORMULATION: UNDERSTANDING COMPLEXITY,2025-07-23,09:30,Orygen Colonial  Foundation Innovation Centre,"35 Poplar Road Parkville, VIC 3052",https://www.eventbrite.com.au/e/relational-formulation-understanding-complexity-tickets-1108820474889?aff=ebdssbdestsearch,-37.7801959,144.9478953,Talks/Workshops
YHWH Nailgun | Melbourne,2025-07-23,18:00,THE CURTIN (John Curtin hotel),"29 Lygon St, Carlton VIC 3053, Australia",https://www.facebook.com/events/1170313141564554/,-37.8061581,144.9657057,Music
Bear McCreary,2025-07-23,12:00,Forum Melbourne,"150 Flinders St, Melbourne VIC 3000, Australia",https://premier.ticketek.com.au/shows/show.aspx?sh=BEARMC25,-37.8166268,144.9695761,
Blood Wedding,2025-07-23,19:30,Theatre Works,"Saint Leonards Avenue St Kilda, VIC 3182",https://www.eventbrite.com.au/e/blood-wedding-tickets-1110986794409?aff=ebdssbdestsearch,-37.8638328,144.9768976,Theatre
Non Profit Finance Training - Melbourne - July 2025,2025-07-24,10:00,Melbourne,"Online Melbourne, VIC 3000",https://www.eventbrite.com.au/e/non-profit-finance-training-melbourne-july-2025-registration-1323261253029?aff=ebdssbdestsearch,-37.8152065,144.963937,Talks/Workshops
no title,2025-07-24,17:30,The Butterfly Club,"5 Carson Place Melbourne, VIC 3000",https://www.eventbrite.co.uk/e/no-title-tickets-1268063866159?aff=ebdssbdestsearch,-37.8154472,144.9652725,Theatre
BASIC (Basic Assessment and Support in Intensive Care),2025-07-24,08:00,The Royal Melbourne Hospital,"Intensive Care Unit -  B-Building Level 5 300 Grattan Street Parkville, VIC 3050",https://www.eventbrite.com.au/e/basic-basic-assessment-and-support-in-intensive-care-tickets-1070290099499?aff=ebdssbdestsearch,-37.7988768,144.9553101,Talks/Workshops
Christmas in July Lunch at Overnewton Castle,2025-07-24,12:00,Overnewton Castle,"51 Overnewton Road Keilor, VIC 3036",https://www.eventbrite.com.au/e/christmas-in-july-lunch-at-overnewton-castle-tickets-1204363737359?aff=ebdssbdestsearch,-37.7048096,144.8209018,Social/Dating
MSA On Campus Karaoke Night,2025-07-24,18:00,Sir John's Bar,"21 Chancellors Walk Clayton, VIC 3168",https://www.eventbrite.com.au/e/msa-on-campus-karaoke-night-tickets-1352977665619?aff=ebdssbdestsearch,-37.9118511,145.1329483,Social/Dating
Linocut,2025-07-24,10:00,Australian Print Workshop,"210 Gertrude St Fitzroy, VIC 3065",https://www.eventbrite.com.au/e/linocut-tickets-1204362985109?aff=ebdssbdestsearch,-37.8064244,144.9815567,Art
StoryBrand Workshop - July 2025,2025-07-24,09:30,Mercure Melbourne Doncaster,"6 Tower Street Doncaster, VIC 3108",https://www.eventbrite.com.au/e/storybrand-workshop-july-2025-tickets-1329299423359?aff=ebdssbdestsearch,-37.786351,145.128142,Business/Networking
Ingested + Algor Mortis + Gutless + Growth - Melbourne - Max Watts,2025-07-24,00:00,Max Watts,"125 Swanston St, Melbourne VIC 3000, Australia",https://www.facebook.com/events/705556305257698/,-37.8147557,144.9659879,Music
Damon Smith Trio & Thursday Night Jam!,2025-07-24,00:00,Hume Blues Club Inc,"27 Ballantyne St, Thornbury VIC 3071, Australia",https://www.facebook.com/events/1271621881049143/,-37.7588241,144.9985126,Music
Parts of Me: Understanding Schemas in Motherhood,2025-07-25,11:00,Brunswick,"Brunswick Brunswick, VIC 3056",https://www.eventbrite.com.au/e/parts-of-me-understanding-schemas-in-motherhood-registration-1330461037779?aff=ebdssbdestsearch,-37.7666099,144.9584302,Talks/Workshops
GT Festival Sandown - Shannons SpeedSeries,2025-07-25,09:00,Sandown International Motor Raceway,"591-659 Princes Hwy Springvale, VIC 3171",https://www.eventbrite.com.au/e/gt-festival-sandown-shannons-speedseries-tickets-1235961266419?aff=ebdssbdestsearch,-37.9441995,145.1683789,Sport
Christmas in July Dinner at Overnewton Castle,2025-07-25,19:00,Overnewton Castle,"51 Overnewton Road Keilor, VIC 3036",https://www.eventbrite.com.au/e/christmas-in-july-dinner-at-overnewton-castle-tickets-1204356064409?aff=ebdssbdestsearch,-37.7048096,144.8209018,Social/Dating
The Annual Castan Centre for Human Rights Law Conference,2025-07-25,08:30,"Conversation Quarter and Theatrette,  Conference Centre, Entry 3, State Library Victoria","179 La Trobe Street Melbourne, VIC 3000",https://www.eventbrite.com.au/e/the-annual-castan-centre-for-human-rights-law-conference-tickets-1320621657929?aff=ebdssbdestsearch,-37.809415,144.9652062,Talks/Workshops
Groove Dimension-70s Funk-RNB & Disco-Soul,2025-07-25,20:30,Olympic Hotel,"31 Albert Street Preston, VIC 3072",https://www.eventbrite.com.au/e/groove-dimension-70s-funk-rnb-disco-soul-tickets-1336241888459?aff=ebdssbdestsearch,-37.7465792,145.021604,Music
Supporting Learners with CVI and Complex Physical Disabilities,2025-07-25,09:00,Cerebral Palsy Education Centre,"Beacon Street Glen Waverley, VIC 3150",https://www.eventbrite.com.au/e/supporting-learners-with-cvi-and-complex-physical-disabilities-tickets-1311303968469?aff=ebdssbdestsearch,-37.8856164,145.1635261,Talks/Workshops
DOPE LEMON,2025-07-25,12:00,Forum Melbourne,"150 Flinders St, Melbourne VIC 3000, Australia",https://premier.ticketek.com.au/shows/show.aspx?sh=DOPELEM25,-37.8166268,144.9695761,
The Legends of Rugby,2025-07-25,12:00,Grand Hyatt Melbourne,"123 Collins St, Melbourne VIC 3000, Australia",https://premier.ticketek.com.au/shows/show.aspx?sh=LEGRUGBY25,-37.8152075,144.9698275,
Zoho Inventory Training Online - Melbourne,2025-07-25,08:00,Melbourne,"Zoom Melbourne, VIC 3000",https://www.eventbrite.com.au/e/zoho-inventory-training-online-melbourne-tickets-1285994507189?aff=ebdssbdestsearch,-37.8152065,144.963937,Talks/Workshops
Presentations With A Difference,2025-07-25,09:00,Karstens Conference Centre,"Level 11, 123 Queen Street Melbourne, VIC 3000",https://www.eventbrite.com.au/e/presentations-with-a-difference-tickets-912987880327?aff=ebdssbdestsearch,-37.8157528,144.9607103,Talks/Workshops
Video Content Creation for Website and Social Media - Melbourne Campus,2025-07-25,09:00,Australian City Design College,"343 Little Collins Street #802 Melbourne, VIC 3000",https://www.eventbrite.com/e/video-content-creation-for-website-and-social-media-melbourne-campus-tickets-981293434077?aff=ebdssbdestsearch,-37.8154538,144.9634298,Talks/Workshops
Diploma in Reflexology,2025-07-26,09:30,St Joseph's,"16 Esplanade Williamstown, VIC 3016",https://www.eventbrite.com.au/e/diploma-in-reflexology-tickets-1123728364789?aff=ebdssbdestsearch,-37.869719,144.8987936,Talks/Workshops
"Coffee Roasting Course: 2 Day, Comprehensive Coffee Roasting Course",2025-07-26,08:30,Project 281,"281 Albert St Brunswick, VIC 3056Get directions",https://www.eventbrite.com.au/e/coffee-roasting-course-2-day-comprehensive-coffee-roasting-course-tickets-76636807755?aff=ebdssbdestsearch,-37.7685063,144.9606754,Talks/Workshops
SUNDAYLICIOUS RnB |  SATURDAY  NIGHT | JULY 26 | 8pm - 3am | LGBTQIA+ event,2025-07-26,20:00,La Di Da,"577 Little Bourke Street Melbourne, VIC 3000",https://www.eventbrite.com.au/e/sundaylicious-rnb-saturday-night-july-26-8pm-3am-lgbtqia-event-tickets-1333355765989?aff=ebdssbdestsearch,-37.8154693,144.9556119,Music
"Snuggle Party Brunswick: connect, consent & cuddle",2025-07-26,18:00,Studio Take Care,"1 Pitt Street Brunswick, VIC 3056",https://www.eventbrite.com.au/e/snuggle-party-brunswick-connect-consent-cuddle-tickets-1142083635899?aff=ebdssbdestsearch,-37.7711984,144.9711714,Social/Dating
Melbourne International Student Summit 2025,2025-07-26,10:00,Melbourne Town Hall,"90-130 Swanston Street Melbourne, VIC 3000Get directions",https://www.eventbrite.com.au/e/melbourne-international-student-summit-2025-tickets-1232418138829?aff=ebdssbdestsearch,-37.8148118,144.9665076,Business/Networking
Japanese Tea 101,2025-07-26,11:00,Mystik River,"3 Southgate Avenue Southbank, VIC 3006",https://www.eventbrite.com.au/e/japanese-tea-101-tickets-1261816369729?aff=ebdssbdestsearch,-37.820556,144.965833,Talks/Workshops
SOS!!!									The Australian ABBA Tribute Show.,2025-07-26,20:00,Moonee Ponds Bowling Club,"776 Mount Alexander Road Moonee Ponds, VIC 3039",https://www.eventbrite.com.au/e/sos-the-australian-abba-tribute-show-tickets-1316987287429?aff=ebdssbdestsearch,-37.7622056,144.922656,Unknown
Peruvian Independence Day  @ Plough Hotel Footscray,2025-07-26,18:00,333 Barkly St,"333 Barkly Street Footscray, VIC 3011",https://www.eventbrite.com.au/e/peruvian-independence-day-plough-hotel-footscray-tickets-1329371880079?aff=ebdssbdestsearch,-37.7991718,144.8928504,Music
Christmas in July at Stamford Plaza Melbourne,2025-07-26,00:00,Stamford Plaza Melbourne,"111 Little Collins St, Melbourne VIC 3000, Australia",https://www.facebook.com/events/2099832587161298/,-37.81359225,144.9700614178762,Social/Dating
One Direction 15 Year Anniversary Party - Melbourne,2025-07-26,20:00,Max Watts,"125 Swanston St, Melbourne VIC 3000, Australia",https://www.facebook.com/events/540276355827503/,-37.8147557,144.9659879,Music
Christmas in July,2025-07-26,00:00,Taxi Kitchen,"Taxi Kitchen, Transport Hotel, Level 1 Federation Square, Melbourne VIC 3000, Australia",https://www.facebook.com/events/1707621383461365/,-37.81820779,144.9683928,Social/Dating
Cheers to That: A Night of Books and Beers,2025-07-26,00:00,The Wheeler Centre,"176 Little Lonsdale St, Melbourne VIC 3000, Australia",https://www.facebook.com/events/852468243757378/,-37.8101765,144.9652219,Social/Dating
Still Life Club,2025-07-27,13:20,Runner Up Rooftop Bar,"35 Johnston Street #Level 2 Collingwood, VIC 3066Get directions",https://www.eventbrite.com.au/e/still-life-club-tickets-1295500650319?aff=ebdssbdestsearch,-37.7992906,144.9861257,Art
Manchester Unity Building Tour,2025-07-27,14:00,Manchester Unity Building,"Ground Floor 220 Collins Street Melbourne, VIC 3000",https://www.eventbrite.com.au/e/manchester-unity-building-tour-tickets-1298788634769?aff=ebdssbdestsearch,-37.8182902,144.9566734,Talks/Workshops
Manchester Unity Building Tour,2025-07-27,10:00,Manchester Unity Building,"Ground Floor 220 Collins Street Melbourne, VIC 3000",https://www.eventbrite.com.au/e/manchester-unity-building-tour-tickets-1298784893579?aff=ebdssbdestsearch,-37.8182902,144.9566734,Talks/Workshops
"Meet Dr Sandra Cabot MD, One Day Only Health Seminar Melbourne, 27 July 25",2025-07-27,09:30,Malvern Town Hall,"1251 High Street Malvern, VIC 3144",https://www.eventbrite.com.au/e/meet-dr-sandra-cabot-md-one-day-only-health-seminar-melbourne-27-july-25-tickets-1307490000789?aff=ebdssbdestsearch,-37.8562757,145.0297103,Talks/Workshops
MAINSTREAM Conference July 2025,2025-07-27,18:00,CENTREPIECE at Melbourne Park,"Olympic Boulevard Melbourne, VIC 3000",https://www.eventbrite.com.au/e/mainstream-conference-july-2025-tickets-1115065122799?aff=ebdssbdestsearch,-37.8231282,144.9764579,Business/Networking
A Taste of Spain - Cooking Class,2025-07-27,12:00,La Fabrica Studio Hire,"91 Moreland Street #43 Footscray, VIC 3011Get directions",https://www.eventbrite.com.au/e/a-taste-of-spain-cooking-class-tickets-1305730437889?aff=ebdssbdestsearch,-37.8080581,144.9045975,Talks/Workshops
"CISA Exam Prep In-Person Course in Melbourne, VIC",2025-07-28,09:00,"Levels 31 & 50/120 Collins St, Melbourne, VIC, 3000, Australia","Levels 31 & 50/120 Collins St Melbourne, VIC 3000Get directions",https://www.eventbrite.com/e/cisa-exam-prep-in-person-course-in-melbourne-vic-tickets-1344984126729?aff=ebdssbdestsearch,-37.8144291,144.9696066,Talks/Workshops
"Salesforce Administrator Training Melbourne, VIC In-Person Class",2025-07-28,19:00,"Levels 31 & 50/120 Collins St, Melbourne, VIC, 3000, Australia","Levels 31 & 50/120 Collins St Melbourne, VIC 3000",https://www.eventbrite.com/e/salesforce-administrator-training-melbourne-vic-in-person-class-tickets-1339142052929?aff=ebdssbdestsearch,-37.8144291,144.9696066,Talks/Workshops
"CISA Preparation Training by Experts in Melbourne, VIC",2025-07-28,09:00,"Levels 31 & 50/120 Collins St, Melbourne, VIC, 3000, Australia","Levels 31 & 50/120 Collins St Melbourne, VIC 3000",https://www.eventbrite.com/e/cisa-preparation-training-by-experts-in-melbourne-vic-tickets-1389939609789?aff=ebdssbdestsearch,-37.8144291,144.9696066,Talks/Workshops
"PURE - Balayage Mastery Workshop - Melbourne, VIC",2025-07-28,10:00,Aé&M Salon,"21-27 Brunswick Road Shop 4 Brunswick East, VIC 3057",https://www.eventbrite.com.au/e/pure-balayage-mastery-workshop-melbourne-vic-tickets-1254020321539?aff=ebdssbdestsearch,-37.7787636,144.9766404,Talks/Workshops
"CISSP Exam Prep In-Person Course in Melbourne, VIC",2025-07-28,19:00,"Levels 31 & 50/120 Collins St, Melbourne, VIC, 3000, Australia","Levels 31 & 50/120 Collins St Melbourne, VIC 3000",https://www.eventbrite.com/e/cissp-exam-prep-in-person-course-in-melbourne-vic-tickets-1363582966359?aff=ebdssbdestsearch,-37.8144291,144.9696066,Talks/Workshops
Certificate II in Security Operations (CPP20218) - Tullamarine,2025-07-28,08:30,Tullamarine,"TBC Tullamarine, VIC 3043",https://www.eventbrite.com.au/e/certificate-ii-in-security-operations-cpp20218-tullamarine-tickets-1301617596269?aff=ebdssbdestsearch,-37.7044206,144.8786231,Talks/Workshops
PODD Speech Generating Device Workshop,2025-07-28,19:30,Cerebral Palsy Education Centre,"Beacon Street Glen Waverley, VIC 3150",https://www.eventbrite.com.au/e/podd-speech-generating-device-workshop-tickets-1320660343639?aff=ebdssbdestsearch,-37.8856164,145.1635261,Talks/Workshops
"YTM Progressive Dinner 2025 Insight : Why I started... and why I stopped""",2025-07-29,17:30,The Deck Brighton,"212 Bay Street Brighton, VIC 3186",https://www.eventbrite.com.au/e/ytm-progressive-dinner-2025-insight-why-i-started-and-why-i-stopped-tickets-1280075282629?aff=ebdssbdestsearch,-37.9052818,144.999296,Business/Networking
Employment Law & Workplace Relations Masterclass Melbourne,2025-07-29,09:00,CBD Melbourne,"1/440 Collins St Melbourne, VIC 3000",https://www.eventbrite.com/e/employment-law-workplace-relations-masterclass-melbourne-tickets-1235353277909?aff=ebdssbdestsearch,-37.8170853,144.9598938,Talks/Workshops
Salesforce Administrator Expert Level In-Person Training in Melbourne,2025-07-29,09:00,"Levels 31 & 50/120 Collins St, Melbourne, VIC, 3000, Australia","Levels 31 & 50/120 Collins St Melbourne, VIC 3000Get directions",https://www.eventbrite.com/e/salesforce-administrator-expert-level-in-person-training-in-melbourne-tickets-1406377074689?aff=ebdssbdestsearch,-37.8144291,144.9696066,Talks/Workshops
The Startup Network Presents: Pitch Night!,2025-07-29,18:00,The Commons Gipps St,"38 Gipps St Collingwood, VIC 3066",https://www.eventbrite.com.au/e/the-startup-network-presents-pitch-night-tickets-1089406116019?aff=ebdssbdestsearch,-37.8041282,144.9882914,Business/Networking
The Art of Storytelling for Industry and Creativity,2025-07-29,09:00,Australian City Design College,"343 Little Collins Street #802 Melbourne, VIC 3000Get directions",https://www.eventbrite.com/e/the-art-of-storytelling-for-industry-and-creativity-tickets-1008882383367?aff=ebdssbdestsearch,-37.8154538,144.9634298,Talks/Workshops
THE ULTIMATE EVENT ON BUILDING SOCIAL PLATFORMS AND SOCIAL CONNECTION,2025-07-29,06:30,Roxy's Functions & Events,"2 Alfred Place South Melbourne, VIC 3205",https://www.eventbrite.com/e/the-ultimate-event-on-building-social-platforms-and-social-connection-tickets-1278969244439?aff=ebdssbdestsearch,-37.8313626,144.9592064,Business/Networking
AI and Automation In Business​,2025-07-29,09:00,Melbourne Marriott Hotel Docklands,"15 Waterfront Way Docklands, VIC 3008",https://www.eventbrite.com.au/e/ai-and-automation-in-business-tickets-1323201544439?aff=ebdssbdestsearch,-37.8136886,144.939224,Business/Networking
DevSecOps Focal Point Forum 2025 | 29 - 30 July 2025 | Melbourne Australia,2025-07-29,09:00,Melbourne Marriott Hotel Docklands,"15 Waterfront Way Docklands, VIC 3008",https://www.eventbrite.com.au/e/devsecops-focal-point-forum-2025-29-30-july-2025-melbourne-australia-tickets-1143819507939?aff=ebdssbdestsearch,-37.8136886,144.939224,Business/Networking
Authentic Assessment in the Early Childhood Years,2025-07-29,09:00,Melbourne,"City Melbourne, VIC 3000",https://www.eventbrite.sg/e/authentic-assessment-in-the-early-childhood-years-tickets-1351463416459?aff=ebdssbdestsearch,-37.8152065,144.963937,Talks/Workshops
Contract Law Fundamentals for Non-Lawyers Masterclass Melbourne,2025-07-30,09:00,CBD Melbourne,"1/440 Collins St Melbourne, VIC 3000",https://www.eventbrite.com/e/contract-law-fundamentals-for-non-lawyers-masterclass-melbourne-tickets-1263149005679?aff=ebdssbdestsearch,-37.8170853,144.9598938,Talks/Workshops
Motov8ing Boys -  MELBOURNE,2025-07-30,19:00,Deakin University,"LT1A, Building I Burwood, VIC 3125",https://www.eventbrite.com.au/e/motov8ing-boys-melbourne-tickets-1334861991149?aff=ebdssbdestsearch,-37.8494981,145.1090089,Talks/Workshops
Ms Julie Gabler: Trapped,2025-07-30,19:30,TW Explosives Factory,"67 Inkerman Street St Kilda, VIC 3182",https://www.eventbrite.com.au/e/ms-julie-gabler-trapped-tickets-1110990906709?aff=ebdssbdestsearch,-37.8646651,144.9842743,Theatre
FYI 20% tix sold!! X 'At Home With You' 40th Anniversary FRI 1st AUG @ Shotkicker w/ VELVET PARADE,2025-08-01,20:00,Shotkickers,"744 High St, Thornbury VIC 3071, Australia",https://www.facebook.com/events/671294125814401/,-37.75592655,145.0013923,Music
Plaited Leather Dog Lead Class with Aram Omara,2025-08-01,09:00,Leffler Leather,"171 Kensington Road West Melbourne, VIC 3003",https://www.eventbrite.com.au/e/plaited-leather-dog-lead-class-with-aram-omara-tickets-1119487440069?aff=ebdssbdestsearch,-37.8002118,144.9177331,Talks/Workshops
Report Writing (Melbourne),2025-08-01,09:00,123 Queen St,"123 Queen Street Melbourne, VIC 3000",https://www.eventbrite.com/e/report-writing-melbourne-tickets-750609532317?aff=ebdssbdestsearch,-37.8157528,144.9607103,Talks/Workshops
Baggy Trousers + Loonee Tunes - 'The Sounds of Madness and The Specials' at Australia's Home of Ska ,2025-08-02,19:30,THE CURTIN (John Curtin hotel),"29 Lygon St, Carlton VIC 3053, Australia",https://www.facebook.com/events/1206622287791807/,-37.8061581,144.9657057,Music
Silverstein | Melbourne,2025-08-02,19:00,Northcote Theatre,"216 High St, Northcote VIC 3070, Australia",https://www.facebook.com/events/671149682047847/,-37.7737068,144.9982706,Music
Starman The David Bowie Tribute Show at Oakleigh Music Hall,2025-08-02,20:00,Oakleigh Carnegie RSL,"95/97 Drummond St, Oakleigh VIC 3166, Australia",https://www.facebook.com/events/1823070371832721/,-37.8968576,145.08963741959553,Music
STARS,2025-08-03,14:00,Way Out West Roots Music Club,"4 Market St, Newport VIC 3015, Australia",https://www.facebook.com/events/1088684486636124/,-37.8439028,144.8823845,Music
Developing High Performing Teams Workshop (Melbourne),2025-08-05,09:00,Karstens Melbourne,"123 Queen St, Melbourne VIC 3000, Australia 123 Queen Street Melbourne, VIC 3000",https://www.eventbrite.com.au/e/developing-high-performing-teams-workshop-melbourne-tickets-1116129656849?aff=ebdssbdestsearch,-37.815914,144.9608628,Talks/Workshops
Sondheim Unbound ,2025-08-08,17:30,Paris Cat Jazz Club,"6 Goldie Pl, Melbourne VIC 3000, Australia",https://www.facebook.com/events/673835475281765/,-37.8133262,144.96060714767358,Music
Shrine of Remembrance + South Yarra City Highlights Walk - Easy 6km,2025-08-08,19:00,Riverland Bar (Outside the bar by the Yarra River),"Federation Wharf Vaults 1-9 Melbourne, VIC 3000Get directions",https://www.eventbrite.com.au/e/shrine-of-remembrance-south-yarra-city-highlights-walk-easy-6km-tickets-1431150813609?aff=ebdssbdestsearch,-37.984885,145.2205323,Social/Dating
Sons Of The East | Melbourne,2025-08-08,19:00,Northcote Theatre,"216 High St, Northcote VIC 3070, Australia",https://www.facebook.com/events/952696133514412/,-37.7737068,144.9982706,Music
FELONY. – ‘MIDNIGHT MONEY’ TOUR | MELBOURNE,2025-08-09,19:30,280 Sydney Rd,"280 Sydney Road Brunswick, VIC 3056",https://www.eventbrite.com.au/e/felony-midnight-money-tour-melbourne-tickets-1096924523779?aff=ebdssbdestsearch,-37.7711488,144.9616353,Music
Benchmark Wines of Australia Long Lunch at Smith St Bistrot | Melbourne,2025-08-09,12:30,Smith St Bistrot,"300 Smith Street Collingwood, VIC 3066",https://www.eventbrite.com.au/e/benchmark-wines-of-australia-long-lunch-at-smith-st-bistrot-melbourne-tickets-1292176327179?aff=ebdssbdestsearch,-37.8002354,144.9842903,Social/Dating
Denim & Lace 50th Anniversary Celebration featuring The CLIFF & OLIVIA Show,2025-08-09,19:30,Palladium at Crown,"Level 1 Crown Towers, Crown Melbourne, 8 Whiteman St, Southbank VIC 3006, Australia",https://www.facebook.com/events/598792006459366/,-37.822181,144.959875,Music
[SOLD OUT] The Preatures - 'Blue Planet Eyes' 10th Anniversary Australian Tour - Northcote Theatre,2025-08-09,19:00,Northcote Theatre,"216 High St, Northcote VIC 3070, Australia",https://www.facebook.com/events/445486871960198/,-37.7737068,144.9982706,Music
PUP // Melbourne // Do It Australian Tour 2025 // Northcote Theatre | 18+,2025-08-10,19:30,Northcote Theatre,"216 High St, Northcote VIC 3070, Australia",https://www.facebook.com/events/1395843268251417/,-37.7737068,144.9982706,Music
PEPPERCREEK REVIVAL,2025-08-10,14:00,Way Out West Roots Music Club,"4 Market St, Newport VIC 3015, Australia",https://www.facebook.com/events/551560891296898/,-37.8439028,144.8823845,Music
Mark Knight (UK) | Winter Series pres by. Thick as Thieves,2025-08-10,00:00,Revolver Upstairs,"Level 2/229 Chapel St, Prahran VIC 3181, Australia",https://www.facebook.com/events/959576479687718/,-37.8505902,144.9933469,Music
LinkedIn+: LinkedIn and personal branding workshop,2025-08-12,09:30,T.O.M.S Place - Brunswick,"1 Tripovich Street Brunswick, VIC 3056",https://www.eventbrite.com.au/e/linkedin-linkedin-and-personal-branding-workshop-tickets-924964181767?aff=ebdssbdestsearch,-37.7661862,144.9612696,Business/Networking
"One Night of Adele - Live at The Palms at Crown, Melbourne, VIC",2025-08-13,00:00,Palladium at Crown,"Level 1 Crown Towers, Crown Melbourne, 8 Whiteman St, Southbank VIC 3006, Australia",https://www.facebook.com/events/1336156307673185/,-37.822181,144.959875,Music
Creating Successful Futures - The Alliance for Better Childcare Development,2025-08-13,09:00,700 Bourke St,"700 Bourke Street Docklands, VIC 3008",https://www.eventbrite.com.au/e/creating-successful-futures-the-alliance-for-better-childcare-development-tickets-1108884877519?aff=ebdssbdestsearch,-37.8174668,144.9493184,Talks/Workshops
Toni Childs - A Retrospective - The Palms At Crown,2025-08-15,19:30,Palladium at Crown,"Level 1 Crown Towers, Crown Melbourne, 8 Whiteman St, Southbank VIC 3006, Australia",https://www.facebook.com/events/1404417827535166/,-37.822181,144.959875,Music
Hypnotist Comedy Show with Gerard V | Stamford Plaza Melbourne,2025-08-15,00:00,Stamford Plaza Melbourne,"111 Little Collins St, Melbourne VIC 3000, Australia",https://www.facebook.com/events/1890806535010513/,-37.81359225,144.9700614178762,Comedy
Developing Executive Presence and Maximising Your Impact (Melbourne),2025-08-15,09:00,Karstens Melbourne,"123 Queen St, Melbourne VIC 3000, Australia 123 Queen Street Melbourne, VIC 3000",https://www.eventbrite.com.au/e/developing-executive-presence-and-maximising-your-impact-melbourne-tickets-1116140248529?aff=ebdssbdestsearch,-37.8157528,144.9607103,Business/Networking
Portal + Bølzer | Melbourne | Max Watts,2025-08-16,00:00,Max Watts,"125 Swanston St, Melbourne VIC 3000, Australia",https://www.facebook.com/events/1301143130973380/,-37.8147557,144.9659879,Music
Nastia (UA) | Winter Series pres by. Thick as Thieves,2025-08-17,00:00,Revolver Upstairs,"Level 2/229 Chapel St, Prahran VIC 3181, Australia",https://www.facebook.com/events/1296236871473442/,-37.8505902,144.9933469,Music
"Tyler, The Creator",2025-08-20,19:30,Rod Laver Arena,"200 Batman Ave, Melbourne VIC 3000, Australia",https://premier.ticketek.com.au/shows/show.aspx?sh=TYLERTHE25,-37.8216161,144.9785584,
"Conflict Management Tactics  - 1 Day Workshop, Melbourne",2025-08-20,09:00,Karstens Melbourne,"123 Queen Street Melbourne, VIC 3000",https://www.eventbrite.com.au/e/conflict-management-tactics-1-day-workshop-melbourne-tickets-133044274005?aff=ebdssbdestsearch,-37.8157528,144.9607103,Talks/Workshops
BNI Platinum One - Networking at MCG,2025-08-21,06:45,Melbourne Cricket Ground,"Brunton Avenue Richmond, VIC 3002",https://www.eventbrite.com.au/e/bni-platinum-one-networking-at-mcg-tickets-1117096699299?aff=ebdssbdestsearch,-37.8214457,144.9834593,Business/Networking
The Machine Stops,2025-08-22,19:30,Theatre Works,"Saint Leonards Avenue St Kilda, VIC 3182",https://www.eventbrite.com.au/e/the-machine-stops-tickets-1110782302769?aff=ebdssbdestsearch,-37.8638328,144.9768976,Theatre
Akmal - LIVE - Thornbury,2025-08-22,19:30,The Thornbury Theatre,"859 High St, Thornbury VIC 3071, Australia",https://www.facebook.com/events/594485380317679/,-37.754662,145.0011167,Comedy
Altona Beach Film Festival | 2025 Film Premiere & Award Presentation,2025-08-23,00:00,Altona Sports Club,"11 Altona Rd, Altona VIC 3018, Australia",https://www.facebook.com/events/1428262988554725/,-37.85754867,144.85121805353086,Cinema
"Duncan Trussell: Thornbury Theatre, Melbourne",2025-08-23,18:00,The Thornbury Theatre,"859 High St, Thornbury VIC 3071, Australia",https://www.facebook.com/events/1886191708876144/,-37.754662,145.0011167,Comedy
Dr Joe Dispenza CHANGE YOUR MIND…CREATE NEW RESULTS with Angelina Morley,2025-08-24,08:30,Melbourne CERES in the Van Raay Room,"Cnr Stewart Street Roberts Street Brunswick East, VIC 3057",https://www.eventbrite.com/e/dr-joe-dispenza-change-your-mindcreate-new-results-with-angelina-morley-tickets-1055671936179?aff=ebdssbdestsearch,-37.7656615,144.9824113,Talks/Workshops
The Simon & Garfunkel Story,2025-08-24,12:00,Hamer Hall,"32 Southgate Ave, Southbank VIC 3006, Australia",https://premier.ticketek.com.au/shows/show.aspx?sh=SIMONGAR25,-37.8201455,144.9679946,
Keith Urban,2025-08-25,12:00,Rod Laver Arena,"200 Batman Ave, Melbourne VIC 3000, Australia",https://premier.ticketek.com.au/shows/show.aspx?sh=KEITHURB25,-37.8216161,144.9785584,
Alex Warren,2025-08-25,12:00,Forum Melbourne,"150 Flinders St, Melbourne VIC 3000, Australia",https://premier.ticketek.com.au/shows/show.aspx?sh=WARREN25,-37.8166268,144.9695761,
Russell Morris,2025-08-27,12:00,Hamer Hall,"32 Southgate Ave, Southbank VIC 3006, Australia",https://premier.ticketek.com.au/shows/show.aspx?sh=RUSSELLM25,-37.8201455,144.9679946,
Time Management Training Course (Melbourne),2025-08-27,09:00,Karstens Melbourne,"123 Queen St, Melbourne VIC 3000, Australia 123 Queen Street Melbourne, VIC 3000",https://www.eventbrite.com.au/e/time-management-training-course-melbourne-tickets-1112144587399?aff=ebdssbdestsearch,-37.815914,144.9608628,Talks/Workshops
Implementing SSP in Primary Schools Using PLD,2025-08-29,09:00,United Co.,"425 Smith Street Fitzroy, VIC 3065",https://www.eventbrite.com.au/e/implementing-ssp-in-primary-schools-using-pld-tickets-1231756760629?aff=ebdssbdestsearch,-37.7956368,144.9844614,Talks/Workshops
﻿Learn to cook Thai: Green Curry Prawns & Thai Roti,2025-08-30,11:00,BangPop,"35 South Wharf Promenade South Wharf, VIC 3006",https://www.eventbrite.com.au/e/learn-to-cook-thai-green-curry-prawns-thai-roti-tickets-1341323828679?aff=ebdssbdestsearch,-37.824201,144.95135,Talks/Workshops
Saving Grace - Jungle Fever Tour,2025-08-31,05:00,Saving Grace,"32 Church Ln, Melbourne VIC 3000, Australia",https://www.facebook.com/events/1363156408070206/,-37.8177293,144.9577832,Music
Prioritising & Planning Workshop (Brisbane),2025-09-02,09:00,123 Queen St,"123 Queen Street Melbourne, VIC 3000",https://www.eventbrite.com/e/prioritising-planning-workshop-brisbane-tickets-732667637627?aff=ebdssbdestsearch,-37.8157528,144.9607103,Talks/Workshops
"Effective Communication Skills  with DISC - 1 Day Workshop, Melbourne",2025-09-02,09:00,Karstens Melbourne,"123 Queen Street Melbourne, VIC 3000",https://www.eventbrite.com.au/e/effective-communication-skills-with-disc-1-day-workshop-melbourne-tickets-133031925069?aff=ebdssbdestsearch,-37.8157528,144.9607103,Talks/Workshops
Paul Kelly,2025-09-02,12:00,MyState Bank Arena,"601 Brooker Hwy, Glenorchy TAS 7010, Australia",https://premier.ticketek.com.au/shows/show.aspx?sh=PAULKELL25&v=MYB,-42.82416569999999,147.2827222,
Minute Taking Skills Workshop (Melbourne),2025-09-03,09:00,123 Queen St,"123 Queen Street Melbourne, VIC 3000",https://www.eventbrite.com/e/minute-taking-skills-workshop-melbourne-tickets-744796776207?aff=ebdssbdestsearch,-37.8157528,144.9607103,Talks/Workshops
"Advanced Leadership Skills  - 2 Day Workshop, Melbourne",2025-09-03,09:00,Karstens Melbourne,"123 Queen St, Melbourne VIC 3000, Australia 123 Queen Street Melbourne, VIC 3000Get directions",https://www.eventbrite.com.au/e/advanced-leadership-skills-2-day-workshop-melbourne-tickets-133182555609?aff=ebdssbdestsearch,-37.815914,144.9608628,Talks/Workshops
The MET Course,2025-09-04,08:00,Austin Hospital,"145 Studley Road Heidelberg, VIC 3084",https://www.eventbrite.com/e/the-met-course-tickets-1136987463109?aff=ebdssbdestsearch,-37.7553922,145.0574729,Talks/Workshops
Sabaton,2025-09-05,12:00,Margaret Court Arena,"5XHH+G3 Melbourne VIC, Australia",https://premier.ticketek.com.au/shows/show.aspx?sh=SABAT25,-37.8211276,144.9776364,
Evolution Events presents Evolve Boiler 360 Vol.2,2025-09-06,17:00,Festival Hall,"300 Dudley St, West Melbourne VIC 3003, Australia",https://www.facebook.com/events/1721845811756276/,-37.8098193,144.9508057,Other
Max Styler (US) | Winter Series pres by. Thick as Thieves,2025-09-07,00:00,Revolver Upstairs,"Level 2/229 Chapel St, Prahran VIC 3181, Australia",https://www.facebook.com/events/2138787836578501/,-37.8505902,144.9933469,Music
Ray Chen in Recital,2025-09-08,12:00,Hamer Hall,"100 St Kilda Rd, Southbank VIC 3004, Australia",https://premier.ticketek.com.au/shows/show.aspx?sh=RAYCHEN25,-37.8201455,144.9679946,
Critical Thinking Training,2025-09-09,07:30,Melbourne,"Melbourne Melbourne, VIC",https://www.eventbrite.com.au/e/critical-thinking-training-tickets-886595008537?aff=ebdssbdestsearch,-37.8136276,144.9630576,Talks/Workshops
Mayday Parade // Melbourne // MCA // with Jack's Mannequin & The Home Team ,2025-09-12,18:00,Margaret Court Arena,"Olympic Blvd, Melbourne VIC 3001, Australia",https://www.facebook.com/events/3838058729838509/,-37.82305598,144.97619022672723,Music
Jody Wisternoff (Anjunadeep) - Welcome To My World Album Tour - Melbourne,2025-09-13,19:00,Howler,"7-11 Dawson Street Brunswick, VIC 3056",https://www.eventbrite.com/e/jody-wisternoff-anjunadeep-welcome-to-my-world-album-tour-melbourne-tickets-1048546499807?aff=ebdssbdestsearch,-37.771511,144.959539,Music
Introduction to Mindfulness and Meditation Workshop,2025-09-13,11:30,Seabrook Community Centre,"15 Truganina Avenue Seabrook, VIC 3028",https://www.eventbrite.com.au/e/introduction-to-mindfulness-and-meditation-workshop-tickets-1116233567649?aff=ebdssbdestsearch,-37.8860408,144.7590902,Talks/Workshops
LeAnn Rimes,2025-09-16,12:00,John Cain Arena,"35 Olympic Blvd, Melbourne VIC 3000, Australia",https://premier.ticketek.com.au/shows/show.aspx?sh=LEANN25,-37.8227725,144.9819687,
Animals As Leaders,2025-09-18,12:00,Forum Melbourne,"150 Flinders St, Melbourne VIC 3000, Australia",https://premier.ticketek.com.au/shows/show.aspx?sh=ALEADERS25,-37.8166268,144.9695761,
Kate Ceberano,2025-09-19,12:00,Hamer Hall,"32 Southgate Ave, Southbank VIC 3006, Australia",https://premier.ticketek.com.au/shows/show.aspx?sh=KATECMEL25,-37.8201455,144.9679946,
The Mary Wallopers,2025-09-19,12:00,Forum Melbourne,"150 Flinders St, Melbourne VIC 3000, Australia",https://premier.ticketek.com.au/shows/show.aspx?sh=MARYWALL25,-37.8166268,144.9695761,
Giving Employee Feedback With Precision (Melbourne),2025-09-19,09:00,Karstens Melbourne,"123 Queen St, Melbourne VIC 3000, Australia 123 Queen Street Melbourne, VIC 3000",https://www.eventbrite.com.au/e/giving-employee-feedback-with-precision-melbourne-tickets-1116112776359?aff=ebdssbdestsearch,-37.8157528,144.9607103,Talks/Workshops
Shamrock Tenors,2025-09-21,12:00,Hamer Hall,"32 Southgate Ave, Southbank VIC 3006, Australia",https://premier.ticketek.com.au/shows/show.aspx?sh=SHAMROCK25,-37.8201455,144.9679946,
Wunderhorse,2025-09-23,12:00,Forum Melbourne,"150 Flinders St, Melbourne VIC 3000, Australia",https://premier.ticketek.com.au/shows/show.aspx?sh=WHORSE25,-37.8166268,144.9695761,
Anastacia,2025-09-24,12:00,Forum Melbourne,"150 Flinders St, Melbourne VIC 3000, Australia",https://premier.ticketek.com.au/shows/show.aspx?sh=ANASNTK25,-37.8166268,144.9695761,
SWIM (live),2025-09-25,12:00,Forum Melbourne,"150 Flinders St, Melbourne VIC 3000, Australia",https://premier.ticketek.com.au/shows/show.aspx?sh=SWIM25,-37.8166268,144.9695761,
DIVORCED DAD (AND MUM) ROCK NIGHT #3,2025-09-26,22:00,EMO NEVER SLEEPS,"629 Bourke St, Melbourne VIC 3004, Australia",https://www.facebook.com/events/1045574704114791/,-37.8167994,144.9552063,Music
Township Rebellion | Winter Series pres by. Thick as Thieves,2025-09-28,00:00,Revolver Upstairs,"Level 2/229 Chapel St, Prahran VIC 3181, Australia",https://www.facebook.com/events/943475734297809/,-37.8505902,144.9933469,Music
Melbourne Ska Orchestra: The Ballad of Monte Loco Tour // MELBOURNE,2025-10-03,20:00,170 Russell,"170 Russell St, Melbourne VIC 3000, Australia",https://www.facebook.com/events/1750183082227543/,-37.8120109,144.9679369,Music
Email Etiquette and Response Writing Training,2025-10-03,13:00,Melbourne,"Melbourne Melbourne, VIC",https://www.eventbrite.com.au/e/email-etiquette-and-response-writing-training-tickets-886602230137?aff=ebdssbdestsearch,-37.8136276,144.9630576,Talks/Workshops
Marcia Sings Summer,2025-10-05,12:00,Hamer Hall,"32 Southgate Ave, Southbank VIC 3006, Australia",https://premier.ticketek.com.au/shows/show.aspx?sh=MARCIASI25,-37.8201455,144.9679946,
Jackson Dean,2025-10-05,12:00,Forum Melbourne,"150 Flinders St, Melbourne VIC 3000, Australia",https://premier.ticketek.com.au/shows/show.aspx?sh=JACKSOND25,-37.8166268,144.9695761,
Zac Brown Band,2025-10-06,12:00,Margaret Court Arena,"5XHH+G3 Melbourne VIC, Australia",https://premier.ticketek.com.au/shows/show.aspx?sh=ZACBROWN25,-37.8211276,144.9776364,
Cyber Attack and Scam Awareness Training,2025-10-07,10:00,Melbourne,"Melbourne Melbourne, VIC",https://www.eventbrite.com.au/e/cyber-attack-and-scam-awareness-training-tickets-886596342527?aff=ebdssbdestsearch,-37.8136276,144.9630576,Talks/Workshops
Growth Mindset :Learning and Growth for Teams,2025-10-07,08:00,Melbourne,"Melbourne Melbourne, VIC",https://www.eventbrite.com.au/e/growth-mindset-learning-and-growth-for-teams-tickets-886604647367?aff=ebdssbdestsearch,-37.8136276,144.9630576,Talks/Workshops
Health and Wellness at Work Training,2025-10-09,07:30,Melbourne,"Melbourne Melbourne, VIC",https://www.eventbrite.com.au/e/health-and-wellness-at-work-training-tickets-886609471797?aff=ebdssbdestsearch,-37.8136276,144.9630576,Talks/Workshops
Fleur Shore (UK) | Winter Series pres by. Thick as Thieves,2025-10-12,00:00,Revolver Upstairs,"Level 2/229 Chapel St, Prahran VIC 3181, Australia",https://www.facebook.com/events/1175203720915730/,-37.8505902,144.9933469,Music
