Event_Title,Date,Time,Venue,Address,url,Latitude,Longitude,Category
Melbourne International Comedy Festival Roadshow,2025-06-27,00:00,Melbourne International Comedy Festival,Melbourne,https://www.facebook.com/events/1841111576734993/,-37.8136,144.9631,Comedy
"CVFFD Elysium: Melbourne Singles Mixer (20s, 30s, and 40s)",2025-06-27,19:00,Melbourne,"TBD Melbourne, VIC VIC 3000",https://www.eventbrite.com/e/cvffd-elysium-melbourne-singles-mixer-20s-30s-and-40s-tickets-1341684667959?aff=ebdssbdestsearch,-37.8152065,144.963937,Social/Dating
BNI Success Alliance - Glen Waverley Networking,2025-06-27,10:15,ibis Melbourne Glen Waverley,"297 Springvale Road Glen Waverley, VIC 3150",https://www.eventbrite.com.au/e/bni-success-alliance-glen-waverley-networking-tickets-1137269566889?aff=ebdssbdestsearch,-37.8830226,145.1642179,Business/Networking
Startup Pitch Event Melbourne,2025-06-27,18:00,The National Hotel,"344 Victoria Street Richmond, VIC 3121",https://www.eventbrite.com/e/startup-pitch-event-melbourne-tickets-1371610416679?aff=ebdssbdestsearch,-37.8109096,145.0027956,Business/Networking
FRI SAT & SUN SPEED FRIENDING language exchange karaoke boardgames open mic,2025-06-27,17:30,215 Queen's Bar,"215 Queen Street Melbourne, VIC 3000",https://www.eventbrite.com.au/e/fri-sat-sun-speed-friending-language-exchange-karaoke-boardgames-open-mic-tickets-1108456777059?aff=ebdssbdestsearch,-37.8137882,144.9598785,Social/Dating
Venjent - Melbourne,2025-06-27,22:00,170 Russell St,"170 Russell Street Melbourne, VIC 3000",https://www.eventbrite.com.au/e/venjent-melbourne-tickets-1343842592369?aff=ebdssbdestsearch,-37.8119586,144.9679969,Comedy
Death in a Cold Climate,2025-06-27,20:00,Rising Sun Hotel,"2 Raglan Street Upstairs - no lift South Melbourne, VIC 3205",https://www.eventbrite.com.au/e/death-in-a-cold-climate-tickets-1319532179269?aff=ebdssbdestsearch,-37.8361065,144.9666454,Talks/Workshops
Flower Extract “Trying” single launch,2025-06-27,19:30,280 Sydney Rd,"280 Sydney Road Brunswick, VIC 3056",https://www.eventbrite.com.au/e/flower-extract-trying-single-launch-tickets-1354352407509?aff=ebdssbdestsearch,-37.7711488,144.9616353,Music
The Australian Bon Jovi Show-Bon Jovi Forever,2025-06-27,20:30,Olympic Hotel,"31 Albert Street Preston, VIC 3072",https://www.eventbrite.com.au/e/the-australian-bon-jovi-show-bon-jovi-forever-tickets-1324732985019?aff=ebdssbdestsearch,-37.7465792,145.021604,Music
Tech Networking Event by Startup Valley  in Melbourne,2025-06-27,18:00,The National Hotel,"344 Victoria Street Richmond, VIC 3121Get directions",https://www.eventbrite.com/e/tech-networking-event-by-startup-valley-in-melbourne-tickets-1371632653189?aff=ebdssbdestsearch,-37.8109096,145.0027956,Business/Networking
"Yin, Reiki, Sound",2025-06-27,06:30,At One Studio,"127 Buckley Street #L1 Essendon, VIC 3040",https://www.eventbrite.com/e/yin-reiki-sound-tickets-1326120936419?aff=ebdssbdestsearch,-37.7570386,144.9154857,Talks/Workshops
Mighty Morphin Power Rangers the Movie - 30th Anniversary Screening 4K,2025-06-27,06:45,Classic Cinemas,"9 Gordon Street Elsternwick, VIC 3185",https://www.eventbrite.com/e/mighty-morphin-power-rangers-the-movie-30th-anniversary-screening-4k-tickets-1323527108209?aff=ebdssbdestsearch,-37.8839277,145.0008158,Cinema
Central Cee Hosts Ms Collins Fridays,2025-06-27,21:00,Ms Collins,"425 Collins Street Melbourne, VIC 3000Get directions",https://www.eventbrite.com.au/e/central-cee-hosts-ms-collins-fridays-tickets-1393582676299?aff=ebdssbdestsearch,-37.8174496,144.9605918,Music
Castrati,2025-06-27,18:00,Victorian Pride Centre,"79-81 Fitzroy Street St Kilda, VIC 3182Get directions",https://www.eventbrite.com.au/e/castrati-tickets-1356020687379?aff=ebdssbdestsearch,-37.860684,144.976346,Theatre
Data Science & Analytics meetup and chat Melbourne,2025-06-27,17:30,215 Queen's Restaurant and Bar,"215 Queen St Melbourne, VIC 3000",https://www.eventbrite.com.au/e/data-science-analytics-meetup-and-chat-melbourne-tickets-951030536937?aff=ebdssbdestsearch,-37.8137882,144.9598785,Business/Networking
Bayside & Glen Eira ”How to Add Revenue Through Strategic Online Events”,2025-06-27,11:30,hotel brighton,"286 bay street brighton, VIC 4017",https://www.eventbrite.com.au/e/bayside-glen-eira-how-to-add-revenue-through-strategic-online-events-tickets-1393422095999?aff=ebdssbdestsearch,-37.9056749,145.0017201,Business/Networking
RWND Di Riddim — Urban Multicultural Nightlife Returns,2025-06-27,21:00,Laundry Bar,"50 Johnston Street Fitzroy, VIC 3065",https://www.eventbrite.com.au/e/rwnd-di-riddim-urban-multicultural-nightlife-returns-tickets-1396209342729?aff=ebdssbdestsearch,-37.79831,144.976368,Music
"""It's Whatevers"" Sharp Edges Live at Bar 303",2025-06-27,19:00,Bar 303,"303 High Street Northcote, VIC 3070Get directions",https://www.eventbrite.com/e/its-whatevers-sharp-edges-live-at-bar-303-tickets-1418638478879?aff=ebdssbdestsearch,-37.7713256,144.9982378,Music
Pool and Gym Day Pass,2025-06-27,06:30,Stamford Plaza Melbourne,"111 Little Collins Street Melbourne, VIC 3000Get directions",https://www.eventbrite.com.au/e/pool-and-gym-day-pass-tickets-1253892559399?aff=ebdssbdestsearch,-37.8135512,144.9699174,Sport
"Social Clay, Make Your Own Salad Bowl - Melbourne",2025-06-27,18:30,"Urth Clay Studio - Melbourne, Strathmore","68B Bulla Road Strathmore, VIC 3041Get directions",https://www.eventbrite.com.au/e/social-clay-make-your-own-salad-bowl-melbourne-tickets-689698816727?aff=ebdssbdestsearch,-37.7376746,144.9064462,Art
"CHEF'S TABLE: Eight-course ""Surprise"" Degustation",2025-06-27,18:30,"Life's Too Short Bar, Tribeca Arcade, Victoria Parade, East Melbourne VIC, Australia","412 Victoria Parade #Shop 2 East Melbourne, VIC 3002",https://www.eventbrite.com.au/e/chefs-table-eight-course-surprise-degustation-tickets-805462920277?aff=ebdssbdestsearch,-37.8096207,144.985273,Talks/Workshops
Glam Jam - Dance Fitness Class INTRO,2025-06-27,06:30,1/177 Beavers Rd,"177 Beavers Road #1 Northcote, VIC 3070Get directions",https://www.eventbrite.com.au/e/glam-jam-dance-fitness-class-intro-tickets-1388949979779?aff=ebdssbdestsearch,-37.76567989999999,144.9864456,Sport
Lazr Bees  at The Lomond Hotel.,2025-06-27,21:00,The Lomond Hotel,"225 Nicholson Street Brunswick East, VIC 3057",https://www.eventbrite.com.au/e/lazr-bees-at-the-lomond-hotel-tickets-1397876499239?aff=ebdssbdestsearch,-37.7670861,144.9800057,Music
"Paint and Sip Classes Melbourne : Acrylic Art, Canvas & Wine Fun",2025-06-27,18:00,"555 Flinders Ln, Melbourne VIC 3000, Australia","555 Flinders Ln Melbourne, VIC 3008",https://www.eventbrite.com.au/e/paint-and-sip-classes-melbourne-acrylic-art-canvas-wine-fun-tickets-1053155599749?aff=ebdssbdestsearch,-37.8209706,144.9565005,Art
MANIFEST - Launch Party,2025-06-27,22:00,Chasers Nightclub,"386 Chapel Street South Yarra, VIC 3141",https://www.eventbrite.com.au/e/manifest-launch-party-tickets-1341428230949?aff=ebdssbdestsearch,-37.8459028,144.9947039,Music
2025 - Ratio Cocoa Roasters behind the scenes chocolate factory tour,2025-06-27,15:00,Ratio Cocoa Roasters,"186 Sydney Road Brunswick, VIC 3056",https://www.eventbrite.com.au/e/2025-ratio-cocoa-roasters-behind-the-scenes-chocolate-factory-tour-tickets-775425427327?aff=ebdssbdestsearch,-37.7735618,144.9611677,Talks/Workshops
Melbourne Tech Mixer and Social (Tech / AI / Data) ✨,2025-06-27,05:30,215 Queen's Restaurant and Bar,"215 Queen St Melbourne, VIC 3000Get directions",https://www.eventbrite.com.au/e/melbourne-tech-mixer-and-social-tech-ai-data-tickets-1375363823219?aff=ebdssbdestsearch,-37.8137882,144.9598785,Business/Networking
Paint  And Sip: Painting Partners | Melbourne Painting Class,2025-06-27,18:45,Paint for Fun,"252 Graham Street #Unit 1 Port Melbourne, VIC 3207",https://www.eventbrite.com.au/e/paint-and-sip-painting-partners-melbourne-painting-class-tickets-1277354625069?aff=ebdssbdestsearch,-37.8386895,144.9385483,Art
MINK FRIDAYS | AFROBEATS - RNB - HIPHOP,2025-06-27,21:00,The Black Rabbit,"85 Queen Street Melbourne, VIC 3000Get directions",https://www.eventbrite.com.au/e/mink-fridays-afrobeats-rnb-hiphop-tickets-650591024267?aff=ebdssbdestsearch,-37.81636779999999,144.9611486,Music
Bottomless Drinks for 2 Hours only $55 at Heroes Rooftop Bar!,2025-06-27,18:00,Heroes Bar Melbourne,"188 Bourke Street Melbourne, VIC 3000",https://www.eventbrite.com.au/e/bottomless-drinks-for-2-hours-only-55-at-heroes-rooftop-bar-tickets-1306686928779?aff=ebdssbdestsearch,-37.8126897,144.9676214,Social/Dating
"BOLLYWOOD CLUB Presents Friday Night at Crown, Melbourne",2025-06-27,21:30,Crown Melbourne,"8 Whiteman Street Southbank, VIC 3006",https://www.eventbrite.com.au/e/bollywood-club-presents-friday-night-at-crown-melbourne-tickets-999153042647?aff=ebdssbdestsearch,-37.8239578,144.9594467,Music
Docklands- Join B2B Exclusive REAL ESTATE Business Community,2025-06-27,09:30,The Espressonist,"108 River Esplanade Docklands, VIC 3008Get directions",https://www.eventbrite.com.au/e/docklands-join-b2b-exclusive-real-estate-business-community-tickets-1405191087369?aff=ebdssbdestsearch,-37.8241706,144.9432008,Business/Networking
Oye Latino at The Albion Rooftop,2025-06-27,19:00,The Albion Rooftop,"172 York Street South Melbourne, VIC 3205Get directions",https://www.eventbrite.com.au/e/oye-latino-at-the-albion-rooftop-tickets-127608742183?aff=ebdssbdestsearch,-37.8315105,144.9560408,Music
Comedy At The Coopers Inn Every Fri & Sat,2025-06-27,20:00,The Coopers Inn,"282 Exhibition Street Melbourne, VIC 3000Get directions",https://www.eventbrite.com.au/e/comedy-at-the-coopers-inn-every-fri-sat-tickets-628947648347?aff=ebdssbdestsearch,-37.809147,144.9695339,Comedy
"El Bebe are launching their latest single ""Witch in the Road"" at Stay Gold.",2025-06-27,19:00,Stay Gold,"133 Sydney Road Brunswick, VIC 3056",https://www.eventbrite.com.au/e/el-bebe-are-launching-their-latest-single-witch-in-the-road-at-stay-gold-tickets-1417925105159?aff=ebdssbdestsearch,-37.77435880000001,144.9606103,Music
TERRESTRIAL AWAKENING ECLECTIC TRIBE TAKEOVER,2025-06-27,21:00,my aeon,"791 Sydney Road Brunswick, VIC 3056",https://www.eventbrite.com/e/terrestrial-awakening-eclectic-tribe-takeover-tickets-1329713722539?aff=ebdssbdestsearch,-37.7581868,144.9633301,Unknown
"IT Social Melbourne | Data, Technology, Cybersecurity, IT",2025-06-27,17:30,215 Queen's Restaurant and Bar,"215 Queen St Melbourne, VIC 3000",https://www.eventbrite.com.au/e/it-social-melbourne-data-technology-cybersecurity-it-tickets-951030647267?aff=ebdssbdestsearch,-37.8137882,144.9598785,Business/Networking
Final Fridays in Melbourne: Dinner with Strangers,2025-06-27,19:00,Melbourne,"Melbourne Melbourne, VIC 3000Get directions",https://www.eventbrite.com/e/final-fridays-in-melbourne-dinner-with-strangers-tickets-1206283840439?aff=ebdssbdestsearch,-37.8152065,144.963937,Social/Dating
Ms Collins Fridays FREE to RSVP,2025-06-27,21:00,Ms Collins,"425 Collins Street Melbourne, VIC 3000Get directions",https://www.eventbrite.com.au/e/ms-collins-fridays-free-to-rsvp-tickets-650448006497?aff=ebdssbdestsearch,-37.8174496,144.9605918,Music
"Freak Out, Billie Jean.. Michael Jackson Tribute !!!",2025-06-27,21:00,Club Retro,"383 Lonsdale Street Melbourne, VIC 3000",https://www.eventbrite.com.au/e/freak-out-billie-jean-michael-jackson-tribute-tickets-1300289293279?aff=ebdssbdestsearch,-37.8128025,144.9611855,Music
Meet People Social Melbourne | Cultural International Party,2025-06-27,17:30,215 Queen's Restaurant and Bar,"215 Queen St Melbourne, VIC 3000",https://www.eventbrite.com.au/e/meet-people-social-melbourne-cultural-international-party-tickets-951030677357?aff=ebdssbdestsearch,-37.8137882,144.9598785,Social/Dating
GREEK NIGHT @ TROMBAR,2025-06-27,21:00,Trombar,"492 Mount Alexander Road Ascot Vale, VIC 3032Get directions",https://www.eventbrite.com/e/greek-night-trombar-tickets-1372122688899?aff=ebdssbdestsearch,-37.7753814,144.9285597,Music
"Bollywood Club Presents FAKE SHAADI at Crown, Melbourne",2025-06-27,21:30,Crown Melbourne,"8 Whiteman Street Southbank, VIC 3006",https://www.eventbrite.com.au/e/bollywood-club-presents-fake-shaadi-at-crown-melbourne-tickets-1397924352369?aff=ebdssbdestsearch,-37.8239578,144.9594467,Social/Dating
North West Melb Event “Build a Brand They’ll Remember and Love”,2025-06-27,10:00,Velvet Bean Airport West,"35 Louis Street #shop 1002, 29 Airport West, VIC 3042",https://www.eventbrite.com.au/e/north-west-melb-event-build-a-brand-theyll-remember-and-love-tickets-1403487692469?aff=ebdssbdestsearch,-37.7138477,144.8882103,Business/Networking
"The Vaudeville Revue - Cabaret, Comedy, Burlesque and Sideshow!",2025-06-27,20:30,Speakeasy Theatre,"522 Flinders Street Melbourne, VIC 3000Get directions",https://www.eventbrite.com.au/e/the-vaudeville-revue-cabaret-comedy-burlesque-and-sideshow-tickets-267952070857?aff=ebdssbdestsearch,-37.8203505,144.956935,Theatre
"Storm ft Grant, Hughes & Munster LIVE at Matthew Flinders Hotel!",2025-06-27,19:00,Matthew Flinders Hotel,"667 Warrigal Road Chadstone, VIC 3148Get directions",https://www.eventbrite.com.au/e/storm-ft-grant-hughes-munster-live-at-matthew-flinders-hotel-tickets-1377066094759?aff=ebdssbdestsearch,-37.8766477,145.0922449,Talks/Workshops
Kings of Comedy's Melbourne Showcase Special,2025-06-27,19:00,Colonial Hotel (Brown Alley),"585 Lonsdale Street Melbourne, VIC 3000Get directions",https://www.eventbrite.com.au/e/kings-of-comedys-melbourne-showcase-special-tickets-191936054907?aff=ebdssbdestsearch,-37.8145646,144.9551429,Comedy
AI &  Tech Networking Melbourne,2025-06-27,18:00,The National Hotel,"344 Victoria Street Richmond, VIC 3121Get directions",https://www.eventbrite.com/e/ai-tech-networking-melbourne-tickets-1371631569949?aff=ebdssbdestsearch,-37.8109096,145.0027956,Business/Networking
Sacred Sound Meditation at Vyve Meditation Centre (EESystem),2025-06-27,19:00,Vyve Meditation Centre,"266 Bolton Street #1A Eltham, VIC 3095Get directions",https://www.eventbrite.com.au/e/sacred-sound-meditation-at-vyve-meditation-centre-eesystem-tickets-1411348213499?aff=ebdssbdestsearch,-37.720178,145.138187,Talks/Workshops
Melbourne Meet People Social + Language Exchange - Make New Friends! ✨,2025-06-27,05:30,215 Queen's Restaurant and Bar,"215 Queen St Melbourne, VIC 3000Get directions",https://www.eventbrite.com.au/e/melbourne-meet-people-social-language-exchange-make-new-friends-tickets-1375371626559?aff=ebdssbdestsearch,-37.8137882,144.9598785,Social/Dating
BUSINESS NETWORKING: Build your success with a room of business champions!,2025-06-27,07:00,Dorsett Melbourne,"615 Little Lonsdale Street Melbourne, VIC 3000Get directions",https://www.eventbrite.com.au/e/business-networking-build-your-success-with-a-room-of-business-champions-tickets-367365840117?aff=ebdssbdestsearch,-37.8139857,144.9532276,Business/Networking
Staz’s Chair Class,2025-06-27,19:30,Pulse Studios AU,"285 Carlisle Street Balaclava, VIC 3185Get directions",https://www.eventbrite.com.au/e/stazs-chair-class-tickets-1416003266889?aff=ebdssbdestsearch,-37.8693817,144.9961022,Sport
MANGO CLUB 2025,2025-06-27,21:00,La Di Da,"577 Little Bourke Street Melbourne, VIC 3000Get directions",https://www.eventbrite.com.au/e/mango-club-2025-tickets-792363409287?aff=ebdssbdestsearch,-37.8154693,144.9556119,Music
✨GLAM & GRACE PARTY ✨ by Melina Bagnato,2025-06-27,19:00,Half Moon,"120 Church Street Brighton, VIC 3186Get directions",https://www.eventbrite.com/e/glam-grace-party-by-melina-bagnato-tickets-1397752949699?aff=ebdssbdestsearch,-37.915572,144.996015,Social/Dating
Brava  Women Networking IN PERSON June 27th 2025 - Chadstone,2025-06-27,10:00,LXD Business Centre,"1341 Dandenong Road #Tower 1,Ground Level Chadstone, VIC 3148Get directions",https://www.eventbrite.com.au/e/brava-women-networking-in-person-june-27th-2025-chadstone-tickets-1366716849889?aff=ebdssbdestsearch,-37.8859034,145.085521,Business/Networking
Tech & Business Networking Melbourne,2025-06-27,18:00,The National Hotel,"344 Victoria Street Richmond, VIC 3121Get directions",https://www.eventbrite.com/e/tech-business-networking-melbourne-tickets-1371608480889?aff=ebdssbdestsearch,-37.8109096,145.0027956,Business/Networking
Startup Pitch & Networking Melbourne,2025-06-27,18:00,The National Hotel,"344 Victoria Street Richmond, VIC 3121Get directions",https://www.eventbrite.com/e/startup-pitch-networking-melbourne-tickets-1371627176809?aff=ebdssbdestsearch,-37.8109096,145.0027956,Business/Networking
SECRET GARDEN BOTTOMLESS DRINKS $59 Melb,2025-06-27,17:00,Secret Garden Bar,"60 Fitzroy Street #7 St Kilda, VIC 3182Get directions",https://www.eventbrite.com.au/e/secret-garden-bottomless-drinks-59-melb-tickets-127158306919?aff=ebdssbdestsearch,-37.8592634,144.9773182,Social/Dating
Private Dining at SEA LIFE Melbourne presented by Showtime Event Group,2025-06-27,18:30,SEA LIFE Melbourne Aquarium,"King Street Melbourne, VIC 3000Get directions",https://www.eventbrite.com.au/e/private-dining-at-sea-life-melbourne-presented-by-showtime-event-group-tickets-690530584567?aff=ebdssbdestsearch,-37.8159497,144.9555972,Social/Dating
$40 BOTTOMLESS 2 HRS DELUXE EVERY WEEKEND MELBOURNE,2025-06-27,18:30,Deluxe Bar,"595 Mt Alexander Rd Moonee Ponds, VIC 3039Get directions",https://www.eventbrite.com.au/e/40-bottomless-2-hrs-deluxe-every-weekend-melbourne-tickets-113063507996?aff=ebdssbdestsearch,-37.768307,144.9249239,Social/Dating
Creating Psychological Safety in the Workplace -  Breakfast Bite 2025,2025-06-27,09:30,Melbourne,"Melbourne Melbourne, VIC 3000",https://www.eventbrite.com.au/e/creating-psychological-safety-in-the-workplace-breakfast-bite-2025-tickets-1082755192929?aff=ebdssbdestsearch,-37.8152065,144.963937,Talks/Workshops
"Lunch & Learn: Mould, Maintenance & Upcoming Changes",2025-06-27,10:00,Kew Golf Club,"120 Belford Road Kew East, VIC 3102",https://www.eventbrite.com.au/e/lunch-learn-mould-maintenance-upcoming-changes-tickets-1302754797669?aff=ebdssbdestsearch,-37.7887533,145.0488538,Talks/Workshops
"RUSH : Euphoric, uplifting, inclusive AF",2025-06-27,21:00,24 Moons,"2 Arthurton Road Northcote, VIC 3070Get directions",https://www.eventbrite.com.au/e/rush-euphoric-uplifting-inclusive-af-tickets-1022434026697?aff=ebdssbdestsearch,-37.7691172,144.9982721,Music
FREE INTROVERTS MEETUP EVERY FRI SAT & SUN - LAST ENTRY 6.30PM (8.30PM SAT),2025-06-27,17:30,215 Queen's Bar,"215 Queen Street Melbourne, VIC 3000Get directions",https://www.eventbrite.com.au/e/free-introverts-meetup-every-fri-sat-sun-last-entry-630pm-830pm-sat-tickets-1427718808389?aff=ebdssbdestsearch,-37.8137882,144.9598785,Social/Dating
Resin Art Classes Melbourne: Cheeseboards & Coasters,2025-06-27,18:00,"555 Flinders Ln, Melbourne VIC 3000, Australia","555 Flinders Ln Melbourne, VIC 3008Get directions",https://www.eventbrite.com.au/e/resin-art-classes-melbourne-cheeseboards-coasters-tickets-1028764130207?aff=ebdssbdestsearch,-37.819944,144.955791,Talks/Workshops
2025 Shiraz Challenge - Melbourne,2025-06-27,18:30,Antara,"128 Exhibition Street Melbourne, VIC 3000Get directions",https://www.eventbrite.com.au/e/2025-shiraz-challenge-melbourne-tickets-1361037492779?aff=ebdssbdestsearch,-37.8126135,144.9711866,Talks/Workshops
"Monthly  Startup, Tech & Business Networking Melbourne",2025-06-27,18:00,The National Hotel,"344 Victoria Street Richmond, VIC 3121Get directions",https://www.eventbrite.com/e/monthly-startup-tech-business-networking-melbourne-tickets-1371585993629?aff=ebdssbdestsearch,-37.8109096,145.0027956,Business/Networking
Grounding Breath &  Acoustic + Live Looping Sound Journey,2025-06-27,18:30,Merkaba Studio,"15 Mills Street Cheltenham, VIC 3192Get directions",https://www.eventbrite.com.au/e/grounding-breath-acoustic-live-looping-sound-journey-tickets-1420660757569?aff=ebdssbdestsearch,-37.9560125,145.0740554,Talks/Workshops
Investor Connect: Pitch & Network Night  Melbourne,2025-06-27,18:00,The National Hotel,"344 Victoria Street Richmond, VIC 3121Get directions",https://www.eventbrite.com/e/investor-connect-pitch-network-night-melbourne-tickets-1371611299319?aff=ebdssbdestsearch,-37.8109096,145.0027956,Business/Networking
BNI Business By The Beach  Weekly Networking,2025-06-27,06:45,Royal Brighton Yacht Club,"253 Esplanade Middle Brighton, VIC 3186",https://www.eventbrite.com.au/e/bni-business-by-the-beach-weekly-networking-tickets-884664684887?aff=ebdssbdestsearch,-37.9171926,144.9870773,Business/Networking
DRIVEWAY: 'I Tell You Later' with Chelle Destefano,2025-06-27,14:00,69 Capel St,"69 Capel Street West Melbourne, VIC 3003",https://www.eventbrite.com/e/driveway-i-tell-you-later-with-chelle-destefano-tickets-1394586288129?aff=ebdssbdestsearch,-37.8065292,144.9547461,Art
Soul Vibe Fridays - Music meets Healing,2025-06-27,19:00,Artful Yoga Gallery,"1 Vale Street St Kilda, VIC 3182",https://www.eventbrite.com.au/e/soul-vibe-fridays-music-meets-healing-tickets-1270075874129?aff=ebdssbdestsearch,-37.8661713,144.9817611,Music
Young IT Professionals in Melbourne Social,2025-06-27,17:30,215 Queen's Restaurant and Bar,"215 Queen St Melbourne, VIC 3000",https://www.eventbrite.com.au/e/young-it-professionals-in-melbourne-social-tickets-951030446667?aff=ebdssbdestsearch,-37.8137882,144.9598785,Business/Networking
End of Semester Festa,2025-06-27,20:00,Village Belle Hotel,"202 Barkly Street St Kilda, VIC 3182Get directions",https://www.eventbrite.com.au/e/end-of-semester-festa-tickets-1394584873899?aff=ebdssbdestsearch,-37.86960750000001,144.980962,Music
Yarra River City Highlights - Easy 5km,2025-06-27,19:00,Riverland Bar (Outside the bar by the Yarra River),"Federation Wharf Vaults 1-9 Melbourne, VIC 3000Get directions",https://www.eventbrite.com.au/e/yarra-river-city-highlights-easy-5km-tickets-1407488990459?aff=ebdssbdestsearch,-37.984885,145.2205323,Sport
Sound Healing - Om with Rom - Sound Bath with Romy,2025-06-27,19:30,Private Studio (near the corner Alma Rd & Hotham St),"Alma Road St Kilda East, VIC 3183Get directions",https://www.eventbrite.com.au/e/sound-healing-om-with-rom-sound-bath-with-romy-tickets-1408703964479?aff=ebdssbdestsearch,-37.8626822,145.001162,Talks/Workshops
Melbourne's - True Crime Tour,2025-06-27,19:30,8 Hour Reserve,"Victoria Street Melbourne, VIC 3000Get directions",https://www.eventbrite.com.au/e/melbournes-true-crime-tour-tickets-584299113377?aff=ebdssbdestsearch,-37.806751,144.9632658,Talks/Workshops
Divination ft. COUSIN [All Night Long],2025-06-27,23:00,Sub Club Melbourne,"Flinders Court Melbourne, VIC 3000Get directions",https://www.eventbrite.com.au/e/divination-ft-cousin-all-night-long-tickets-1393622856479?aff=ebdssbdestsearch,-37.8179755,144.9644539,Music
"Melbourne Language Exchange | Make Friends, Learn Languages & Culture",2025-06-27,17:30,215 Queen's Restaurant and Bar,"215 Queen St Melbourne, VIC 3000",https://www.eventbrite.com.au/e/melbourne-language-exchange-make-friends-learn-languages-culture-tickets-1059091584439?aff=ebdssbdestsearch,-37.8137882,144.9598785,Social/Dating
PANIC! Emo/Pop-punk Party FRI JUNE 27th,2025-06-27,21:00,Yah Yahs,"99 Smith Street Fitzroy, VIC 3065Get directions",https://www.eventbrite.com.au/e/panic-emopop-punk-party-fri-june-27th-tickets-1410120842399?aff=ebdssbdestsearch,-37.8058635,144.9829641,Music
Adobe Premiere Essentials - Melbourne Campus,2025-06-27,09:00,Australian City Design College,"802, 343 Little Collins Street Melbourne, VICGet directions",https://www.eventbrite.com/e/adobe-premiere-essentials-melbourne-campus-tickets-380114912937?aff=ebdssbdestsearch,-37.8154152,144.9634432,Talks/Workshops
Fresh Networking St Kilda - Guest Registration,2025-06-27,07:30,Saint Kilda Beach Hotel,"35-37 Fitzroy Street St Kilda, VIC 3182Get directions",https://www.eventbrite.com.au/e/fresh-networking-st-kilda-guest-registration-tickets-104930279290?aff=ebdssbdestsearch,-37.8617752,144.9747109,Business/Networking
Private Wheel Throwing Workshop with Kiln Firing,2025-06-27,18:00,"Heer Pottery - unit 3/29-31 Clarice Rd, Box Hill South VIC","29-31 Clarice Road #unit 3 Box Hill South, VIC 3128Get directions",https://www.eventbrite.com.au/e/private-wheel-throwing-workshop-with-kiln-firing-tickets-1057774515049?aff=ebdssbdestsearch,-37.8333911,145.1339829,Art
MCCC x RAA Present: Protocol | Official End of Exams Party,2025-06-27,22:00,Spice Market,"Beaney Lane Melbourne, VIC 3000Get directions",https://www.eventbrite.com.au/e/mccc-x-raa-present-protocol-official-end-of-exams-party-tickets-1362384220879?aff=ebdssbdestsearch,-37.8150917,144.9692392,Social/Dating
Melbourne Bar Crawl,2025-06-27,19:30,The Joint,"35 Elizabeth Street #Level 1 Melbourne, VIC 3000Get directions",https://www.eventbrite.co.uk/e/melbourne-bar-crawl-tickets-1013695840547?aff=ebdssbdestsearch,-37.8174437,144.9643457,Social/Dating
What happens when we... Experiments in Authentic Relating.,2025-06-27,06:30,Centre of You,"Upstairs, 217 Chapel St Prahran Melbourne, VIC 3181Get directions",https://www.eventbrite.com.au/e/what-happens-when-we-experiments-in-authentic-relating-tickets-1373974156689?aff=ebdssbdestsearch,-37.8509316,144.9933031,Talks/Workshops
"Bottomless Cocktails at Top Yard, Melb CBD",2025-06-27,17:00,Top Yard Rooftop,"Geddes Lane Melbourne, VIC 3000",https://www.eventbrite.com.au/e/bottomless-cocktails-at-top-yard-melb-cbd-tickets-859288333537?aff=ebdssbdestsearch,-37.8191519,144.9574746,Social/Dating
Business Networking: Pitch Night in Melbourne,2025-06-27,18:00,The National Hotel,"344 Victoria Street Richmond, VIC 3121Get directions",https://www.eventbrite.com/e/business-networking-pitch-night-in-melbourne-tickets-1371615812819?aff=ebdssbdestsearch,-37.8109096,145.0027956,Business/Networking
Batmania Pub Crawl Melbourne!,2025-06-27,06:30,Wax Music Lounge,"250 Flinders Street Melbourne, VIC 3000Get directions",https://www.eventbrite.com.au/e/batmania-pub-crawl-melbourne-tickets-1122711844349?aff=ebdssbdestsearch,-37.8177051,144.9660907,Social/Dating
Yours Truly – Every Friday @ The Emerson,2025-06-27,20:00,The Emerson Rooftop Bar and Club,"141-145 Commercial Road South Yarra, VIC 3141Get directions",https://www.eventbrite.com.au/e/yours-truly-every-friday-the-emerson-tickets-953067569757?aff=ebdssbdestsearch,-37.8462997,144.9911964,Music
Melbourne Bar Crawl | #1 Friday Night Out (Buy 1 Get 1 Free Special Offer),2025-06-27,20:00,The Black Rabbit,"85 Queen Street Melbourne, VIC 3000Get directions",https://www.eventbrite.com.au/e/melbourne-bar-crawl-1-friday-night-out-buy-1-get-1-free-special-offer-tickets-431532805237?aff=ebdssbdestsearch,-37.81636779999999,144.9611486,Social/Dating
Williamstown Coastal Loop Sunrise Walk w/DAN - Easy 5.5km,2025-06-27,06:00,Point Gellibrand Coastal Heritage Park,"Battery Road Williamstown, VIC 3016Get directions",https://www.eventbrite.com.au/e/williamstown-coastal-loop-sunrise-walk-wdan-easy-55km-tickets-1407484627409?aff=ebdssbdestsearch,-37.8693556,144.909666,Sport
MIX'DUP at Lucky 13 Garage,2025-06-27,08:00,Lucky 13 Garage,"8 Cochranes Rd, Moorabbin VIC 3189, Australia",https://www.facebook.com/events/659491520299220/,-37.94349189,145.07036236060654,Music
Queen Rhapsody – The Australian Queen Tribute Show,2025-06-27,08:00,Altona Sports Club,"11 Altona Rd, Altona VIC 3018, Australia",https://www.facebook.com/events/955643833314999/,-37.85754867,144.85121805353086,Other
Isolation x Revolver Fridays,2025-06-27,22:00,Revolver Upstairs,"Level 2/229 Chapel St, Prahran VIC 3181, Australia",https://www.facebook.com/events/1083380200304495/,-37.8505902,144.9933469,Music
Ross Wilson & The Peaceniks - 50 Years of Hits Tour - Ballarat,2025-06-27,20:00,The Flying Saucer Club,"979-985 Nepean Hwy, Moorabbin VIC 3189, Australia",https://www.facebook.com/events/500935415689180/,-37.9369432,145.0373674,Music
The Paul Williamson Quartet plays the music of Thelonious Monk,2025-06-27,19:30,Uptown Jazz Cafe,"1/177 Brunswick St, Fitzroy VIC 3065, Australia",https://www.facebook.com/events/4182957371949546/,-37.79705404,144.97869049756974,Music
"RUSH : Euphoric, uplifting, inclusive AF!",2025-06-27,00:00,24 Moons,"2 Arthurton Rd, Northcote VIC 3070, Australia",https://www.facebook.com/events/706619715142636/,-37.7691418,144.9982614,Music
Divination ft. COUSIN [All Night Long],2025-06-27,00:00,Sub Club Melbourne,"Flinders Ct, Melbourne VIC 3000, Australia",https://www.facebook.com/events/1236167021236175/,-37.81776587,144.96433104920948,Other
Sat 28th June : Casting Workshop  Stevie Ray : MELBOURNE,2025-06-28,10:00,Justin Lehmann Studio,"263 Barkly Street Footscray, VIC 3011",https://www.eventbrite.com.au/e/sat-28th-june-casting-workshop-stevie-ray-melbourne-tickets-1143780029859?aff=ebdssbdestsearch,-37.7994241,144.8954512,Talks/Workshops
EMO NEVER SLEEPS: SATURDAY 28TH JUNE,2025-06-28,22:00,Royal Melbourne Hotel,"629 Bourke Street Melbourne, VIC 3000",https://www.eventbrite.com.au/e/emo-never-sleeps-saturday-28th-june-tickets-1332891968759?aff=ebdssbdestsearch,-37.8168528,144.9552468,Music
MIAA 31st Annual Conference 2025,2025-06-28,08:30,Treacy Centre,"126 The Avenue Parkville, VIC 3052",https://www.eventbrite.com/e/miaa-31st-annual-conference-2025-tickets-1305699966749?aff=ebdssbdestsearch,-37.78488919999999,144.9574958,Talks/Workshops
Essendon Traffic School Public Session,2025-06-28,10:00,Essendon Traffic School,"Lawson Street Essendon, VIC 3040Get directions",https://www.eventbrite.com.au/e/essendon-traffic-school-public-session-tickets-93855078065?aff=ebdssbdestsearch,-37.7550896,144.9327737,Sport
Turn Back Time (Sat 2:30pm),2025-06-28,14:30,Transit Dance (Brunswick),"64 Dawson Street Brunswick, VIC 3056Get directions",https://www.eventbrite.com.au/e/turn-back-time-sat-230pm-tickets-1368156405639?aff=ebdssbdestsearch,-37.7701752,144.9559255,Theatre
Your Psychic Tool Kit - masterclass,2025-06-28,09:00,Highett Neighbourhood Community House,"2 Livingston St Highett, VIC 3190",https://www.eventbrite.com.au/e/your-psychic-tool-kit-masterclass-tickets-1311351480579?aff=ebdssbdestsearch,-37.9476842,145.037952,Talks/Workshops
Melbourne | Speed Dating | Saturday Event | Ages 27-49 | SpeedAustralia,2025-06-28,19:00,The Metropolitan Hotel,"265 William Street Melbourne, VIC 3000Get directions",https://www.eventbrite.com/e/melbourne-speed-dating-saturday-event-ages-27-49-speedaustralia-tickets-1362480649299?aff=ebdssbdestsearch,-37.812902,144.9566615,Social/Dating
Techno vs Psytrance | June 28 | My Aeon,2025-06-28,21:00,my aeon,"791 Sydney Road Brunswick, VIC 3056",https://www.eventbrite.com.au/e/techno-vs-psytrance-june-28-my-aeon-tickets-1418060329619?aff=ebdssbdestsearch,-37.7581868,144.9633301,Music
Acro/Cheer Classes for 6-12 Year Olds,2025-06-28,10:15,Dance Factory,"225 Swan Street Richmond, VIC 3121",https://www.eventbrite.com.au/e/acrocheer-classes-for-6-12-year-olds-tickets-1321985206339?aff=ebdssbdestsearch,-37.8257587,144.999827,Sport
Men's Weekly Connection,2025-06-28,08:00,The Sandbar,"175B Beaconsfield Parade Middle Park, VIC 3206Get directions",https://www.eventbrite.com/e/mens-weekly-connection-tickets-1370918396829?aff=ebdssbdestsearch,-37.850963,144.9546016,Social/Dating
Psychic First: the missing key to evidential mediumship - masterclass,2025-06-28,09:00,Highett Neighbourhood Community House,"2 Livingston St Highett, VIC 3190",https://www.eventbrite.com.au/e/psychic-first-the-missing-key-to-evidential-mediumship-masterclass-tickets-1311351480579?aff=ebdssbdestsearch,-37.9476842,145.037952,Talks/Workshops
LONDON CLUB - BOILER ROOM ( AFROBEATS -RNB - HIPHOP - AMAPIANO - UK HIPHOP),2025-06-28,22:00,60 King St,"60 King Street Melbourne, VIC 3000Get directions",https://www.eventbrite.com.au/e/london-club-boiler-room-afrobeats-rnb-hiphop-amapiano-uk-hiphop-tickets-1365185650029?aff=ebdssbdestsearch,-37.8188863,144.9571605,Music
S1 2025 Concert - Terminus,2025-06-28,19:30,"St Andrew's Anglican Church, Brighton","228 New Street Brighton, VIC 3186Get directions",https://www.eventbrite.com.au/e/s1-2025-concert-terminus-tickets-1380167992619?aff=ebdssbdestsearch,-37.9113947,144.9927097,Music
High Cheese at Rippon Lea Estate  presented by Showtime Event Group.,2025-06-28,11:00,Rippon Lea Estate,"192 Hotham Street Elsternwick, VIC 3185",https://www.eventbrite.com.au/e/high-cheese-at-rippon-lea-estate-presented-by-showtime-event-group-tickets-1054614904569?aff=ebdssbdestsearch,-37.8798368,144.9987066,Social/Dating
Adult Beginner Ballet,2025-06-28,11:00,Dance Factory,"225 Swan Street Richmond, VIC 3121",https://www.eventbrite.com.au/e/adult-beginner-ballet-tickets-1317173614739?aff=ebdssbdestsearch,-37.8257587,144.999827,Art
"K-POP Bar Night K-POP DJs, RANDOM DANCE, GAMES, KARAOKE",2025-06-28,20:00,215 Queen's Restaurant and Bar,"215 Queen Street Melbourne, VIC 3000Get directions",https://www.eventbrite.com.au/e/k-pop-bar-night-k-pop-djs-random-dance-games-karaoke-tickets-845228149147?aff=ebdssbdestsearch,-37.8137882,144.9598785,Social/Dating
BROOKLYN SATURDAYS - RNB HIPHOP THROWBACKS PARTY LATIN,2025-06-28,21:00,The Black Rabbit,"85 Queen Street Melbourne, VIC 3000",https://www.eventbrite.com/e/brooklyn-saturdays-rnb-hiphop-throwbacks-party-latin-tickets-932351106257?aff=ebdssbdestsearch,-37.81636779999999,144.9611486,Music
Pottery Wheel Experience - Pottery class  Melbourne,2025-06-28,15:00,"Urth Clay Studio - Melbourne, Strathmore","68B Bulla Road Strathmore, VIC 3041Get directions",https://www.eventbrite.com.au/e/pottery-wheel-experience-pottery-class-melbourne-tickets-689165832557?aff=ebdssbdestsearch,-37.7376746,144.9064462,Art
Paint Your Dog | Melbourne Painting Class,2025-06-28,13:45,Paint for Fun's Studios,"252 Graham Street Port Melbourne, VIC 3207",https://www.eventbrite.com.au/e/paint-your-dog-melbourne-painting-class-tickets-1338025523359?aff=ebdssbdestsearch,-37.8386778,144.9385789,Art
Asian Speed Dating MINGLE for Singles (ALL AGES) NON-ASIANS VERY WELCOME,2025-06-28,20:00,215 Queen's Bar,"215 Queen Street Melbourne, VIC 3000Get directions",https://www.eventbrite.com.au/e/asian-speed-dating-mingle-for-singles-all-ages-non-asians-very-welcome-tickets-1215092397069?aff=ebdssbdestsearch,-37.8137882,144.9598785,Social/Dating
"Women's Dance Classes: Tango, Conditioning, and Salsa",2025-06-28,15:30,I.AM.DANCE,"Kerr Street Fitzroy, VIC 3065",https://www.eventbrite.com.au/e/womens-dance-classes-tango-conditioning-and-salsa-tickets-1353065999829?aff=ebdssbdestsearch,-37.7968685,144.9798521,Sport
ELDER EMO OVER 30’s NIGHT MELBOURNE,2025-06-28,20:00,Deluxe Bar,"595 Mount Alexander Road Moonee Ponds, VIC 3039",https://www.eventbrite.com.au/e/elder-emo-over-30s-night-melbourne-tickets-1318210486049?aff=ebdssbdestsearch,-37.768313,144.925046,Music
Live Jazz at the VJC with Chonk,2025-06-28,20:00,Clayton RSL,"171 Carinish Road Clayton, VIC 3168Get directions",https://www.eventbrite.com.au/e/live-jazz-at-the-vjc-with-chonk-tickets-1371894275709?aff=ebdssbdestsearch,-37.9253129,145.1225275,Music
Blivia - Black Trivia (June),2025-06-28,18:00,Little Ezida,"511 Victoria Street Abbotsford, VIC 3067Get directions",https://www.eventbrite.com.au/e/blivia-black-trivia-june-tickets-1383220643179?aff=ebdssbdestsearch,-37.8106479,145.0035312,Games
CHEESE & WINE: Matching with Sommelier Antony,2025-06-28,15:30,"Life's Too Short Bar, Tribeca Arcade, Victoria Parade, East Melbourne VIC, Australia","412 Victoria Parade #Shop 2 East Melbourne, VIC 3002Get directions",https://www.eventbrite.com.au/e/cheese-wine-matching-with-sommelier-antony-tickets-854993688137?aff=ebdssbdestsearch,-37.8096207,144.985273,Social/Dating
Pulsate x Transparency Day Party,2025-06-28,16:00,Somewhere Bar,"181 Chapel Street Prahran, VIC 3181Get directions",https://www.eventbrite.com.au/e/pulsate-x-transparency-day-party-tickets-1380117932889?aff=ebdssbdestsearch,-37.8516165,144.993175,Music
GUNDAM - Learn to Play Event - Gameology BRUNSWICK- 28/06/25,2025-06-28,11:30,Gameology Brunswick,"36 Hope Street Brunswick, VIC 3056Get directions",https://www.eventbrite.com.au/e/gundam-learn-to-play-event-gameology-brunswick-280625-tickets-1362554730879?aff=ebdssbdestsearch,-37.7638098,144.9595269,Games
SATURDAY NIGHT PARTY AT YAH'S (till 5AM),2025-06-28,21:00,Yah Yahs,"99 Smith Street Fitzroy, VIC 3065Get directions",https://www.eventbrite.com.au/e/saturday-night-party-at-yahs-till-5am-tickets-1426980540209?aff=ebdssbdestsearch,-37.8058635,144.9829641,Music
Butt Hole,2025-06-28,20:30,The Butterfly Club,"5 Carson Place Melbourne, VIC 3000Get directions",https://www.eventbrite.co.uk/e/butt-hole-tickets-952511015087?aff=ebdssbdestsearch,-37.8154472,144.9652725,Theatre
Paint in the Dark© - UV Light Disco Party,2025-06-28,19:00,Paint for Fun,"252 Graham Street #Unit 1 Port Melbourne, VIC 3207Get directions",https://www.eventbrite.com.au/e/paint-in-the-dark-uv-light-disco-party-tickets-1277355848729?aff=ebdssbdestsearch,-37.8386895,144.9385483,Art
DBSC - SB-01 Pre-Release - Gameology CLAYTON SOUTH - 28/06/2025,2025-06-28,11:30,Gameology,"12 Eileen Road Clayton South, VIC 3169",https://www.eventbrite.com.au/e/dbsc-sb-01-pre-release-gameology-clayton-south-28062025-tickets-1343482555489?aff=ebdssbdestsearch,-37.9512104,145.1347381,Games
ELDER EMO OVER 30’s NIGHT MELBOURNE ~ DELUXE,2025-06-28,20:00,Deluxe Bar,"595 Mount Alexander Road Moonee Ponds, VIC 3039",https://www.eventbrite.com.au/e/elder-emo-over-30s-night-melbourne-deluxe-tickets-1318210486049?aff=ebdssbdestsearch,-37.768307,144.9249239,Music
K-POP Random Play Dance!,2025-06-28,20:00,215 Queen's Restaurant and Bar,"215 Queen Street Melbourne, VIC 3000",https://www.eventbrite.com.au/e/k-pop-random-play-dance-tickets-1054730389989?aff=ebdssbdestsearch,-37.8137882,144.9598785,Music
Japanese Animation Art Workshop by The Warehouse Melbourne,2025-06-28,02:30,Studio Take Care,"1 Pitt Street Brunswick, VIC 3056",https://www.eventbrite.com.au/e/japanese-animation-art-workshop-by-the-warehouse-melbourne-tickets-1123361718139?aff=ebdssbdestsearch,-37.7711984,144.9711714,Art
Melbourne Bar Crawl | #1 Saturday Night Out,2025-06-28,20:00,The Black Rabbit,"85 Queen Street Melbourne, VIC 3000Get directions",https://www.eventbrite.com.au/e/melbourne-bar-crawl-1-saturday-night-out-tickets-49422790898?aff=ebdssbdestsearch,-37.81636779999999,144.9611486,Social/Dating
Adult Beginner Jazz,2025-06-28,13:00,Dance Factory,"225 Swan Street Richmond, VIC 3121Get directions",https://www.eventbrite.com.au/e/adult-beginner-jazz-tickets-1317185149239?aff=ebdssbdestsearch,-37.8257587,144.999827,Talks/Workshops
SKIP INTRO,2025-06-28,20:00,Shoppingtown Hotel,"19 Williamsons Road Doncaster, VIC 3108",https://www.eventbrite.com.au/e/skip-intro-tickets-1257400993219?aff=ebdssbdestsearch,-37.7851283,145.1227497,Music
Saturday Kids’ Bootcamp in Bundoora,2025-06-28,09:30,Genesis Health + Fitness Bundoora,"24 Scholar Drive Bundoora, VIC 3083",https://www.eventbrite.com.au/e/saturday-kids-bootcamp-in-bundoora-tickets-1150304715369?aff=ebdssbdestsearch,-37.6827562,145.0733925,Sport
Radical Women of Cycling Ride: Melbourne Overnighter [Gravel],2025-06-28,08:30,MAAP LaB Melbourne,"33 Wellington Street Collingwood, VIC 3066Get directions",https://www.eventbrite.com.au/e/radical-women-of-cycling-ride-melbourne-overnighter-gravel-tickets-1406886518449?aff=ebdssbdestsearch,-37.807412,144.9857314,Sport
Vocal Body Jam Workshop – A Guided Vocal Exploration with Murray Kyle.,2025-06-28,14:00,Centre of You,"Upstairs, 217 Chapel St Prahran Melbourne, VIC 3181",https://www.eventbrite.com.au/e/vocal-body-jam-workshop-a-guided-vocal-exploration-with-murray-kyle-tickets-1395617983959?aff=ebdssbdestsearch,-37.8509316,144.9933031,Talks/Workshops
Tarot Workshop - Intermediate Level,2025-06-28,15:00,The Shady Lady,"36 Johnston Street Fitzroy, VIC 3065Get directions",https://www.eventbrite.com.au/e/tarot-workshop-intermediate-level-tickets-1393666155989?aff=ebdssbdestsearch,-37.7982763,144.9760202,Talks/Workshops
GROOV3 at Glow Dance - Fitzroy North,2025-06-28,10:15,Glow Dance Studio,"Level 1, Unit 8 / 252 St Georges Road - Enter via Fergie St Fitzroy North Melbourne, VIC 3068Get directions",https://www.eventbrite.com.au/e/groov3-at-glow-dance-fitzroy-north-tickets-136140344435?aff=ebdssbdestsearch,-37.7831738,144.9842002,Sport
Speed Dating | Melbourne Saturday Night | Ages 27-49 | Fancy A Go?,2025-06-28,19:00,The Metropolitan Hotel,"265 William Street Melbourne, VIC 3000Get directions",https://www.eventbrite.com/e/speed-dating-melbourne-saturday-night-ages-27-49-fancy-a-go-tickets-1363146149829?aff=ebdssbdestsearch,-37.812902,144.9566615,Social/Dating
SOUND FOR THE SOUL MEDITATION & SOUNDBATH,2025-06-28,13:30,Balwyn Community Centre,"408-418 Whitehorse Road Surrey Hills, VIC 3127Get directions",https://www.eventbrite.com.au/e/sound-for-the-soul-meditation-soundbath-tickets-1409743202869?aff=ebdssbdestsearch,-37.8146316,145.0889679,Talks/Workshops
Sound Healing – Moonee Ponds (Channeled Vocal Tones & Crystal Bowls),2025-06-28,08:30,44 Puckle St,"44 Puckle Street Moonee Ponds, VIC 3039Get directions",https://www.eventbrite.com/e/sound-healing-moonee-ponds-channeled-vocal-tones-crystal-bowls-tickets-1381237712179?aff=ebdssbdestsearch,-37.7668258,144.9232257,Talks/Workshops
Dolly Parton - Double Down,2025-06-28,19:00,Speakeasy Theatre,"522 Flinders Street Melbourne, VIC 3000Get directions",https://www.eventbrite.com.au/e/dolly-parton-double-down-tickets-237409085967?aff=ebdssbdestsearch,-37.8203505,144.956935,Comedy
Log Deadlift Stone Championship 2025,2025-06-28,08:00,Iron Revolution Gym,"22 Disney Avenue #Unit 11 Keilor East, VIC 3033",https://www.eventbrite.com/e/log-deadlift-stone-championship-2025-tickets-1257323381079?aff=ebdssbdestsearch,-37.73328900000001,144.8546905,Sport
An Introduction to tDCS: Practical Workshop - Melbourne,2025-06-28,11:00,neurocare clinics East Melbourne,"232 Victoria Parade East Melbourne, VIC 3002",https://www.eventbrite.com.au/e/an-introduction-to-tdcs-practical-workshop-melbourne-tickets-1291158683379?aff=ebdssbdestsearch,-37.8091875,144.9796418,Talks/Workshops
Intention Amulet,2025-06-28,15:00,She'll Space,"8 McIver Street Brunswick, VIC 3056Get directions",https://www.eventbrite.com/e/intention-amulet-tickets-1429535823129?aff=ebdssbdestsearch,-37.768709,144.963746,Art
Speed Dating | Melbourne Saturday Night | Ages 27-49 | Do You Relish?,2025-06-28,19:00,The Metropolitan Hotel,"265 William Street Melbourne, VIC 3000",https://www.eventbrite.com/e/speed-dating-melbourne-saturday-night-ages-27-49-do-you-relish-tickets-1363817227039?aff=ebdssbdestsearch,-37.812902,144.9566615,Social/Dating
Meal Ticket - Footscray Food Tours,2025-06-28,14:00,Papelon Melbourne,"81 Hopkins Street #Unit 190 Footscray, VIC 3011Get directions",https://www.eventbrite.com.au/e/meal-ticket-footscray-food-tours-tickets-1372184333279?aff=ebdssbdestsearch,-37.8002003,144.9020809,Social/Dating
Big Time Boxing Presents FIGHT NIGHT  Daniel Porky Lovett vs Renold Quinlan,2025-06-28,18:00,Melbourne Pavilion,"135-157 Racecourse Road Kensington, VIC 3031Get directions",https://www.eventbrite.com.au/e/big-time-boxing-presents-fight-night-daniel-porky-lovett-vs-renold-quinlan-tickets-1375362429049?aff=ebdssbdestsearch,-37.7891081,144.9364233,Sport
The Cinderella Escape in Melbourne,2025-06-28,10:00,Melbourne,"Melbourne Melbourne, VIC TBA",https://www.eventbrite.com/e/the-cinderella-escape-in-melbourne-tickets-1129514511309?aff=ebdssbdestsearch,-37.8136276,144.9630576,Games
Paint and Sip Class: Poppies à la Van Gogh,2025-06-28,14:00,Ladder Art Space,"4/81 Denmark St Kew, VIC 3101",https://www.eventbrite.com.au/e/paint-and-sip-class-poppies-a-la-van-gogh-tickets-106621732472?aff=ebdssbdestsearch,-37.8089958,145.0285779,Art
Self Defence Seminar,2025-06-28,12:00,DKMMA,"324 Darebin Road Fairfield, VIC 3078Get directions",https://www.eventbrite.com.au/e/self-defence-seminar-tickets-1422767147839?aff=ebdssbdestsearch,-37.766436,145.02692,Talks/Workshops
Soul Collage for Self-Care -Creative Workshop,2025-06-28,10:30,Cheltenham Community Centre,"8 Chesterville Road Cheltenham, VIC 3192",https://www.eventbrite.com.au/e/soul-collage-for-self-care-creative-workshop-tickets-1325467512009?aff=ebdssbdestsearch,-37.9623015,145.0566002,Talks/Workshops
Intro To Intimacy with Eve Morey,2025-06-28,10:00,16th Street Actors Studio,"715 Glen Huntly Road Caulfield, VIC 3162",https://www.eventbrite.com.au/e/intro-to-intimacy-with-eve-morey-tickets-1391923333159?aff=ebdssbdestsearch,-37.8863709,145.0197583,Talks/Workshops
Solar Plexus Chakradance Journey,2025-06-28,16:00,Wild Grace Studio,"4a Canterbury Rd Toorak, VIC 3142",https://www.eventbrite.com.au/e/solar-plexus-chakradance-journey-tickets-1369999107209?aff=ebdssbdestsearch,-37.84860159999999,145.0094229,Talks/Workshops
EMO & COCKTAILS AT DELUXE MELBOURNE,2025-06-28,18:00,Deluxe Bar,"595 Mt Alexander Rd Moonee Ponds, VIC 3039Get directions",https://www.eventbrite.com.au/e/emo-cocktails-at-deluxe-melbourne-tickets-129641961597?aff=ebdssbdestsearch,-37.768307,144.9249239,Music
Hotel of Beauty - Morning Retreat,2025-06-28,11:00,110 High St,"110 High Street Northcote, VIC 3070",https://www.eventbrite.com/e/hotel-of-beauty-morning-retreat-tickets-1375285027539?aff=ebdssbdestsearch,-37.7794915,144.9972195,Talks/Workshops
Damien Power - From Nothing,2025-06-28,06:30,The Coopers Inn,"282 Exhibition Street Melbourne, VIC 3000Get directions",https://www.eventbrite.com/e/damien-power-from-nothing-tickets-1413023504339?aff=ebdssbdestsearch,-37.809147,144.9695339,Comedy
ReWine Bottling Party,2025-06-28,14:00,ReWine,"522 Lygon Street Brunswick East, VIC 3057",https://www.eventbrite.com.au/e/rewine-bottling-party-tickets-1354422276489?aff=ebdssbdestsearch,-37.7623902,144.9736184,Social/Dating
Adult Beginner Lyrical,2025-06-28,12:00,Dance Factory,"225 Swan Street Richmond, VIC 3121",https://www.eventbrite.com.au/e/adult-beginner-lyrical-tickets-1317177105179?aff=ebdssbdestsearch,-37.8257587,144.999827,Art
Paint and Sip in Melbourne: Italy's Blue Lemon Haven,2025-06-28,18:30,Ladder Art Space,"4/81 Denmark St Kew, VIC 3101Get directions",https://www.eventbrite.com.au/e/paint-and-sip-in-melbourne-italys-blue-lemon-haven-tickets-1206180802249?aff=ebdssbdestsearch,-37.8089958,145.0285779,Art
rTMS in Depression: Practical Workshop - Melbourne,2025-06-28,14:00,neurocare clinics East Melbourne,"232 Victoria Parade East Melbourne, VIC 3002",https://www.eventbrite.com.au/e/rtms-in-depression-practical-workshop-melbourne-tickets-1002153727777?aff=ebdssbdestsearch,-37.8091875,144.9796418,Talks/Workshops
"Bollywood Club presents BOLLYWOOD UNDERGROUND at Cleo's Lounge, Melbourne",2025-06-28,22:00,Cleo’s Lounge & Bar,"Beaney Lane Melbourne, VIC 3000Get directions",https://www.eventbrite.com.au/e/bollywood-club-presents-bollywood-underground-at-cleos-lounge-melbourne-tickets-1429928938949?aff=ebdssbdestsearch,-37.8150917,144.9692392,Music
Japanese Art Workshop: Craft a One-of-a-Kind Photo Frame,2025-06-28,12:00,29 Victoria St,"29 Victoria Street Box Hill, VIC 3128",https://www.eventbrite.com.au/e/japanese-art-workshop-craft-a-one-of-a-kind-photo-frame-tickets-1320683202009?aff=ebdssbdestsearch,-37.8227931,145.129747,Talks/Workshops
Jam with  Aggie,2025-06-28,18:00,Tommy Jax,"Rosamond Road Maribyrnong, VIC 3032Get directions",https://www.eventbrite.com/e/jam-with-aggie-tickets-1420130441379?aff=ebdssbdestsearch,-37.7759508,144.8855182,Music
中国留学生交友活动，交友游戏、K-pop DJ、K-pop 随机 舞蹈，DJ、中国嘻哈DJ，EDM，卡拉OK，最后入场 8.30 点 。 免费食物！,2025-06-28,20:00,215 Queen's Bar,"215 Queen Street Melbourne, VIC 3000",https://www.eventbrite.com.au/e/k-pop-djk-pop-djdjedmok-830-tickets-668476289577?aff=ebdssbdestsearch,-37.8137882,144.9598785,Social/Dating
Universal Yoga Master Class with Rita Madou - Melbourne 28 Jun 2025,2025-06-28,15:00,2 Chesterville Rd,"2 Chesterville Road Cheltenham, VIC 3192",https://www.eventbrite.com.au/e/universal-yoga-master-class-with-rita-madou-melbourne-28-jun-2025-tickets-1375350021939?aff=ebdssbdestsearch,-37.9627761,145.0564266,Talks/Workshops
Dangerous Goods 5XXL - 50 TICKETS LEFT,2025-06-28,15:00,PICA (Port Melbourne Industrial Centre for the Arts),"11 Woolboard Road Port Melbourne, VIC 3207Get directions",https://www.eventbrite.com.au/e/dangerous-goods-5xxl-50-tickets-left-tickets-1353029380299?aff=ebdssbdestsearch,-37.8301643,144.9242889,Music
"With Love, Nouria: Documentary Screening",2025-06-28,16:00,Afghan Gallery,"327 Brunswick Street Fitzroy, VIC 3065Get directions",https://www.eventbrite.com.au/e/with-love-nouria-documentary-screening-tickets-1413538705319?aff=ebdssbdestsearch,-37.7973775,144.9785397,Cinema
Flow with Rowie,2025-06-28,11:00,Green Monday Studios,"73 Grattan Street Carlton, VIC 3053Get directions",https://www.eventbrite.com.au/e/flow-with-rowie-tickets-1426215291329?aff=ebdssbdestsearch,-37.8009462,144.9671792,Talks/Workshops
Neon Party (Let's Glow Crazy!),2025-06-28,20:00,The Black Rabbit,"85 Queen Street Melbourne, VIC 3000Get directions",https://www.eventbrite.com.au/e/neon-party-lets-glow-crazy-tickets-1369985797399?aff=ebdssbdestsearch,-37.81636779999999,144.9611486,Social/Dating
Post Eurovision Celebration 2025,2025-06-28,19:00,61-65 Victoria Parade,"61-65 Victoria Parade Collingwood, VIC 3066Get directions",https://www.eventbrite.com.au/e/post-eurovision-celebration-2025-tickets-1372490338549?aff=ebdssbdestsearch,-37.8087349,144.9849853,Music
Turn Back Time (Sat 7:30pm),2025-06-28,19:30,Transit Dance (Brunswick),"64 Dawson Street Brunswick, VIC 3056Get directions",https://www.eventbrite.com.au/e/turn-back-time-sat-730pm-tickets-1368153356519?aff=ebdssbdestsearch,-37.7701752,144.9559255,Theatre
Eat The Beat : Home Of The Underground,2025-06-28,22:00,New Guernica,"64 Smith Street Collingwood, VIC 3066Get directions",https://www.eventbrite.com.au/e/eat-the-beat-home-of-the-underground-tickets-1383421574169?aff=ebdssbdestsearch,-37.8062529,144.9832565,Music
Match & Mingle x Zekkai,2025-06-28,07:30,123 Queen St,"123 Queen Street Club Montage Melbourne, VIC 3000Get directions",https://www.eventbrite.com.au/e/match-mingle-x-zekkai-tickets-1394443571259?aff=ebdssbdestsearch,-37.8157528,144.9607103,Social/Dating
Burlesque Bingo,2025-06-28,16:00,Speakeasy Theatre,"522 Flinders Street Melbourne, VIC 3000",https://www.eventbrite.com.au/e/burlesque-bingo-tickets-1112184165779?aff=ebdssbdestsearch,-37.8203505,144.956935,Games
Trinket Dishes: made with polymer clay,2025-06-28,14:00,Caelene Nee Glen,"143 Martin Street Brighton, VIC 3186Get directions",https://www.eventbrite.com.au/e/trinket-dishes-made-with-polymer-clay-tickets-1416227938889?aff=ebdssbdestsearch,-37.8971051,145.0033783,Art
Red Rave MELB - Sat 28th June,2025-06-28,22:00,Chasers Nightclub,"386 Chapel Street South Yarra, VIC 3141",https://www.eventbrite.com.au/e/red-rave-melb-sat-28th-june-tickets-1344917637859?aff=ebdssbdestsearch,-37.8459028,144.9947039,Music
Temptations MEL,2025-06-28,21:00,Ovia Bar Melbourne,"345 Clarendon Street South Melbourne, VIC 3205",https://www.eventbrite.com/e/temptations-mel-tickets-1411054174019?aff=ebdssbdestsearch,-37.83531900000001,144.9619407,Music
Adult Beginner Tap,2025-06-28,10:00,Dance Factory,"225 Swan Street Richmond, VIC 3121",https://www.eventbrite.com.au/e/adult-beginner-tap-tickets-1317170224599?aff=ebdssbdestsearch,-37.8257587,144.999827,Art
Cabaret Ridiculous,2025-06-28,17:00,Speakeasy Theatre,"522 Flinders Street Melbourne, VIC 3000",https://www.eventbrite.com.au/e/cabaret-ridiculous-tickets-1114249944579?aff=ebdssbdestsearch,-37.8203505,144.956935,Theatre
Stay & Play,2025-06-28,10:00,Richmond Library Meeting Room (Level 2),"L2, 415 Church Street Richmond, VIC 3121",https://www.eventbrite.com.au/e/stay-play-tickets-1134282562679?aff=ebdssbdestsearch,-37.8252586,144.9982151,Games
Speed Dating | Melbourne Saturday  Night | Ages 27-49 | SpeedMelbourne,2025-06-28,19:00,The Metropolitan Hotel,"265 William Street Melbourne, VIC 3000",https://www.eventbrite.com/e/speed-dating-melbourne-saturday-night-ages-27-49-speedmelbourne-tickets-1362441793079?aff=ebdssbdestsearch,-37.812902,144.9566615,Social/Dating
Hip Hop/Jazz Classes for 6-12 Year Olds,2025-06-28,09:30,Dance Factory,"225 Swan Street Richmond, VIC 3121",https://www.eventbrite.com.au/e/hip-hopjazz-classes-for-6-12-year-olds-tickets-1321983039859?aff=ebdssbdestsearch,-37.8257587,144.999827,Art
Collage Night - Bigger Things Club X Scrap Society,2025-06-28,18:30,Studio Take Care,"1 Pitt Street Brunswick, VIC 3056Get directions",https://www.eventbrite.com.au/e/collage-night-bigger-things-club-x-scrap-society-tickets-1404478646439?aff=ebdssbdestsearch,-37.7711984,144.9711714,Art
Asian LGBT+ Social Night DJ+KARAOKE+KPOP (enter by 8pm) NON-ASIAN WELCOME,2025-06-28,20:00,215 Queen's Bar,"215 Queen Street Melbourne, VIC 3000",https://www.eventbrite.com.au/e/asian-lgbt-social-night-djkaraokekpop-enter-by-8pm-non-asian-welcome-tickets-1232670874769?aff=ebdssbdestsearch,-37.8137882,144.9598785,Social/Dating
CENTRAL CEE Hosts DIAMOND SATURDAYS |  OFFICAL AFTERPARTY | LOVE MACHINE,2025-06-28,21:00,Love Machine,"228A Malvern Road Prahran, VIC 3181Get directions",https://www.eventbrite.com.au/e/central-cee-hosts-diamond-saturdays-offical-afterparty-love-machine-tickets-1420990895019?aff=ebdssbdestsearch,-37.8471331,144.9948088,Music
High Tea at Rippon Lea Estate presented by Showtime Event Group,2025-06-28,11:00,Rippon Lea Estate,"192 Hotham Street Elsternwick, VIC 3185Get directions",https://www.eventbrite.com.au/e/high-tea-at-rippon-lea-estate-presented-by-showtime-event-group-tickets-756017056367?aff=ebdssbdestsearch,-37.8798368,144.9987066,Social/Dating
Urban Cocktail Trail | St Kilda (VIC),2025-06-28,13:00,St Kilda,"Multiple Venues St Kilda, VIC 3182Get directions",https://www.eventbrite.com/e/urban-cocktail-trail-st-kilda-vic-tickets-1336345819319?aff=ebdssbdestsearch,-37.864,144.982,Social/Dating
TROU x PAPELON Breaking Bread,2025-06-28,18:00,TROU SPACE,"45 Paisley Street Footscray, VIC 3011Get directions",https://www.eventbrite.com.au/e/trou-x-papelon-breaking-bread-tickets-1395713339169?aff=ebdssbdestsearch,-37.8009981,144.8986147,Social/Dating
Financial Independence Through Property - Coffee,2025-06-28,14:30,KATA KITA,"266 La Trobe Street Melbourne, VIC 3000Get directions",https://www.eventbrite.com.au/e/financial-independence-through-property-coffee-tickets-619059683177?aff=ebdssbdestsearch,-37.8100552,144.9614953,Business/Networking
Winter Sound Alchemy: Intimate Circles for the Soul,2025-06-28,16:00,The Healing Garden Williamstown,"139 Nelson Place Williamstown, VIC 3016Get directions",https://www.eventbrite.com.au/e/winter-sound-alchemy-intimate-circles-for-the-soul-tickets-1430197773039?aff=ebdssbdestsearch,-37.8634012,144.9046769,Talks/Workshops
Gay Tex Party,2025-06-28,18:00,Victorian Pride Centre,"79-81 Fitzroy Street St Kilda, VIC 3182Get directions",https://www.eventbrite.com.au/e/gay-tex-party-tickets-1334857126599?aff=ebdssbdestsearch,-37.860684,144.976346,Social/Dating
HOME TO HER,2025-06-28,09:00,281 Carlisle St,"281 Carlisle Street Balaclava, VIC 3183Get directions",https://www.eventbrite.com/e/home-to-her-tickets-1393387241749?aff=ebdssbdestsearch,-37.869301,144.995964,Talks/Workshops
Unmarked Melbourne Tour 2025,2025-06-28,15:00,Seaworks Maritime Precinct,"82 Nelson Place #82 Williamstown, VIC 3016",https://www.eventbrite.com/e/unmarked-melbourne-tour-2025-tickets-1319602208729?aff=ebdssbdestsearch,-37.863536,144.9065415,Unknown
Whine N Grind Presents: Winter Afro-Piano Special,2025-06-28,22:00,The Nashaa Club,"8 Jackson Street Toorak, VIC 3142Get directions",https://www.eventbrite.com.au/e/whine-n-grind-presents-winter-afro-piano-special-tickets-1427495129359?aff=ebdssbdestsearch,-37.8401479,145.0079409,Music
Mid Year Singing Showcase,2025-06-28,16:00,Fighting Lyons,"70A Keilor Road Essendon North, VIC 3041Get directions",https://www.eventbrite.com.au/e/mid-year-singing-showcase-tickets-1358002164029?aff=ebdssbdestsearch,-37.7425947,144.9063492,Music
Antipasto Making & Aperitivo Masterclass,2025-06-28,02:30,Henry and the Fox,"525 Little Collins Street Melbourne, VIC 3000",https://www.eventbrite.com.au/e/antipasto-making-aperitivo-masterclass-tickets-1340107310039?aff=ebdssbdestsearch,-37.8172112,144.9572687,Talks/Workshops
Unlock Your Creative Potential,2025-06-28,10:00,Victoria University City Tower,"370 Little Lonsdale Street Melbourne, VIC 3000Get directions",https://www.eventbrite.com.au/e/unlock-your-creative-potential-tickets-1374361886399?aff=ebdssbdestsearch,-37.8121112,144.9585905,Talks/Workshops
Clearings in the Sky,2025-06-28,20:30,The Butterfly Club,"5 Carson Place Melbourne, VIC 3000Get directions",https://www.eventbrite.co.uk/e/clearings-in-the-sky-tickets-1363693948309?aff=ebdssbdestsearch,-37.8154472,144.9652725,Music
Speed Dating | Melbourne Saturday Night | Ages 27-49 | Do You Relish?,2025-06-28,19:00,The Metropolitan Hotel,"265 William Street Melbourne, VIC 3000Get directions",https://www.eventbrite.com/e/speed-dating-melbourne-saturday-night-ages-27-49-do-you-relish-tickets-1363454191189?aff=ebdssbdestsearch,-37.812902,144.9566615,Social/Dating
Paint and Sip at Rhythm & Tonic,2025-06-28,15:00,44 Bay Rd,"44 Bay Road Sandringham, VIC 3191",https://www.eventbrite.com/e/paint-and-sip-at-rhythm-tonic-tickets-1377033296659?aff=ebdssbdestsearch,-37.9522274,145.0053997,Art
Bakery Hill Distillery Tour & Tasting,2025-06-28,11:00,411 Macaulay Rd,"411 Macaulay Road Kensington, VIC 3031",https://www.eventbrite.com.au/e/bakery-hill-distillery-tour-tasting-tickets-800417238507?aff=ebdssbdestsearch,-37.794873,144.9330843,Talks/Workshops
How to Train Your Dragon Live Action @ Lido,2025-06-28,05:45,Lido Cinemas,"675 Glenferrie Road Hawthorn, VIC 3122",https://www.eventbrite.com.au/e/how-to-train-your-dragon-live-action-lido-tickets-1397832337149?aff=ebdssbdestsearch,-37.820536,145.0353953,Cinema
OHEMCEE RAP BATTLES: 1VS1 TOURNAMENT (QUARTERFINALS),2025-06-28,18:00,Laundry Bar,"50 Johnston Street Fitzroy, VIC 3065Get directions",https://www.eventbrite.com.au/e/ohemcee-rap-battles-1vs1-tournament-quarterfinals-tickets-1375285438769?aff=ebdssbdestsearch,-37.79831,144.976368,Music
Grief Healing Morning,2025-06-28,10:30,Grass Roots Yoga + Pilates,"84 Inkerman Street #1 St Kilda, VIC 3182Get directions",https://www.eventbrite.com.au/e/grief-healing-morning-tickets-1384630991569?aff=ebdssbdestsearch,-37.8643574,144.9847048,Talks/Workshops
Coffee Making Masterclass and High Tea,2025-06-28,10:30,Henry and the Fox,"525 Little Collins Street Melbourne, VIC 3000Get directions",https://www.eventbrite.com.au/e/coffee-making-masterclass-and-high-tea-tickets-1353144635029?aff=ebdssbdestsearch,-37.8172112,144.9572687,Talks/Workshops
Dangerous Goods 5XXL - SELLING OUT THIS WEEK,2025-06-28,15:00,PICA (Port Melbourne Industrial Centre for the Arts),"11 Woolboard Road Port Melbourne, VIC 3207Get directions",https://www.eventbrite.com.au/e/dangerous-goods-5xxl-selling-out-this-week-tickets-1353029380299?aff=ebdssbdestsearch,-37.8301643,144.9242889,Music
turbo422 > 28.06,2025-06-28,22:00,turbo422,"422 Little Collins Street Melbourne, VIC 3000Get directions",https://www.eventbrite.com.au/e/turbo422-2806-tickets-1426216825919?aff=ebdssbdestsearch,-37.8159052,144.9603366,Music
"Bollywood Discoland at Inflation Nightclub, Melbourne",2025-06-28,22:00,Inflation Entertainment Complex,"60 King Street Melbourne, VIC 3000",https://www.eventbrite.com.au/e/bollywood-discoland-at-inflation-nightclub-melbourne-tickets-1365514854689?aff=ebdssbdestsearch,-37.8188863,144.9571605,Music
Alternative '80s & '90s Party,2025-06-28,22:00,127 Dorcas St,"127 Dorcas Street South Melbourne, VIC 3205Get directions",https://www.eventbrite.com.au/e/alternative-80s-90s-party-tickets-1405571946529?aff=ebdssbdestsearch,-37.8318109,144.9656104,Music
RMIT FUNKADELICS' FIRST CYCLE | VOL.5,2025-06-28,14:00,Building 14 - RMIT University,"414-418 Swanston Street Melbourne, VIC 3000Get directions",https://www.eventbrite.com.au/e/rmit-funkadelics-first-cycle-vol5-tickets-1369592561219?aff=ebdssbdestsearch,-37.8075936,144.9632783,Sport
Term 2 Pastoral Care Camp,2025-06-28,10:30,Edmund Rice Centre Amberley,"7 Amberley Way Lower Plenty, VIC 3093Get directions",https://www.eventbrite.com.au/e/term-2-pastoral-care-camp-tickets-1376983698309?aff=ebdssbdestsearch,-37.7409498,145.1203338,Talks/Workshops
* SOLD OUT! * Ross Wilson & The Peaceniks - 50 Years of Hits Tour - Moonee Ponds,2025-06-28,20:00,The Flying Saucer Club,"979-985 Nepean Hwy, Moorabbin VIC 3189, Australia",https://www.facebook.com/events/606829861928626/,-37.9369432,145.0373674,Music
The Blinds | Casino | Secret Island (first show) @ The Curtin Front Bar (FREE) ,2025-06-28,00:00,THE CURTIN (John Curtin hotel),"29 Lygon St, Carlton VIC 3053, Australia",https://www.facebook.com/events/1898463177596823/,-37.8061581,144.9657057,Music
Bliss n Eso,2025-06-28,12:00,Forum Melbourne,"150 Flinders St, Melbourne VIC 3000, Australia",https://premier.ticketek.com.au/shows/show.aspx?sh=BLISSNE25,-37.8166268,144.9695761,
"""Raw Brit"" back @L13G",2025-06-28,20:00,Lucky 13 Garage,"8 Cochranes Rd, Moorabbin VIC 3189, Australia",https://www.facebook.com/events/4142960732693219/,-37.94349189,145.07036236060654,Music
"Bliss n Eso at Forum, Melbourne (18+)",2025-06-28,19:00,Forum Melbourne,"154 Flinders St, Melbourne VIC 3000, Australia",https://www.facebook.com/events/613213878322347/,-37.81644145,144.9693768124984,Music
Melbourne International Comedy Festival Roadshow,2025-06-28,22:00,Melbourne International Comedy Festival,Melbourne,https://www.facebook.com/events/926478252674432/,-37.8136,144.9631,Comedy
MRB - The Mighty Marty Rose Band Are Back!,2025-06-28,00:00,arcobar heatherton,"8 Arco Ln, Heatherton VIC 3202, Australia",https://www.facebook.com/events/1290522805390095/,-37.94673685,145.07837928457485,Music
ZVI 'A Choice Not A Feeling' Album Launch,2025-06-28,19:00,Kindred Bandroom,"3 Harris St, Footscray VIC 3011, Australia",https://www.facebook.com/events/1669840903731943/,-37.8119001,144.9008247,Music
Mat Jodrell Quartet is back!,2025-06-28,19:30,Uptown Jazz Cafe,"1/177 Brunswick St, Fitzroy VIC 3065, Australia",https://www.facebook.com/events/730621349302218/,-37.79705404,144.97869049756974,Music
Palace - Australia 2025,2025-06-28,20:00,Palais Theatre,"Lower Esplanade, St Kilda VIC 3182, Australia",https://www.facebook.com/events/1560022924709690/,-37.86708671,144.97599656199426,Other
Beltin' Elton,2025-06-28,00:00,Ragtime Tavern,"206 Tyler St, Preston VIC 3072, Australia",https://www.facebook.com/events/575549375578081/?event_time_id=575549388911413,-37.7310367,145.0142411,Music
Killing Heidi | 25 Years of 'Reflector' Australian Tour | Melbourne,2025-06-28,19:00,Northcote Theatre,"216 High St, Northcote VIC 3070, Australia",https://www.facebook.com/events/1856017235139497/,-37.7737068,144.9982706,Music
Purple is the New Pink - A Fundraiser for the Burner Community,2025-06-28,20:00,24 Moons,"2 Arthurton Rd, Northcote VIC 3070, Australia",https://www.facebook.com/events/1696945147606437/,-37.7691418,144.9982614,Social/Dating
Sticky Carpet Returning to Sunshine City,2025-06-28,20:30,Sunshine City Club,"24 Talmage St, Albion VIC 3020, Australia",https://www.facebook.com/events/1203167734483807/,-37.779028,144.8243730166129,Music
Professional Photoshoot: Your Photoshoot - Their Rescue,2025-06-29,10:30,8-14 Albert St,"8-14 Albert Street 4 Preston, VIC 3072",https://www.eventbrite.com.au/e/professional-photoshoot-your-photoshoot-their-rescue-tickets-1352025116519?aff=ebdssbdestsearch,-37.7524699,145.0211718,Art
Ricky Muscat - Nothin' But Love Single Launch,2025-06-29,15:00,Kindred Bandroom,"3 Harris St, Footscray VIC 3011, Australia",https://www.facebook.com/events/690658270371491/,-37.8119001,144.9008247,Music
"Конкурс ""ЛИРА-2025""",2025-06-29,14:00,Russian House Melbourne,"118 Greeves St, Fitzroy VIC 3065, Australia",https://www.facebook.com/events/593382906564877/,-37.79982794,144.97840274927256,Music
Bon But Not Forgotten celebrate AC/DC - Corner Hotel - with guests Poundcake - Van Halen Show,2025-06-29,13:00,The Corner Hotel,"57 Swan St, Richmond VIC 3121",https://www.facebook.com/events/1259871838599499/,-37.82464307,144.9926962,Music
"Sunday School: Mud Bath, Gangrene Dream, Le Bonge",2025-06-29,16:00,Bergy Bandroom,"64 Sydney Rd, Brunswick VIC 3056, Australia",https://www.facebook.com/events/669381022603693/,-37.776327,144.9607158,Music
Intimate - Queer Women's Connection Circle,2025-06-29,14:00,Brunswick,"Brunswick Brunswick, VIC 3056Get directions",https://www.eventbrite.com/e/intimate-queer-womens-connection-circle-tickets-1366585186079?aff=ebdssbdestsearch,-37.7666099,144.9584302,Talks/Workshops
Reiki  - Level 2 (Okuden) in person,2025-06-29,09:00,Hands Of Mine,"1354A Malvern Road Malvern, VIC 3144",https://www.eventbrite.com.au/e/reiki-level-2-okuden-in-person-tickets-1305708652729?aff=ebdssbdestsearch,-37.8533708,145.0410442,Talks/Workshops
MELBOURNE FASHION MASTERCLASS: From Design to Delivery,2025-06-29,11:00,Brunswick,"Brunswick Rd Brunswick, VIC 3056Get directions",https://www.eventbrite.com/e/melbourne-fashion-masterclass-from-design-to-delivery-tickets-1406865625959?aff=ebdssbdestsearch,-37.7770649,144.9600865,Talks/Workshops
Slurps Up.... A Roaster's Perspective on Yunnan,2025-06-29,17:30,City Saints,"2 Mansard Lane #Unit 1 A Collingwood, VIC 3066Get directions",https://www.eventbrite.com/e/slurps-up-a-roasters-perspective-on-yunnan-tickets-1427341479789?aff=ebdssbdestsearch,-37.805807,144.9871643,Talks/Workshops
Red Sands Film Festival 2025,2025-06-29,15:00,Sun Theatre,"8 Ballarat Street Yarraville, VIC 3013",https://www.eventbrite.com/e/red-sands-film-festival-2025-tickets-1322679332489?aff=ebdssbdestsearch,-37.8157446,144.8905291,Cinema
Monthly Dharma Talk & Mindfulness Activities (Teamoo),2025-06-29,10:30,TEAMOO,"141 Toorak Road South Yarra, VIC 3141Get directions",https://www.eventbrite.com.au/e/monthly-dharma-talk-mindfulness-activities-teamoo-tickets-1393748060969?aff=ebdssbdestsearch,-37.8387399,144.9910761,Talks/Workshops
Baby Safe Program:  Baby First Aid/Baby Basic Life Support Small Group 2025,2025-06-29,13:30,Prahran High School,"138 High Street Windsor, VIC 3181",https://www.eventbrite.com.au/e/baby-safe-program-baby-first-aidbaby-basic-life-support-small-group-2025-tickets-1095760853209?aff=ebdssbdestsearch,-37.8517332,144.9913415,Talks/Workshops
Iconic Wire & Wine: Sculpting Workshop for the Stars,2025-06-29,01:45,Paint for Fun,"252 Graham Street #Unit 1 Port Melbourne, VIC 3207",https://www.eventbrite.com.au/e/iconic-wire-wine-sculpting-workshop-for-the-stars-tickets-1277356360259?aff=ebdssbdestsearch,-37.8386895,144.9385483,Art
Sunday Night Stand Up Comedy Show at Club Voltaire Comedy,2025-06-29,19:30,Club Voltaire,"14 Raglan Street #1st Floor North Melbourne, VIC 3051Get directions",https://www.eventbrite.com.au/e/sunday-night-stand-up-comedy-show-at-club-voltaire-comedy-tickets-700685407917?aff=ebdssbdestsearch,-37.8042574,144.9501433,Comedy
Sunday Singles Mingle 40+,2025-06-29,15:00,Pier Port Melbourne,"1 Bay Street Port Melbourne, VIC 3207",https://www.eventbrite.com.au/e/sunday-singles-mingle-40-tickets-1351237871849?aff=ebdssbdestsearch,-37.8428269,144.9380888,Social/Dating
Yoga Nidra Sound Journey,2025-06-29,19:00,Merkaba Studio,"15 Mills Street Cheltenham, VIC 3192",https://www.eventbrite.com.au/e/yoga-nidra-sound-journey-tickets-1352695050309?aff=ebdssbdestsearch,-37.9560125,145.0740554,Talks/Workshops
Maur (UK) | Winter Series pres. by Thick as Thieves,2025-06-29,00:00,Revolver Upstairs,"Level 2/229 Chapel St, Prahran VIC 3181, Australia",https://www.facebook.com/events/449820224823807/,-37.8505902,144.9933469,Music
"Feel Good Flows Sundays - St Kilda Sea Baths Rooftop, 9.30am",2025-06-29,09:30,St Kilda Sea Baths Roof Top,"18 Jacka Boulevard #10 St Kilda, VIC 3182Get directions",https://www.eventbrite.com.au/e/feel-good-flows-sundays-st-kilda-sea-baths-rooftop-930am-tickets-370940231217?aff=ebdssbdestsearch,-37.8653807,144.9720257,Sport
Everything You Can Dream of is True - Day Three,2025-06-29,11:00,West Space at Collingwood Yards,"West Space 102/30 Perry St Collingwood, VIC 3066Get directions",https://www.eventbrite.com.au/e/everything-you-can-dream-of-is-true-day-three-tickets-1359620815459?aff=ebdssbdestsearch,-37.7993391,144.9864551,Art
Comedy: Bronwyn Kuss & Ben Searle - I Like Their New Stuff - Split WIP hour,2025-06-29,18:30,Near & Far Bar,"373 Brunswick Street Fitzroy, VIC 3065Get directions",https://www.eventbrite.com/e/comedy-bronwyn-kuss-ben-searle-i-like-their-new-stuff-split-wip-hour-tickets-1381446937979?aff=ebdssbdestsearch,-37.796055,144.978657,Comedy
Loading Zone Comedy Open Mic,2025-06-29,16:30,"Club Voltaire, Raglan Street, 北墨爾本 維多利亞省澳洲","14 Raglan Street #1st Floor North Melbourne, VIC 3051Get directions",https://www.eventbrite.com/e/loading-zone-comedy-open-mic-tickets-1426094530129?aff=ebdssbdestsearch,-37.8042574,144.9501433,Comedy
Garden Party High Tea at Gardens House,2025-06-29,10:30,Gardens House,"Birdwood Avenue Melbourne, VIC 3004",https://www.eventbrite.com.au/e/garden-party-high-tea-at-gardens-house-tickets-1329227698829?aff=ebdssbdestsearch,-37.8311108,144.9767163,Social/Dating
YAPS 1 YEAR ANNIVERSARY,2025-06-29,12:00,30 Power St,"30 Power Street Southbank, VIC 3006Get directions",https://www.eventbrite.com.au/e/yaps-1-year-anniversary-tickets-1400919541059?aff=ebdssbdestsearch,-37.823929,144.9621158,Sport
BREATHWORK + AURA PHOTOGRAPHY EXPERIENCE,2025-06-29,19:00,14 Pakington St,"14 Pakington Street St Kilda, VIC 3182",https://www.eventbrite.com.au/e/breathwork-aura-photography-experience-tickets-1384658985299?aff=ebdssbdestsearch,-37.8655601,144.9873231,Talks/Workshops
Collingwood Puppy Pub Crawl,2025-06-29,15:00,The Yorkshire Stingo Hotel,"48 Hoddle Street Abbotsford, VIC 3067",https://www.eventbrite.com.au/e/collingwood-puppy-pub-crawl-tickets-155644194977?aff=ebdssbdestsearch,-37.8073236,144.9921058,Social/Dating
The Poetry Cafe,2025-06-29,18:00,99-101 Harding St,"99-101 Harding Street Coburg, VIC 3058Get directions",https://www.eventbrite.com.au/e/the-poetry-cafe-tickets-1404832705439?aff=ebdssbdestsearch,-37.7459102,144.9756885,Art
9DMT: The Experience. TBC x Valli Maine,2025-06-29,15:30,Abbotsford Convent,"1 Saint Heliers Street Abbotsford, VIC 3067Get directions",https://www.eventbrite.com.au/e/9dmt-the-experience-tbc-x-valli-maine-tickets-1374363420989?aff=ebdssbdestsearch,-37.8031791,145.0037812,Talks/Workshops
"No means Nahi: Culture, consent and complicated conversations",2025-06-29,12:00,Boyd Community Hub,"207 City Road Southbank, VIC 3006Get directions",https://www.eventbrite.com.au/e/no-means-nahi-culture-consent-and-complicated-conversations-tickets-1413061688549?aff=ebdssbdestsearch,-37.8256331,144.9610465,Talks/Workshops
Sun 29th June : Casting Workshop  Stevie Ray : MELBOURNE,2025-06-29,10:00,Justin Lehmann Studio,"263 Barkly Street Footscray, VIC 3011",https://www.eventbrite.com.au/e/sun-29th-june-casting-workshop-stevie-ray-melbourne-tickets-1143781454119?aff=ebdssbdestsearch,-37.7994241,144.8954512,Talks/Workshops
INTRO TO GROOV3: Sundays in Richmond,2025-06-29,10:30,FOREVER DANCE,"432 Church Street #Unit 2, Level 1 Richmond, VIC 3121",https://www.eventbrite.com.au/e/intro-to-groov3-sundays-in-richmond-tickets-1306172339629?aff=ebdssbdestsearch,-37.8238936,144.9982667,Sport
Callum Wylie at The Retreat Hotel Brunswick w/Norwood & Al Speers,2025-06-29,14:00,280 Sydney Rd,"280 Sydney Road Brunswick, VIC 3056Get directions",https://www.eventbrite.com.au/e/callum-wylie-at-the-retreat-hotel-brunswick-wnorwood-al-speers-tickets-1374405376479?aff=ebdssbdestsearch,-37.7711488,144.9616353,Music
Transformational Breathwork with Allison - Self-love & forgiveness,2025-06-29,11:45,"Kundalini House - Yoga, Massage and Acupuncture","391A Saint Georges Road Fitzroy North, VIC 3068Get directions",https://www.eventbrite.com.au/e/transformational-breathwork-with-allison-self-love-forgiveness-tickets-1408123397989?aff=ebdssbdestsearch,-37.7784498,144.9877886,Talks/Workshops
VANGUARD - Vanguard Day June - Gameology CLAYTON SOUTH - 29/06/2025,2025-06-29,12:30,Gameology,"12 Eileen Road Clayton South, VIC 3169",https://www.eventbrite.com.au/e/vanguard-vanguard-day-june-gameology-clayton-south-29062025-tickets-1343497690759?aff=ebdssbdestsearch,-37.9512104,145.1347381,Games
Sip and Paint in Melbourne: Autumn Path,2025-06-29,17:30,Ladder Art Space,"4/81 Denmark St Kew, VIC 3101Get directions",https://www.eventbrite.com.au/e/sip-and-paint-in-melbourne-autumn-path-tickets-826513974547?aff=ebdssbdestsearch,-37.8089958,145.0285779,Art
SUNDAY - Fitzroy Market (May and June 2025),2025-06-29,10:00,Fitzroy Mills Market,"75 Rose Street Fitzroy, VIC 3065",https://www.eventbrite.com.au/e/sunday-fitzroy-market-may-and-june-2025-tickets-1298688344799?aff=ebdssbdestsearch,-37.7956693,144.9779514,Unknown
Fine & Good: Life Drawing at The Brunswick Green,2025-06-29,19:00,The Brunswick Green,"313-315 Sydney Road Brunswick, VIC 3056Get directions",https://www.eventbrite.com.au/e/fine-good-life-drawing-at-the-brunswick-green-tickets-1418005756389?aff=ebdssbdestsearch,-37.770138,144.9614257,Art
候场喜剧6月29日星期日开放麦,2025-06-29,14:00,"Club Voltaire, Raglan Street, 北墨爾本 維多利亞省澳洲","14 Raglan Street #1st Floor North Melbourne, VIC 3051Get directions",https://www.eventbrite.com/e/629-tickets-1426095001539?aff=ebdssbdestsearch,-37.8042574,144.9501433,Comedy
"TOWNZZEND - ALBUM LAUNCH for ""Meltdown on Everest""",2025-06-29,18:00,Stay Gold,"133 Sydney Road Brunswick, VIC 3056Get directions",https://www.eventbrite.com.au/e/townzzend-album-launch-for-meltdown-on-everest-tickets-1381172246369?aff=ebdssbdestsearch,-37.77435880000001,144.9606103,Error
Pottery Wheel Experience - Sunday's - Melbourne,2025-06-29,14:00,"Urth Clay Studio - Melbourne, Strathmore","68B Bulla Road Strathmore, VIC 3041Get directions",https://www.eventbrite.com.au/e/pottery-wheel-experience-sundays-melbourne-tickets-826503784067?aff=ebdssbdestsearch,-37.7376746,144.9064462,Art
GLY Xperience 3.0,2025-06-29,18:00,Bourke Street Courtyard,"629 Bourke Street Melbourne, VIC 3004Get directions",https://www.eventbrite.com.au/e/gly-xperience-30-tickets-1405486922219?aff=ebdssbdestsearch,-37.8168528,144.9552468,Music
Silat Fight Conepts & Weaponry : Karambit/Knife,2025-06-29,11:00,Semeru - Movement and Martial Arts Academy / Silat,"11 Friars Road #10 Moorabbin, VIC 3189Get directions",https://www.eventbrite.com.au/e/silat-fight-conepts-weaponry-karambitknife-tickets-1416096596039?aff=ebdssbdestsearch,-37.9454395,145.0624963,Talks/Workshops
Intro to Risograph Workshop with the Melbourne Art Book Fair,2025-06-29,10:00,Nicholas Building,"37 Swanston Street 5th Floor, Room 512 Melbourne, VIC 3000",https://www.eventbrite.com.au/e/intro-to-risograph-workshop-with-the-melbourne-art-book-fair-tickets-1277765814949?aff=ebdssbdestsearch,-37.8167028,144.9666895,Talks/Workshops
Mindful Pottery Wheel Workshop for Beginners,2025-06-29,10:30,"Heer Pottery - unit 3/29-31 Clarice Rd, Box Hill South VIC","29-31 Clarice Road #unit 3 Box Hill South, VIC 3128Get directions",https://www.eventbrite.com.au/e/mindful-pottery-wheel-workshop-for-beginners-tickets-1215738920839?aff=ebdssbdestsearch,-37.8333911,145.1339829,Talks/Workshops
Sunday Salsa  – Dance  and Socialise!,2025-06-29,16:00,Ela Rose Studios,"20 Chingford Street Fairfield, VIC 3078Get directions",https://www.eventbrite.com.au/e/sunday-salsa-dance-and-socialise-tickets-1380211763539?aff=ebdssbdestsearch,-37.7696884,145.0239564,Social/Dating
"Art, Books & New Beginnings: An afternoon with Mia Boe and MAL",2025-06-29,14:00,Schoolhouse Studios,"28 Victoria Street Coburg, VIC 3058Get directions",https://www.eventbrite.com.au/e/art-books-new-beginnings-an-afternoon-with-mia-boe-and-mal-tickets-1380390939459?aff=ebdssbdestsearch,-37.7421001,144.9641068,Art
Paint in the Dark© All Ages - Family Friendly Event,2025-06-29,14:00,Paint for Fun,"252 Graham Street #Unit 1 Port Melbourne, VIC 3207Get directions",https://www.eventbrite.com.au/e/paint-in-the-dark-all-ages-family-friendly-event-tickets-1426173566529?aff=ebdssbdestsearch,-37.8386895,144.9385483,Art
Yoga for Tight Bodies,2025-06-29,11:00,Ashtanga Yoga Centre of Melbourne,"110-112 Argyle Street #Level 1 Fitzroy, VIC 3065",https://www.eventbrite.com.au/e/yoga-for-tight-bodies-tickets-1203694224829?aff=ebdssbdestsearch,-37.7977228,144.9791885,Talks/Workshops
8Foot Felix Residency at The Lomond,2025-06-29,17:00,The Lomond Hotel,"225 Nicholson Street Brunswick East, VIC 3057",https://www.eventbrite.com.au/e/8foot-felix-residency-at-the-lomond-tickets-1326148127749?aff=ebdssbdestsearch,-37.7670861,144.9800057,Music
Yoga & Art in an Art Gallery,2025-06-29,10:00,Artful Yoga Gallery,"1 Vale Street St Kilda, VIC 3182Get directions",https://www.eventbrite.com.au/e/yoga-art-in-an-art-gallery-tickets-1329332512329?aff=ebdssbdestsearch,-37.8661713,144.9817611,Talks/Workshops
June DANCE TRIBE: A Sober Dance Party Experiment by Music is Medicine.,2025-06-29,06:30,Centre of You,"Upstairs, 217 Chapel St Prahran Melbourne, VIC 3181Get directions",https://www.eventbrite.com.au/e/june-dance-tribe-a-sober-dance-party-experiment-by-music-is-medicine-tickets-1378360977789?aff=ebdssbdestsearch,-37.8509316,144.9933031,Music
Cake Club,2025-06-29,12:00,Jamsheed Urban Winery,"4 Albert Street Preston, VIC 3072Get directions",https://www.eventbrite.com.au/e/cake-club-tickets-1388953861389?aff=ebdssbdestsearch,-37.753671,145.021001,Social/Dating
POOF DOOF Drag Brunch at The Espy - Every Sunday,2025-06-29,12:00,Hotel Esplanade,"11 The Esplanade St Kilda, VIC 3182",https://www.eventbrite.com.au/e/poof-doof-drag-brunch-at-the-espy-every-sunday-tickets-1319647143129?aff=ebdssbdestsearch,-37.8641604,144.9730092,Music
Tantra Nights | Melbourne,2025-06-29,07:30,level 1/216 York St,"216 York Street #level 1 South Melbourne, VIC 3205",https://www.eventbrite.com.au/e/tantra-nights-melbourne-tickets-1302719381739?aff=ebdssbdestsearch,-37.8322093,144.9538918,Social/Dating
Pumpy's Pub Quiz (every Monday and Tuesday),2025-06-30,19:00,280 Sydney Rd,"280 Sydney Road Brunswick, VIC 3056Get directions",https://www.eventbrite.com.au/e/pumpys-pub-quiz-every-monday-and-tuesday-tickets-430652171237?aff=ebdssbdestsearch,-37.7711488,144.9616353,Games
Monday Night Breathwork Class with Analu,2025-06-30,18:00,252 St Kilda Rd,"252 Saint Kilda Road St Kilda, VIC 3182Get directions",https://www.eventbrite.com.au/e/monday-night-breathwork-class-with-analu-tickets-1139178416309?aff=ebdssbdestsearch,-37.8633344,144.9858169,Talks/Workshops
Life drawing - Unassigned Gallery,2025-06-30,19:00,55 Edward St,"55 Edward Street Brunswick, VIC 3056Get directions",https://www.eventbrite.com/e/life-drawing-unassigned-gallery-tickets-1288074257779?aff=ebdssbdestsearch,-37.7738491,144.9631088,Art
Sensory Tray Session,2025-06-30,10:00,Fairfield Community Room,"121 Station Street Fairfield, VIC 3078",https://www.eventbrite.com.au/e/sensory-tray-session-tickets-1392254483639?aff=ebdssbdestsearch,-37.7775115,145.0190887,Talks/Workshops
Gain Freedom by Changing your Mindset (Metaphysics Class),2025-06-30,19:00,Northcote,"47 Salisbury Grove Northcote, VIC 3070Get directions",https://www.eventbrite.com.au/e/gain-freedom-by-changing-your-mindset-metaphysics-class-tickets-438763642867?aff=ebdssbdestsearch,-37.7639871,145.0024459,Talks/Workshops
"BC #463 (Eddie Guy, Harry Walters, Fouronthefloor)",2025-06-30,08:00,onesixone,"161 High Street Prahran, VIC 3181Get directions",https://www.eventbrite.com.au/e/bc-463-eddie-guy-harry-walters-fouronthefloor-tickets-1433358376489?aff=ebdssbdestsearch,-37.8518059,144.9936563,Music
Personal Values Certification | Map of Me (Melbourne),2025-06-30,09:00,Melbourne CBD,"Melbourne, VIC 3000",https://www.eventbrite.com.au/e/personal-values-certification-map-of-me-melbourne-registration-1119454361129?aff=ebdssbdestsearch,-37.8152065,144.963937,Talks/Workshops
Comedy at Spleen: $12,2025-06-30,20:00,Spleen Bar,"41 Bourke Street Melbourne, VIC 3000Get directions",https://www.eventbrite.com.au/e/comedy-at-spleen-12-tickets-931888803497?aff=ebdssbdestsearch,-37.8118295,144.9720071,Comedy
Unlocking AI: Fundamentals for Newcomers,2025-06-30,13:30,Holden Street Neighbourhood House,"128 Holden Street Fitzroy North, VIC 3068Get directions",https://www.eventbrite.com.au/e/unlocking-ai-fundamentals-for-newcomers-registration-1258906847269?aff=ebdssbdestsearch,-37.7801608,144.9845632,Talks/Workshops
Puppy Yoga at Fitness Nation,2025-06-30,18:00,Fitness Nation Preston,"140 Bell Street Preston, VIC 3072",https://www.eventbrite.com/e/puppy-yoga-at-fitness-nation-tickets-1409940141919?aff=ebdssbdestsearch,-37.7465672,145.0204181,Talks/Workshops
LOCAL LAUGHS,2025-06-30,20:30,The Local Taphouse,"184 Carlisle Street Saint Kilda East, VIC 3183Get directions",https://www.eventbrite.com/e/local-laughs-tickets-1399310317829?aff=ebdssbdestsearch,-37.8681208,144.989994,Comedy
Intro to GROOV3: Take Care Studio - Brunswick,2025-06-30,19:30,1 Pitt St,"1 Pitt Street Brunswick, VIC 3056Get directions",https://www.eventbrite.com.au/e/intro-to-groov3-take-care-studio-brunswick-tickets-420044613747?aff=ebdssbdestsearch,-37.7711984,144.9711714,Talks/Workshops
"Social Sanctuary (NSC 20th Birthday Celebration!) with Owelu Dreamhouse, Eggy + Cong Josie",2025-06-30,19:00,Northcote Social Club,"301 High St, Northcote VIC 3070, Australia",https://www.facebook.com/events/1775952473265181/,-37.771471,144.998414,Music
WOMEN'S CIRCLES,2025-06-30,18:30,The Healing Garden Williamstown,"139 Nelson Place Williamstown, VIC 3016",https://www.eventbrite.com.au/e/womens-circles-tickets-1266853616269?aff=ebdssbdestsearch,-37.8634012,144.9046769,Talks/Workshops
GROOV3 at HD Entertainment - Prahran,2025-07-01,19:00,HD Entertainment - Dance and Fitness,"Level 2 & 3, 34 King Street (Enter Via, Mount St) Prahan Melbourne, VIC 3181Get directions",https://www.eventbrite.com.au/e/groov3-at-hd-entertainment-prahran-tickets-698779918547?aff=ebdssbdestsearch,-37.8517724,144.9958188,Music
Magpie Nest corporate volunteer day,2025-07-01,08:15,The Salvation Army Melbourne Project 614,"69 Bourke Street Melbourne, VIC 3000Get directions",https://www.eventbrite.com.au/e/magpie-nest-corporate-volunteer-day-tickets-157568719281?aff=ebdssbdestsearch,-37.8122861,144.9714569,Business/Networking
"Forró Dance Classes - Term 2, 2025",2025-07-01,06:45,Errol's,"69/71 Errol Street North Melbourne, VIC 3051Get directions",https://www.eventbrite.com.au/e/forro-dance-classes-term-2-2025-registration-1325072781359?aff=ebdssbdestsearch,-37.8035381,144.9493366,Talks/Workshops
Chris Hadfield,2025-07-01,12:00,Hamer Hall,"32 Southgate Ave, Southbank VIC 3006, Australia",https://premier.ticketek.com.au/shows/show.aspx?sh=CHRISHAD25,-37.8201455,144.9679946,
Metaverse 101 | Melbourne,2025-07-01,15:00,Melbourne,"Online Event Melbourne, VIC 3000Get directions",https://www.eventbrite.com.au/e/metaverse-101-melbourne-tickets-336915121197?aff=ebdssbdestsearch,-37.8279601,144.9683224,Talks/Workshops
"Lido Comedy Tuesday - Lido Cinemas, Hawthorn",2025-07-01,19:30,Lido Cinemas - Jazz Room,"675 Glenferrie Road Hawthorn, VIC 3122Get directions",https://www.eventbrite.com.au/e/lido-comedy-tuesday-lido-cinemas-hawthorn-tickets-204295682887?aff=ebdssbdestsearch,-37.820536,145.0353953,Comedy
Mindfulness Based Stillness Meditation | 8 Week Workshop Round 2/2025,2025-07-01,19:00,CoRize,"17 Everage Street #201 Moonee Ponds, VIC 3039",https://www.eventbrite.com.au/e/mindfulness-based-stillness-meditation-8-week-workshop-round-22025-tickets-1251598086569?aff=ebdssbdestsearch,-37.7654176,144.9220455,Talks/Workshops
"FAULTY TOWERS | The Genuine, Award Winning Dining Experience (Only Four Tables Left!)",2025-07-01,19:00,arcobar heatherton,"8 Arco Ln, Heatherton VIC 3202, Australia",https://www.facebook.com/events/462110646891823/,-37.94673685,145.07837928457485,Theatre
Fresh Networking Balwyn  -  Guest Registration,2025-07-01,07:30,Stranger Coffeehouse & Kitchen,"208 Whitehorse Road Balwyn, VIC 3103",https://www.eventbrite.com.au/e/fresh-networking-balwyn-guest-registration-tickets-1088342865809?aff=ebdssbdestsearch,-37.8129294,145.0799533,Business/Networking
Comedy at Jambo!,2025-07-01,19:00,Jambo Bar & Cafe,"195 Barkly Street Footscray, VIC 3011",https://www.eventbrite.com.au/e/comedy-at-jambo-tickets-623426745177?aff=ebdssbdestsearch,-37.7997437,144.8977187,Comedy
Fresh Networking Melbourne CBD  -  Guest Registration,2025-07-01,07:30,Krimper Cafe,"20 Guildford Lane Melbourne, VIC 3000",https://www.eventbrite.com.au/e/fresh-networking-melbourne-cbd-guest-registration-tickets-105049435690?aff=ebdssbdestsearch,-37.8111993,144.9601337,Business/Networking
"Melbourne Specialist Disability Accommodation, SIL, MTA, ILO Conference 25",2025-07-01,08:30,RACV City Club,"501 Bourke Street Melbourne, VIC 3000Get directions",https://www.eventbrite.com.au/e/melbourne-specialist-disability-accommodation-and-silsda-vic-conference-tickets-1420462805489?aff=ebdssbdestsearch,-37.8158734,144.9596569,Talks/Workshops
Weekly Salsa and Cuban Dance Classes,2025-07-01,19:00,277-283 Queensberry St,"277-283 Queensberry Street Melbourne, VIC 3000Get directions",https://www.eventbrite.com/e/weekly-salsa-and-cuban-dance-classes-tickets-1226072548999?aff=ebdssbdestsearch,-37.80426569999999,144.9592835,Sport
Maribyrnong River Evening Walk - Easy 6km,2025-07-01,18:20,Anglers Tavern,"2 Anglers Way Maribyrnong, VIC 3032Get directions",https://www.eventbrite.com.au/e/maribyrnong-river-evening-walk-easy-6km-tickets-1400868678929?aff=ebdssbdestsearch,-37.7690157,144.9014911,Sport
Christmas in July at The Stampton Bar and Restaurant,2025-07-01,17:00,The Stampton,"215 Bell Street Preston, VIC 3072",https://www.eventbrite.com/e/christmas-in-july-at-the-stampton-bar-and-restaurant-tickets-1420365424219?aff=ebdssbdestsearch,-37.7463305,145.008329,Social/Dating
Financial bootcamp for students,2025-07-01,08:00,level 3/141 Camberwell Rd,"141 Camberwell Road #level 3 Hawthorn East, VIC 3123Get directions",https://www.eventbrite.com.au/e/financial-bootcamp-for-students-tickets-1389096457899?aff=ebdssbdestsearch,-37.8291482,145.0545251,Talks/Workshops
Floral Drawing Sessions,2025-07-01,11:30,Caelene Nee Glen,"143 Martin Street Brighton, VIC 3186Get directions",https://www.eventbrite.com.au/e/floral-drawing-sessions-tickets-1313384290769?aff=ebdssbdestsearch,-37.8971051,145.0033783,Art
Ben Sorensen's Trivia Experience,2025-07-01,19:00,Hofbräuhaus Melbourne,"18-28 Market Lane Melbourne, VIC 3000Get directions",https://www.eventbrite.com.au/e/ben-sorensens-trivia-experience-registration-1225783093229?aff=ebdssbdestsearch,-37.8116657,144.9692918,Games
Stone Lithography,2025-07-01,10:00,Australian Print Workshop,"210 Gertrude St Fitzroy, VIC 3065",https://www.eventbrite.com.au/e/stone-lithography-tickets-1204027531759?aff=ebdssbdestsearch,-37.8064244,144.9815567,Talks/Workshops
Bachata Corazon Tuesday Class & Social,2025-07-01,18:15,The Space Dance & Arts Centre,"318 Chapel Street Prahran, VIC 3181Get directions",https://www.eventbrite.com.au/e/bachata-corazon-tuesday-nights-tickets-1134271920849?aff=ebdssbdestsearch,-37.8476748,144.9942004,Social/Dating
Generative AI for Society and Workplace | Melbourne,2025-07-01,15:00,Melbourne,"Online Event Melbourne, VIC 3000",https://www.eventbrite.com.au/e/generative-ai-for-society-and-workplace-melbourne-tickets-1147867816539?aff=ebdssbdestsearch,-37.8279601,144.9683224,Talks/Workshops
Paint and Sip Class: Lotus Lake,2025-07-01,18:30,Ladder Art Space,"4/81 Denmark St Kew, VIC 3101Get directions",https://www.eventbrite.com.au/e/paint-and-sip-class-lotus-lake-tickets-107779740104?aff=ebdssbdestsearch,-37.8089958,145.0285779,Art
Women's Singing Circle Thornbury (Mums and Bubs welcome!),2025-07-01,11:00,678 High St,"678 High Street Thornbury, VIC 3071Get directions",https://www.eventbrite.com.au/e/womens-singing-circle-thornbury-mums-and-bubs-welcome-tickets-1322719974049?aff=ebdssbdestsearch,-37.7589291,145.0008132,Music
Radical Women of Cycling Ride: Melbourne [TCA w/ Grace Brown],2025-07-01,06:30,Walmer Street,"Walmer Street Kew, VIC 3101Get directions",https://www.eventbrite.com.au/e/radical-women-of-cycling-ride-melbourne-tca-w-grace-brown-tickets-1383489798229?aff=ebdssbdestsearch,-37.8065411,145.0107132,Sport
Fashion and Beauty,2025-07-01,10:00,Melbourne Central shopping centre,"Cnr Latrobe and swanston street, melbourne vic 3000 Melbourne, VIC 3000Get directions",https://www.eventbrite.com/e/fashion-and-beauty-tickets-1384544242099?aff=ebdssbdestsearch,-37.8095354,144.9637414,Unknown
"First Tuesday Book Club July 2025, with guest authors!",2025-07-01,18:15,Village Cinemas Rivoli,"200 Camberwell Road Hawthorn East, VIC 3123Get directions",https://www.eventbrite.com.au/e/first-tuesday-book-club-july-2025-with-guest-authors-tickets-1397360455739?aff=ebdssbdestsearch,-37.8306851,145.0554532,Talks/Workshops
Grow your business through referrals -  Live in-person events,2025-07-01,10:15,The Glasshouse @ Caulfield Racecourse,"31 Station St Caulfield East, VIC 3145Get directions",https://www.eventbrite.com.au/e/grow-your-business-through-referrals-live-in-person-events-tickets-306209720517?aff=ebdssbdestsearch,-37.877287,145.0400109,Business/Networking
Tuesday Language Exchange at Diesel bar,2025-07-01,18:00,Diesel Bar & Eatery,"202 Little Lonsdale Street Melbourne, VIC 3000Get directions",https://www.eventbrite.com.au/e/tuesday-language-exchange-at-diesel-bar-tickets-1270326423529?aff=ebdssbdestsearch,-37.8106704,144.9633799,Social/Dating
Speed Networking Commercial Lenders & Brokers Melbourne,2025-07-02,09:00,"Crowne Plaza Melbourne, an IHG Hotel","1-5 Spencer Street Docklands, VIC 3008",https://www.eventbrite.com.au/e/speed-networking-commercial-lenders-brokers-melbourne-tickets-1057817894799?aff=ebdssbdestsearch,-37.8228353,144.9551136,Business/Networking
Yolanda Ingley & Dave Wayman |  Don Hillman at The Lomond.,2025-07-02,20:00,The Lomond Hotel,"225 Nicholson Street Brunswick East, VIC 3057Get directions",https://www.eventbrite.com.au/e/yolanda-ingley-dave-wayman-don-hillman-at-the-lomond-tickets-1413543940979?aff=ebdssbdestsearch,-37.7670861,144.9800057,Music
Meditation and Mindfulness Session,2025-07-02,19:00,"Oracle of Crystals, 228 Glenferrie Road, Malvern VIC, Australia","228 Glenferrie Road Malvern, VIC 3144",https://www.eventbrite.com.au/e/meditation-and-mindfulness-session-tickets-1388656170989?aff=ebdssbdestsearch,-37.8585334,145.0292064,Talks/Workshops
Nature Writing Workshop,2025-07-02,10:00,Williamstown Botanic Gardens,"Osborne Street Williamstown, VIC 3016",https://www.eventbrite.com.au/e/nature-writing-workshop-tickets-1311290327669?aff=ebdssbdestsearch,-37.8658594,144.895693,Talks/Workshops
A Night of Mānuka with ACTIVIST,2025-07-02,06:30,110 High St,"110 High Street Northcote, VIC 3070Get directions",https://www.eventbrite.com/e/a-night-of-manuka-with-activist-tickets-1422968209219?aff=ebdssbdestsearch,-37.7794915,144.9972195,Talks/Workshops
Sound Healing - NURTURE Sound Bath with Romy,2025-07-02,19:30,Please see the email for the address,"Alma Rd St Kilda East, VIC 3183Get directions",https://www.eventbrite.com.au/e/sound-healing-nurture-sound-bath-with-romy-tickets-1414457663949?aff=ebdssbdestsearch,-37.8626822,145.001162,Talks/Workshops
2025 Global Elite Sports Conference - MELBOURNE,2025-07-02,07:30,Melbourne Cricket Ground,"Brunton Avenue Richmond, VIC 3002Get directions",https://www.eventbrite.com.au/e/2025-global-elite-sports-conference-melbourne-tickets-1351208995479?aff=ebdssbdestsearch,-37.8231434,144.9891301,Business/Networking
Mamas in Business,2025-07-02,12:30,26 Nelson St,"26 Nelson Street Balaclava, VIC 3183Get directions",https://www.eventbrite.com.au/e/mamas-in-business-tickets-1420225977129?aff=ebdssbdestsearch,-37.8678238,144.9936125,Business/Networking
"Seen The Film + More -Richmond, VIC. Hosted by Elise Disher",2025-07-02,19:00,Upstairs. The Sporting Globe Bar & Grill Richmond,"288 Bridge Road Richmond, VIC 3121Get directions",https://www.eventbrite.com.au/e/seen-the-film-more-richmond-vic-hosted-by-elise-disher-tickets-1397565348579?aff=ebdssbdestsearch,-37.8189228,145.0006112,Cinema
Melbourne CBD Speed Dating for ages 30-46 by Cheeky Events Australia,2025-07-02,19:00,Hophaus Bar,"3 Southgate Avenue Southbank Melbourne, VIC 3006Get directions",https://www.eventbrite.com.au/e/melbourne-cbd-speed-dating-for-ages-30-46-by-cheeky-events-australia-tickets-1334819534159?aff=ebdssbdestsearch,-37.820556,144.965833,Social/Dating
MELBOURNE NDISDA : HOSPITAL TO HOME SUMMIT,2025-07-02,09:00,RACV City Club,"501 Bourke Street Melbourne, VIC 3000Get directions",https://www.eventbrite.com.au/e/melbourne-ndisda-hospital-to-home-summit-tickets-1432493680159?aff=ebdssbdestsearch,-37.8158734,144.9596569,Talks/Workshops
Fresh Networking Moorabbin - Guest Registration,2025-07-02,07:30,arcobar heatherton,"8 Arco Lane Heatherton, VIC 3202Get directions",https://www.eventbrite.com.au/e/fresh-networking-moorabbin-guest-registration-tickets-104922327506?aff=ebdssbdestsearch,-37.9474077,145.0804634,Business/Networking
Annie Lewis Drag Bingo,2025-07-02,19:00,Annie Lewis Winehouse,"138 Bridge Road Richmond, VIC 3121Get directions",https://www.eventbrite.com.au/e/annie-lewis-drag-bingo-tickets-1372087834649?aff=ebdssbdestsearch,-37.8184046,144.9950267,Social/Dating
Miss Moses Comedy,2025-07-02,19:30,Miss Moses,"581 Sydney Road Brunswick, VIC 3056Get directions",https://www.eventbrite.com.au/e/miss-moses-comedy-tickets-590618244067?aff=ebdssbdestsearch,-37.7635258,144.962442,Comedy
Weekly Business Networking in Abbotsford,2025-07-02,06:45,27-29 Nicholson St,"27-29 Nicholson Street Abbotsford, VIC 3067Get directions",https://www.eventbrite.com.au/e/weekly-business-networking-in-abbotsford-tickets-671911715027?aff=ebdssbdestsearch,-37.808833,144.995982,Business/Networking
Speed Dating Melbourne | In-Person | Cityswoon | Ages 32-44,2025-07-02,19:00,Westside Ale Works,"36 Alfred St South Melbourne Melbourne, VIC 3205Get directions",https://www.eventbrite.com.au/e/speed-dating-melbourne-in-person-cityswoon-ages-32-44-tickets-1370572161229?aff=ebdssbdestsearch,-37.8320645,144.9494395,Social/Dating
Fresh Networking Coburg - Guest Registration,2025-07-02,07:30,The Boot Factory,"19 Pentridge Boulevard #1 Coburg, VIC 3058Get directions",https://www.eventbrite.com.au/e/fresh-networking-coburg-guest-registration-tickets-105057008340?aff=ebdssbdestsearch,-37.7376447,144.9691569,Business/Networking
Queer Writers Naarm -July,2025-07-02,18:30,The Hearth,"81 Denmark St Kew, VIC 3101",https://www.eventbrite.com.au/e/queer-writers-naarm-july-tickets-1344672153609?aff=ebdssbdestsearch,-37.8090764,145.028332,Talks/Workshops
Paint and Sip Class: Pink Moon,2025-07-02,18:30,Ladder Art Space,"4/81 Denmark St Kew, VIC 3101Get directions",https://www.eventbrite.com.au/e/paint-and-sip-class-pink-moon-tickets-107782971770?aff=ebdssbdestsearch,-37.8089958,145.0285779,Art
Non Profit Grant Writing Training - Melbourne - July 2025,2025-07-02,10:00,Melbourne,"Online Melbourne, VIC 3000",https://www.eventbrite.com.au/e/non-profit-grant-writing-training-melbourne-july-2025-registration-1323237321449?aff=ebdssbdestsearch,-37.8152065,144.963937,Talks/Workshops
Fresh Networking  South Melbourne - Guest Registration,2025-07-03,12:30,The Montague Hotel,"355 Park Street South Melbourne, VIC 3205",https://www.eventbrite.com.au/e/fresh-networking-south-melbourne-guest-registration-tickets-575146868767?aff=ebdssbdestsearch,-37.8376086,144.9540214,Business/Networking
Alicia Komaki Youth Girls Skills Clinic,2025-07-03,09:00,Melbourne Sports & Aquatic Centre,"30 Aughtie Dr Albert Park, VIC 3206",https://www.eventbrite.com.au/e/alicia-komaki-youth-girls-skills-clinic-tickets-1413183994369?aff=ebdssbdestsearch,-37.8433729,144.9613557,Sport
Radical Women of Cycling: Melbourne [Couch Chats],2025-07-03,18:00,MAAP LaB Melbourne,"33 Wellington Street Collingwood, VIC 3066Get directions",https://www.eventbrite.com.au/e/radical-women-of-cycling-melbourne-couch-chats-tickets-1388826640869?aff=ebdssbdestsearch,-37.807412,144.9857314,Talks/Workshops
Yin in an Art Gallery,2025-07-03,17:00,Artful Yoga Gallery,"1 Vale Street St Kilda, VIC 3182Get directions",https://www.eventbrite.com.au/e/yin-in-an-art-gallery-tickets-1301627897079?aff=ebdssbdestsearch,-37.8661713,144.9817611,Talks/Workshops
Working with relational trauma: Adult Exploration of Attachment Interview,2025-07-03,09:30,Elie - 27 Royal Parade Parkville (Gestalt Centre Training Campus),"27 Royal Parade Parkville, VIC 3052",https://www.eventbrite.com.au/e/working-with-relational-trauma-adult-exploration-of-attachment-interview-tickets-1066273746479?aff=ebdssbdestsearch,-37.7962081,144.9574069,Talks/Workshops
Becoming Her: Reignite. Reinvent. Rise.,2025-07-03,19:00,Prince Alfred Richmond,"619 Church Street Richmond, VIC 3121Get directions",https://www.eventbrite.com/e/becoming-her-reignite-reinvent-rise-tickets-1422692644999?aff=ebdssbdestsearch,-37.8324749,144.996906,Business/Networking
FRENCH DINNER WITH SAKE BREWERY,2025-07-03,19:00,Philippe,"115 Collins Street Melbourne, VIC 3000",https://www.eventbrite.com.au/e/french-dinner-with-sake-brewery-tickets-1400910363609?aff=ebdssbdestsearch,-37.8147295,144.9700165,Talks/Workshops
Plate Lithography,2025-07-03,10:00,Australian Print Workshop,"210 Gertrude Street Fitzroy, VIC 3065",https://www.eventbrite.com.au/e/plate-lithography-tickets-1119413398609?aff=ebdssbdestsearch,-37.8064244,144.9815567,Talks/Workshops
ASSCR VIC EMCR Symposium,2025-07-03,09:00,Learning and Teaching Building,"19 Ancora Imparo Way Clayton, VIC 3168",https://www.eventbrite.com.au/e/asscr-vic-emcr-symposium-tickets-1289072192629?aff=ebdssbdestsearch,-37.9139139,145.1325609,Talks/Workshops
Who Killed Anna Key?,2025-07-03,19:00,The Butterfly Club,"5 Carson Place Melbourne, VIC 3000",https://www.eventbrite.co.uk/e/who-killed-anna-key-tickets-1329354558269?aff=ebdssbdestsearch,-37.8154472,144.9652725,Theatre
SILSDA VICTORIA MAXIMISING SIL IMPACT CONFERENCE,2025-07-03,08:30,RACV City Club,"501 Bourke Street Melbourne, VIC 3000Get directions",https://www.eventbrite.com.au/e/silsda-victoria-maximising-sil-impact-conference-tickets-1423081829059?aff=ebdssbdestsearch,-37.8158734,144.9596569,Talks/Workshops
Camberwell Business Club,2025-07-03,13:00,Deco Cafe,"Level 1, 211 Camberwell Road [Opposite The Rivoli Cinemas] Camberwell, VIC 3124Get directions",https://www.eventbrite.com.au/e/camberwell-business-club-tickets-482212208697?aff=ebdssbdestsearch,-37.8303762,145.0560239,Business/Networking
Responding to emotions in cancer workshop #1,2025-07-03,09:00,Victorian Comprehensive Cancer Centre,"Level 13, Meeting Room 1 305 Grattan St Melbourne, VIC 3000",https://www.eventbrite.com.au/e/responding-to-emotions-in-cancer-workshop-1-tickets-1329323114219?aff=ebdssbdestsearch,-37.800197,144.9567095,Talks/Workshops
Fresh Networking  Hawthorn - Guest Registration,2025-07-03,07:30,Now & Then Cafe kew,"204 High Street Kew, VIC 3101",https://www.eventbrite.com.au/e/fresh-networking-hawthorn-guest-registration-tickets-105198467448?aff=ebdssbdestsearch,-37.806456,145.0322634,Business/Networking
Melbourne Lesbian Singles Night | MyCheekyGayDate | Lesbian Speed Dating,2025-07-03,19:00,The Metropolitan Hotel,"265 William Street Melbourne, VIC 3000",https://www.eventbrite.com/e/melbourne-lesbian-singles-night-mycheekygaydate-lesbian-speed-dating-tickets-1392611310919?aff=ebdssbdestsearch,-37.812902,144.9566615,Social/Dating
