Event_Title,Date,Time,Venue,Address,url,Latitude,Longitude,Category
"(Thu, May 22) CLAIRE BIRCHALL + DAN BRODIE ",2025-05-22,00:00,George Lane St Kilda,"1 George Ln, St Kilda VIC 3182, Australia",https://www.facebook.com/events/672482365502324/,-37.85997305,144.9780306,
When vaginal treatment goes wrong: common mistakes and how to avoid them,2025-05-22,19:30,"Bargoonga Nganjin, North Fitzroy Library","182-186 Saint Georges Road Fitzroy North, VIC 3068",https://www.eventbrite.com/e/when-vaginal-treatment-goes-wrong-common-mistakes-and-how-to-avoid-them-tickets-1351129076439?aff=ebdssbdestsearch,-37.7847278,144.9828535,
A taste of Grange,2025-05-22,18:00,Templestowe Hotel,"23 Parker Street Templestowe Lower, VIC 3107",https://www.eventbrite.com/e/a-taste-of-grange-tickets-1326155198899?aff=ebdssbdestsearch,-37.7563119,145.1175016,Social/Dating
ATOM PL 2025: VCE Media Units 2 & 4,2025-05-22,09:30,SAE Creative Media Institute Melbourne,"235 Normanby Road South Melbourne, VIC 3205",https://www.eventbrite.com.au/e/atom-pl-2025-vce-media-units-2-4-tickets-1302788227659?aff=ebdssbdestsearch,-37.8298676,144.9480224,Talks/Workshops
Conscious Connection | Communal Dining (ages 30-40),2025-05-22,19:00,Flour Child St Kilda,"77 Acland Street #Level 1 St Kilda, VIC 3182",https://www.eventbrite.com.au/e/conscious-connection-communal-dining-ages-30-40-tickets-1341409755689?aff=ebdssbdestsearch,-37.8677035,144.9787316,Social/Dating
"IT, AI & Tech Innovation Roundtable",2025-05-22,15:00,level 5/121 Exhibition St,"121 Exhibition Street #level 5 Melbourne, VIC 3000",https://www.eventbrite.com.au/e/it-ai-tech-innovation-roundtable-tickets-1334921890309?aff=ebdssbdestsearch,-37.8126466,144.9703748,Business/Networking
Foodpreneurs Festival 2025,2025-05-22,17:00,Abbotsford Convent,"1 Saint Heliers Street Abbotsford, VIC 3067",https://www.eventbrite.com.au/e/foodpreneurs-festival-2025-tickets-1109918138029?aff=ebdssbdestsearch,-37.8031791,145.0037812,Business/Networking
✨ Deep Conversations⚡Group Speed Friending,2025-05-22,06:30,The Bank on Collins,"394 Collins Street #Ground floor Melbourne, VIC 3000",https://www.eventbrite.com/e/deep-conversationsgroup-speed-friending-tickets-1347545808789?aff=ebdssbdestsearch,-37.8167434,144.9612062,
Zoho Recruit & People User Training - Melbourne,2025-05-22,09:00,Collins Street,"Collins Street Melbourne, VIC 3004",https://www.eventbrite.com.au/e/zoho-recruit-people-user-training-melbourne-tickets-1318352861899?aff=ebdssbdestsearch,-37.8161271,144.9675199,
18-28 & 25-35  May 22nd | Serves & Sparks:  A Pickleball Social for Singles,2025-05-22,18:00,PicklePlay Indoor Pickleball,"1 South Drive Bentleigh East, VIC 3165",https://www.eventbrite.com.au/e/18-28-25-35-may-22nd-serves-sparks-a-pickleball-social-for-singles-tickets-1343596696889?aff=ebdssbdestsearch,-37.9106715,145.0613664,Social/Dating
Tools & Techniques for Job Seeking - Thursday 22 May & 29 May 2025,2025-05-22,09:30,Caulfield,"Manders Villas, 311 - 313 Glen Eira Road Caulfield, VIC 3162",https://www.eventbrite.com.au/e/tools-techniques-for-job-seeking-thursday-22-may-29-may-2025-tickets-1301685509399?aff=ebdssbdestsearch,-37.8788271,145.0156138,Talks/Workshops
Mornington Peninsula Wine on the Road,2025-05-22,17:00,Victoria by Farmer's Daughters,"2 Swanston Street #Tenancy 26 Melbourne, VIC 3000",https://www.eventbrite.com.au/e/mornington-peninsula-wine-on-the-road-tickets-1292026298439?aff=ebdssbdestsearch,-37.8182633,144.9691842,Social/Dating
Gay Men Speed Dating | Melbourne Singles Event | Fancy a Go?,2025-05-22,19:00,The Metropolitan Hotel,"265 William Street Melbourne, VIC 3000",https://www.eventbrite.com/e/gay-men-speed-dating-melbourne-singles-event-fancy-a-go-tickets-1277882734659?aff=ebdssbdestsearch,-37.812902,144.9566615,
ONE PIECE - Treasure Cup 2025 - Gameology CLAYTON SOUTH - 22/05/2025,2025-05-22,06:30,Gameology,"12 Eileen Road Clayton South, VIC 3169",https://www.eventbrite.com.au/e/one-piece-treasure-cup-2025-gameology-clayton-south-22052025-tickets-1323294111309?aff=ebdssbdestsearch,-37.9512104,145.1347381,Games
Introduction to Leadership,2025-05-22,10:00,City Library,"253 Flinders Lane Melbourne, VIC 3000",https://www.eventbrite.com.au/e/introduction-to-leadership-registration-1335187274079?aff=ebdssbdestsearch,-37.8171117,144.9660625,
Inner Listening - Restorative Yoga Meets Meditation.,2025-05-22,06:30,Centre of You,"Upstairs, 217 Chapel St Prahran Melbourne, VIC 3181",https://www.eventbrite.com.au/e/inner-listening-restorative-yoga-meets-meditation-tickets-1336367283519?aff=ebdssbdestsearch,-37.8509316,144.9933031,
Melbourne Gay Men Singles Night | MyCheekyGayDate,2025-05-22,19:00,The Metropolitan Hotel,"265 William Street Melbourne, VIC 3000",https://www.eventbrite.com/e/melbourne-gay-men-singles-night-mycheekygaydate-tickets-1277253974019?aff=ebdssbdestsearch,-37.812902,144.9566615,
MELBOURNE DESIGN WEEK GOLF NETWORK,2025-05-22,14:30,Royal Park Golf Course,"11 Old Poplar Road Parkville, VIC 3052",https://www.eventbrite.com/e/melbourne-design-week-golf-network-tickets-1306709636699?aff=ebdssbdestsearch,-37.7819175,144.9563005,Business/Networking
Pilates with Friends,2025-05-22,10:00,2 Nurlendi Rd,"2 Nurlendi Road Vermont, VIC 3133",https://www.eventbrite.com/e/pilates-with-friends-tickets-1326165610039?aff=ebdssbdestsearch,-37.8368426,145.1942597,
Bakery Hill Distillery Tour & Tasting,2025-05-22,18:00,411 Macaulay Rd,"411 Macaulay Road Kensington, VIC 3031",https://www.eventbrite.com.au/e/bakery-hill-distillery-tour-tasting-tickets-800417238507?aff=ebdssbdestsearch,-37.794873,144.9330843,
Women in Business with Jessica Gallagher,2025-05-22,12:00,Meadowbank Estate Wedding & Event Venue,"1 Eldon Street Broadmeadows, VIC 3047",https://www.eventbrite.com.au/e/women-in-business-with-jessica-gallagher-tickets-1280315711759?aff=ebdssbdestsearch,-37.6898349,144.9506474,Business/Networking
"""It's Whatevers"" Sharp Edges Live at Bar Open",2025-05-22,20:00,Bar Open,"317 Brunswick Street Fitzroy, VIC 3065",https://www.eventbrite.com/e/its-whatevers-sharp-edges-live-at-bar-open-tickets-1319598437449?aff=ebdssbdestsearch,-37.7976558,144.9784154,
The Red Clay Strays,2025-05-22,12:00,Forum Melbourne,"180 Flinders St, Melbourne VIC 3000, Australia",https://premier.ticketek.com.au/shows/show.aspx?sh=REDCLAY25,-37.816602,144.9694678,
You Be The Artist,2025-05-22,10:00,Miss Lucy,"133 Central Road Nunawading, VIC 3131",https://www.eventbrite.com.au/e/you-be-the-artist-tickets-1323175085299?aff=ebdssbdestsearch,-37.8240234,145.1662571,
Salt The Earth @ Mamma Chen's,2025-05-22,19:30,Mamma Chen's,"42A Albert St, Footscray VIC 3011, Australia",https://www.facebook.com/events/964199688808544/,-37.8047552,144.89727240000002,
House of Funk @ Bar Oussou!,2025-05-22,00:00,Bar Oussou,"653 Sydney Rd, Brunswick VIC 3056, Australia",https://www.facebook.com/events/1124932826343750/,-37.7618155,144.9628753,
Monty Shnier // Uptown Jazz Cafe,2025-05-22,00:00,Uptown Jazz Cafe,"1/177 Brunswick St, Fitzroy VIC 3065, Australia",https://www.facebook.com/events/1838941083538484/,-37.79705404,144.97869049756974,
TRAIN // Melbourne // with KT Tunstall + Jason Wade of Lifehouse // John Cain Arena,2025-05-22,17:45,John Cain Arena,"Olympic Blvd, Melbourne VIC 3001, Australia",https://www.facebook.com/events/9123729647690624/,-37.82305598,144.97619022672723,
Mamamia: Out Loud Live 2025 The All or Nothing Tour,2025-05-22,19:00,Palais Theatre,"Lower Esplanade, St Kilda VIC 3182, Australia",https://www.facebook.com/events/543248871880168/,-37.86708671,144.97599656199426,
Stormchasers,2025-05-22,00:00,Altona Sports Club,"11 Altona Rd, Altona VIC 3018, Australia",https://www.facebook.com/events/1646988752619864/,-37.85754867,144.85121805353086,
SPIRIT,2025-05-22,18:00,Bird's Basement,"11 Singers Ln, Melbourne VIC 3000, Australia",https://www.facebook.com/events/4155443104683551/,-37.81114416,144.95680390283175,
Fame On Fire // Melbourne // The Death Card Tour 2025 // 170 Russell,2025-05-22,19:00,170 Russell,"170 Russell St, Melbourne VIC 3000, Australia",https://www.facebook.com/events/1312357496559560/,-37.8120109,144.9679369,
Explorer Adventure Tour: Secrets of Australian Plants,2025-05-22,00:00,Botanic gardens,"Birdwood Ave Melbourne VIC 3004, Australia",https://www.facebook.com/events/2038711696631934/?event_time_id=2038711703298600,-37.82683271,144.97238679810675,
Kaliopi & The Blues Messengers & Thursday Night Jam!,2025-05-22,00:00,Hume Blues Club Inc,"27 Ballantyne St, Thornbury VIC 3071, Australia",https://www.facebook.com/events/492060353983587/,-37.7588241,144.9985126,
Ben Macintyre on 45 Years Since Operation Nimrod,2025-05-22,00:00,The Wheeler Centre,"176 Little Lonsdale St, Melbourne VIC 3000, Australia",https://www.facebook.com/events/1174838837480661/,-37.8101765,144.9652219,
OH! Daisy Guillotine Single Launch,2025-05-22,19:30,Shotkickers,"744 High St, Thornbury VIC 3071, Australia",https://www.facebook.com/events/1356868968901606/,-37.75592655,145.0013923,
"GUERNS THURS :$4 Pots, Seltzers $6 Vodkas!",2025-05-22,00:00,New Guernica,"64 Smith St, Collingwood VIC 3066, Australia",https://www.facebook.com/events/1389317745534734/,-37.80624775,144.98331211946754,
VANDEMONIAN LAGS - Bendigo,2025-05-22,19:30,The Flying Saucer Club,"979-985 Nepean Hwy, Moorabbin VIC 3189, Australia",https://www.facebook.com/events/3998964493672836/,-37.9369432,145.0373674,
Flow Motion ~ Late Night Jams,2025-05-22,19:00,Kindred Bandroom,"3 Harris St, Footscray VIC 3011, Australia",https://www.facebook.com/events/9112941185472051/,-37.8119001,144.9008247,
REVERSE HAPPY HOUR THURSDAYS,2025-05-22,00:00,Inkerman Hotel,"375 Inkerman St, St Kilda East VIC 3183, Australia",https://www.facebook.com/events/416365071539239/,-37.866444,144.99799715146656,
Grace Robinson | Live at Punters Club,2025-05-22,22:00,Punters Club,"376 Brunswick St, Fitzroy VIC 3065, Australia",https://www.facebook.com/events/664332706399595/,-37.7960561,144.9790327,
My Guardian Angel & Layla,2025-05-22,20:00,The Merri Creek Tavern,"111 High St, Northcote VIC 3070, Australia",https://www.facebook.com/events/1378408906739007/,-37.7794356,144.996838,
Melbourne International Comedy Festival Roadshow  ,2025-05-22,19:30,Melbourne International Comedy Festival,Melbourne,https://www.facebook.com/events/1803580070451142/,-37.8136,144.9631,
 World Goth Day x Brunny East Bar Crawl ,2025-05-22,20:00,The BEAST,"80 Lygon Street, Brunswick East Melbourne, VIC, Australia, Victoria 3057",https://www.facebook.com/events/1882615645925142/,-37.77615718,144.97129424232867,
altimate.SHOWDOWN Season 3 - Heat Four,2025-05-22,18:30,Stay Gold,"133 Sydney Rd, Brunswick VIC 3056, Australia",https://www.facebook.com/events/642437482084992/,-37.7743469,144.9607404,
What The Fest: From May 22,2025-05-22,10:35,Cinema Nova,"380 Lygon St, Carlton VIC 3053, Australia",https://www.facebook.com/events/996563459257298/,-37.7978092,144.9680124,
Startup Pitch Event Melbourne,2025-05-23,19:00,The National Hotel,"344 Victoria Street Richmond, VIC 3121",https://www.eventbrite.com/e/startup-pitch-event-melbourne-tickets-1249010296419?aff=ebdssbdestsearch,-37.8109096,145.0027956,Business/Networking
Guqin Yarra,2025-05-23,06:30,"The Edge, Fed Square","Flinders Street Melbourne, VIC 3000",https://www.eventbrite.com.au/e/guqin-yarra-tickets-1300246074009?aff=ebdssbdestsearch,-37.8185815,144.9637799,Art
"Love, Actually?",2025-05-23,19:00,442 Geelong Rd,"442 Geelong Road West Footscray, VIC 3013",https://www.eventbrite.com.au/e/love-actually-tickets-1352109107739?aff=ebdssbdestsearch,-37.8111622,144.8658565,Social/Dating
Ripe Presents - Ripe City Metro,2025-05-23,19:00,The Vineyard Restaurant,"71A Acland Street St Kilda, VIC 3182",https://www.eventbrite.com.au/e/ripe-presents-ripe-city-metro-tickets-1322698058499?aff=ebdssbdestsearch,-37.8675253,144.9785015,Music
Tech Networking Event by Startup Valley  in Melbourne,2025-05-23,18:00,The National Hotel,"344 Victoria Street Richmond, VIC 3121",https://www.eventbrite.com/e/tech-networking-event-by-startup-valley-in-melbourne-tickets-1320326635509?aff=ebdssbdestsearch,-37.8109096,145.0027956,Business/Networking
Tech & Business Networking Melbourne,2025-05-23,19:00,The National Hotel,"344 Victoria Street Richmond, VIC 3121",https://www.eventbrite.com/e/tech-business-networking-melbourne-tickets-1249010286389?aff=ebdssbdestsearch,-37.8109096,145.0027956,Business/Networking
Setting the Stage: Preparing for the National Lung Cancer Screening Program,2025-05-23,09:00,The Florey Institute of Neuroscience and Mental Health,"30 Royal Parade Parkville, VIC 3010",https://www.eventbrite.com.au/e/setting-the-stage-preparing-for-the-national-lung-cancer-screening-program-tickets-1115148883329?aff=ebdssbdestsearch,-37.7982843,144.9585746,Talks/Workshops
M.O.S. presented by Floating Dreams + onesixone,2025-05-23,21:00,onesixone,"161 High Street Prahran, VIC 3181",https://www.eventbrite.com.au/e/mos-presented-by-floating-dreams-onesixone-tickets-1334832202049?aff=ebdssbdestsearch,-37.85173229999999,144.9936589,Music
Legends Showcase -  Starring Mark Andrew,2025-05-23,19:00,Olympic Hotel,"31 Albert Street Preston, VIC 3072",https://www.eventbrite.com.au/e/legends-showcase-starring-mark-andrew-tickets-1290661747029?aff=ebdssbdestsearch,-37.7465792,145.021604,Music
AI &  Tech Networking Melbourne,2025-05-23,18:00,The National Hotel,"344 Victoria Street Richmond, VIC 3121",https://www.eventbrite.com/e/ai-tech-networking-melbourne-tickets-1320326585359?aff=ebdssbdestsearch,-37.8109096,145.0027956,Business/Networking
BOLLY BOILERX  BY DECIBLES,2025-05-23,22:00,Inflation Nightclub,"60 King Street Melbourne, VIC 3000",https://www.eventbrite.com.au/e/bolly-boilerx-by-decibles-tickets-1354477401369?aff=ebdssbdestsearch,-37.8188863,144.9571605,
these three things (Queen Victoria Gardens),2025-05-23,10:00,Queen Victoria Gardens,"Saint Kilda Road Melbourne, VIC 3004",https://www.eventbrite.com.au/e/these-three-things-queen-victoria-gardens-tickets-1271675428439?aff=ebdssbdestsearch,-37.8371405,144.9756536,Art
One More Tune #32,2025-05-23,19:00,Bodriggy Brewing Company,"245 Johnston Street Abbotsford, VIC 3067",https://www.eventbrite.com.au/e/one-more-tune-32-tickets-1338113145439?aff=ebdssbdestsearch,-37.8002432,144.9944887,Music
Digital Marketing Two Day Workshop,2025-05-23,09:30,City of Kingston,"1230 Nepean Highway Cheltenham, VIC 3192",https://www.eventbrite.com.au/e/digital-marketing-two-day-workshop-tickets-1306180965429?aff=ebdssbdestsearch,-37.9661832,145.0574829,Talks/Workshops
ASFA x KODAK - THE COOL DOWN,2025-05-23,22:00,Ovia Bar Melbourne,"345 Clarendon Street South Melbourne, VIC 3205",https://www.eventbrite.com.au/e/asfa-x-kodak-the-cool-down-tickets-1336490642489?aff=ebdssbdestsearch,-37.83531900000001,144.9619407,Music
"PlayZone Party – Axe Throwing, Mechanical Bull, Sumo and loads more!",2025-05-23,19:00,The PlayZone,"11 Ellis Street #level 1 South Yarra, VIC 3141",https://www.eventbrite.com.au/e/playzone-party-axe-throwing-mechanical-bull-sumo-and-loads-more-tickets-1333599194089?aff=ebdssbdestsearch,-37.8440718,144.9957841,Social/Dating
"PRIVATE Cast, Crew & Supporters Screening: Been Here Before & Tenderfoot",2025-05-23,19:00,3 Burwood Hwy,"3 Burwood Highway Burwood East, VIC 3151",https://www.eventbrite.com.au/e/private-cast-crew-supporters-screening-been-here-before-tenderfoot-tickets-1333603386629?aff=ebdssbdestsearch,-37.8517025,145.1340484,Cinema
"Stonetrip live at Cherry Bar, FRI MAY 23rd",2025-05-23,20:00,"Cherry Bar, Little Collins Street, Melbourne VIC, Australia","68 Little Collins Street Melbourne, VIC 3000",https://www.eventbrite.com.au/e/stonetrip-live-at-cherry-bar-fri-may-23rd-tickets-1329227187299?aff=ebdssbdestsearch,-37.8129293,144.9714986,
Speaking with IMPACT Workshop,2025-05-23,08:30,Punthill Apartment Hotels | Williamstown,"18 Ferguson Street #4 Williamstown, VIC 3016",https://www.eventbrite.com.au/e/speaking-with-impact-workshop-registration-1336204787489?aff=ebdssbdestsearch,-37.8594473,144.9010061,
Paint in the Dark© 18+ UV Light Disco Party,2025-05-23,19:00,Paint for Fun,"252 Graham Street #Unit 1 Port Melbourne, VIC 3207",https://www.eventbrite.com.au/e/paint-in-the-dark-18-uv-light-disco-party-tickets-1257743216819?aff=ebdssbdestsearch,-37.8386895,144.9385483,
Club Well x Inner Mind Records,2025-05-23,18:00,Joey Smalls,"284 Sydney Road Brunswick, VIC 3056",https://www.eventbrite.com/e/club-well-x-inner-mind-records-tickets-1354493409249?aff=ebdssbdestsearch,-37.7710648,144.9616319,
Zoho Inventory & Books User Training - Melbourne,2025-05-23,14:00,Collins Street,"Collins Street Melbourne, VIC 3004",https://www.eventbrite.com.au/e/zoho-inventory-books-user-training-melbourne-tickets-1318413683819?aff=ebdssbdestsearch,-37.8161271,144.9675199,
Chelsea Wolfe,2025-05-23,12:00,Forum Melbourne,"180 Flinders St, Melbourne VIC 3000, Australia",https://premier.ticketek.com.au/shows/show.aspx?sh=CWOLFE25,-37.816602,144.9694678,
Iconic Wire & Wine: Sculpting Workshop for the Stars,2025-05-23,06:45,Paint for Fun,"252 Graham Street #Unit 1 Port Melbourne, VIC 3207",https://www.eventbrite.com.au/e/iconic-wire-wine-sculpting-workshop-for-the-stars-tickets-1257735594019?aff=ebdssbdestsearch,-37.8386895,144.9385483,
Beach Volleyball Social: Emo Night,2025-05-23,19:30,CitySide Sports - Netball & Volleyball,"22-24 Syme Street Brunswick, VIC 3056",https://www.eventbrite.com.au/e/beach-volleyball-social-emo-night-tickets-1332093029109?aff=ebdssbdestsearch,-37.7693485,144.9547736,Social/Dating
Friday Toddler and Kids Art in Williamstown Library,2025-05-23,10:30,Williamstown Library,"104 Ferguson Street Williamstown, VIC 3016",https://www.eventbrite.com.au/e/friday-toddler-and-kids-art-in-williamstown-library-tickets-1307580230669?aff=ebdssbdestsearch,-37.85832,144.8961172,
The Women in Business Conference: MELBOURNE 2025,2025-05-23,08:30,The Cluster,"31 Queen Street #17 and 20, 17 Melbourne, VIC 3000",https://www.eventbrite.com.au/e/the-women-in-business-conference-melbourne-2025-registration-1089626595479?aff=ebdssbdestsearch,-37.818299,144.9639966,Business/Networking
"AndyLP presents...""A Little Too Late"" (single launch)",2025-05-23,19:30,280 Sydney Rd,"280 Sydney Road Brunswick, VIC 3056",https://www.eventbrite.com.au/e/andylp-presentsa-little-too-late-single-launch-tickets-1322678088769?aff=ebdssbdestsearch,-37.7711488,144.9616353,Music
MAHENDERE - MESSIAH TOUR (MELBOURNE),2025-05-23,17:00,The Industrique,"5-7 Louvain Street Coburg North, VIC 3058",https://www.eventbrite.co.uk/e/mahendere-messiah-tour-melbourne-tickets-1291247348579?aff=ebdssbdestsearch,-37.7319735,144.9521658,Music
"150 BPM, OCTANE & IWTFA PRES: SAMARI + LOCAL ARTIST FOCUS // FRI MAY 23RD",2025-05-23,21:00,my aeon,"791 Sydney Road Brunswick, VIC 3056",https://www.eventbrite.com.au/e/150-bpm-octane-iwtfa-pres-samari-local-artist-focus-fri-may-23rd-tickets-1344970917219?aff=ebdssbdestsearch,-37.7581868,144.9633301,Music
"Monthly  Startup, Tech & Business Networking Melbourne",2025-05-23,19:00,The National Hotel,"344 Victoria Street Richmond, VIC 3121",https://www.eventbrite.com/e/monthly-startup-tech-business-networking-melbourne-tickets-1249010306449?aff=ebdssbdestsearch,-37.8109096,145.0027956,Business/Networking
Startup Pitch & Networking Melbourne,2025-05-23,18:00,The National Hotel,"344 Victoria Street Richmond, VIC 3121",https://www.eventbrite.com/e/startup-pitch-networking-melbourne-tickets-1320326515149?aff=ebdssbdestsearch,-37.8109096,145.0027956,Business/Networking
Business Networking: Pitch Night in Melbourne,2025-05-23,18:00,The National Hotel,"344 Victoria Street Richmond, VIC 3121",https://www.eventbrite.com/e/business-networking-pitch-night-in-melbourne-tickets-1320326464999?aff=ebdssbdestsearch,-37.8109096,145.0027956,Business/Networking
"ALTAV ""Panic Attack"" Debut Single Launch",2025-05-23,19:00,Stay Gold,"133 Sydney Road Brunswick, VIC 3056",https://www.eventbrite.com.au/e/altav-panic-attack-debut-single-launch-tickets-1317041208709?aff=ebdssbdestsearch,-37.77435880000001,144.9606103,
Brava  Women Networking IN PERSON May 23rd 2025 - Chadstone,2025-05-23,10:00,LXD Business Centre,"1341 Dandenong Road #Tower 1,Ground Level Chadstone, VIC 3148",https://www.eventbrite.com.au/e/brava-women-networking-in-person-may-23rd-2025-chadstone-tickets-1323489656189?aff=ebdssbdestsearch,-37.8859034,145.085521,Business/Networking
"2025 CPN Professional Advisors' Conference | Friday, 23 May 2025",2025-05-23,08:30,Collins Square Business & Events Centre,"Tower 2 727 Collins St Docklands, VIC 3008",https://www.eventbrite.com.au/e/2025-cpn-professional-advisors-conference-friday-23-may-2025-registration-1290787914399?aff=ebdssbdestsearch,-37.8206978,144.9499668,Business/Networking
Sound Healing - Reset Sound Bath with Romy,2025-05-23,19:30,Private Studio in St Kilda East (see email for address),"Alma Road St Kilda East, VIC 3183",https://www.eventbrite.com.au/e/sound-healing-reset-sound-bath-with-romy-tickets-1314432977419?aff=ebdssbdestsearch,-37.8626178,145.0005983,
Open Friday Night Life Drawing - MELBOURNE (23 May),2025-05-23,18:00,level 2/120 Clarendon St,"120 Clarendon Street #level 2 Southbank, VIC 3006",https://www.eventbrite.com.au/e/open-friday-night-life-drawing-melbourne-23-may-registration-1278952534459?aff=ebdssbdestsearch,-37.8289104,144.9583579,
Investor Connect: Pitch & Network Night  Melbourne,2025-05-23,18:00,The National Hotel,"344 Victoria Street Richmond, VIC 3121",https://www.eventbrite.com/e/investor-connect-pitch-network-night-melbourne-tickets-1320326404819?aff=ebdssbdestsearch,-37.8109096,145.0027956,
CLUBHAUS LOKALS NIGHT 2,2025-05-23,00:00,New Guernica,"64 Smith St, Collingwood VIC 3066, Australia",https://www.facebook.com/events/1391156738693937/,-37.80624775,144.98331211946754,
Worth The Wallet // Fri 23rd May,2025-05-23,19:00,Kindred Bandroom,"3 Harris St, Footscray VIC 3011, Australia",https://www.facebook.com/events/954188079968439/,-37.8119001,144.9008247,
AltaV ‘Panic Attack’ Single Launch w/ Second Hand High and Toadstool,2025-05-23,19:00,Stay Gold,"133 Sydney Rd, Brunswick VIC 3056, Australia",https://www.facebook.com/events/912705817553949/,-37.7743469,144.9607404,
Mo'Ju ,2025-05-23,20:00,Chapel Off Chapel,"12 Little Chapel St, Prahran VIC 3181, Australia",https://www.facebook.com/events/1199111961655106/,-37.84832452,144.99496955222065,
Bebe's Bar - 4 Bands!! The Krugers & Friends,2025-05-23,00:00,Musicland Melbourne,"1359 Sydney Rd, Fawkner VIC 3060, Australia",https://www.facebook.com/events/1586090268738207/,-37.6916774,144.9585701581541,
Kaboom!,2025-05-23,00:00,Altona Sports Club,"11 Altona Rd, Altona VIC 3018, Australia",https://www.facebook.com/events/1783013035615167/,-37.85754867,144.85121805353086,
Karise Eden Sings: The Janis Joplin Songbook,2025-05-23,19:00,MEMO Music Hall,"88 Acland St, St Kilda VIC 3182, Australia",https://www.facebook.com/events/1374611903978435/,-37.8671902,144.9786817,
Ricchi E Poveri,2025-05-23,20:00,Palais Theatre,"Lower Esplanade, St Kilda VIC 3182, Australia",https://www.facebook.com/events/28797732179814121/,-37.86708671,144.97599656199426,
BASSTRIPPER | MELBOURNE,2025-05-23,23:00,Sub Club Melbourne,"Flinders Ct, Melbourne VIC 3000, Australia",https://www.facebook.com/events/575733305483256/,-37.81776587,144.96433104920948,
Crozier: Villains EP Launch — Deep Cargo,2025-05-23,00:00,Revolver Upstairs,"Level 2/229 Chapel St, Prahran VIC 3181, Australia",https://www.facebook.com/events/1251251083301394/,-37.8505902,144.9933469,
BONES AND JONES Live at Bergy Bandroom (Melbourne / Naarm),2025-05-23,20:00,Bergy Bandroom,"64 Sydney Rd, Brunswick VIC 3056, Australia",https://www.facebook.com/events/1406818990743852/,-37.776327,144.9607158,
"(Fri, May 23) LITTLE MURDERS + DANNY MCDONALD",2025-05-23,00:00,George Lane St Kilda,"1 George Ln, St Kilda VIC 3182, Australia",https://www.facebook.com/events/1751026502144906/,-37.85997305,144.9780306,
Mana on Tap: Magic the Gathering ,2025-05-23,00:00,Fortress Melbourne,"Shop 25/23 Caledonian Ln, Melbourne VIC 3000, Australia",https://www.facebook.com/events/897086662507640/,-37.8120357,144.9642299,
"Crêam Söda, Hormagaunt, ESP Mayhem, Crossed, Skezm | Utter Stupidity at The Last Chance! ",2025-05-23,20:00,The Last Chance,"238 Victoria St, Melbourne VIC 3000, Australia",https://www.facebook.com/events/1631835307704882/,-37.8059962,144.9585654,
"Skeleten at The Night Cat, Melbourne 18+",2025-05-23,19:00,The Night Cat,"137-141 Johnston St, Fitzroy VIC 3065, Australia",https://www.facebook.com/events/2462565467430686/,-37.7982971,144.978128,
Rippa Fridays! Beyblade X at The Gaming Arena,2025-05-23,00:00,The Gaming Arena,"123 Bakers Rd, Coburg North VIC 3058, Australia",https://www.facebook.com/events/1661164184474080/,-37.72715826,144.96115535488718,
Tamara & the Dreams - Successful Bisexual LIVE w Ruby Mae - second show added ,2025-05-23,00:00,The Merri Creek Tavern,"111 High St, Northcote VIC 3070, Australia",https://www.facebook.com/events/1225919655539479/,-37.7794356,144.996838,
VANDEMONIAN LAGS - Melbourne,2025-05-23,19:30,The Flying Saucer Club,"979-985 Nepean Hwy, Moorabbin VIC 3189, Australia",https://www.facebook.com/events/1302893481137542/,-37.9369432,145.0373674,
Baillie's Bazaar for Unwanted Oddities,2025-05-23,20:00,Bar 303,"303 High St, Northcote VIC 3070, Australia",https://www.facebook.com/events/1374391487160770/,-37.7713296,144.99828116650363,
WAWANEE with special guest Zan (from 'I'm Talking') - Back To The 80s,2025-05-23,18:00,Bird's Basement,"11 Singers Ln, Melbourne VIC 3000, Australia",https://www.facebook.com/events/1008558654474209/,-37.81114416,144.95680390283175,
Melbourne International Comedy Festival Roadshow.,2025-05-23,21:30,Melbourne International Comedy Festival,Melbourne,https://www.facebook.com/events/532086249189329/,-37.8136,144.9631,
The Gems at THE GEM,2025-05-23,20:00,The Gem Bar and Dining,"289 Wellington St, Collingwood VIC 3066, Australia",https://www.facebook.com/events/1904371133705432/,-37.7963837,144.9875917,
AC2ZZ - and everything in between,2025-05-23,00:00,Musicland Melbourne,"1359 Sydney Rd, Fawkner VIC 3060, Australia",https://www.facebook.com/events/955366286410287/,-37.6916774,144.9585701581541,
M.O.S. (Melody of the Soul | All Day I Dream) presented by Floating Dreams + onesixone,2025-05-23,21:00,onesixone,"161 High St, Prahran VIC 3181, Australia",https://www.facebook.com/events/1065816552318063/,-37.85425256,145.0112666323418,
"Nathan Cavaleri Live at Brunswick Ballroom, Brunswick VIC with Special Guest Kyle Brew",2025-05-23,19:00,Brunswick Ballroom,"314 Sydney Rd, Brunswick VIC 3056, Australia",https://www.facebook.com/events/1282243629541209/,-37.7704205,144.9617083,
MANGO CLUB | 23.05.25 ,2025-05-23,00:00,Mango Club,"577 Little Bourke St Docklands VIC 3000, Australia",https://www.facebook.com/events/499661426473793/,-37.81578222,144.95396129427266,
2025 Melbourne Soul Weekender - Friday at Wax Music Lounge,2025-05-23,00:00,Wax Music Lounge,"250 Flinders St, Melbourne VIC 3000, Australia",https://www.facebook.com/events/2082848012180826/,-37.8176298,144.9661635,
Divas of Soul Tribute ,2025-05-23,20:00,Ragtime Tavern,"206 Tyler St, Preston VIC 3072, Australia",https://www.facebook.com/events/607167515814970/,-37.7310367,145.0142411,
Cult Classics at Lido,2025-05-23,00:00,Lido Cinemas,"675 Glenferrie Rd, Hawthorn VIC 3122, Australia",https://www.facebook.com/events/1004435021237025/,-37.8205529,145.0355738,
The G funk Band,2025-05-23,20:00,Lucky 13 Garage,"8 Cochranes Rd, Moorabbin VIC 3189, Australia",https://www.facebook.com/events/2134942516969858/,-37.94349189,145.07036236060654,
sugarush: Charli xcx Night - Melbourne,2025-05-23,23:00,Stay Gold,"133 Sydney Rd, Brunswick VIC 3056, Australia",https://www.facebook.com/events/569931086134469/,-37.7743469,144.9607404,
Eunice & the Footes release party,2025-05-23,20:00,The Old Bar,"74-76 Johnston St, Fitzroy VIC 3065, Australia",https://www.facebook.com/events/1225762875612843/,-37.79833,144.97711,
FREE EVENT | Alex Kyle Acoustic | From 5pm,2025-05-23,00:00,arcobar heatherton,"8 Arco Ln, Heatherton VIC 3202, Australia",https://www.facebook.com/events/1350322096078896/,-37.94673685,145.07837928457485,
 Young & Deadly - Reconciliation Week Warm-up Show ,2025-05-24,20:00,The BEAST,"80 Lygon Street, Brunswick East Melbourne, VIC, Australia, Victoria 3057",https://www.facebook.com/events/577343502052944/,-37.77615718,144.97129424232867,
Jeanette Winterson: Forty Years of Storytelling,2025-05-24,00:00,The Wheeler Centre,"176 Little Lonsdale St, Melbourne VIC 3000, Australia",https://www.facebook.com/events/933534098854660/,-37.8101765,144.9652219,
EAT MY BEAT - The sound of ETB family,2025-05-24,00:00,New Guernica,"64 Smith St, Collingwood VIC 3066, Australia",https://www.facebook.com/events/1184378492908957/,-37.80624775,144.98331211946754,
North Melbourne v Collingwood,2025-05-24,19:35,Marvel Stadium,"740 Bourke St, Docklands VIC 3008, Australia",https://www.facebook.com/events/1368370914324515/,-37.816529,144.94751697668812,
Deborah Conway & Willy Zygier,2025-05-24,18:00,Bird's Basement,"11 Singers Ln, Melbourne VIC 3000, Australia",https://www.facebook.com/events/1020399406593454/,-37.81114416,144.95680390283175,
Country Night Ice Skating  MELBOURNE,2025-05-24,00:00,iceHQ,"1 Blake St, Reservoir VIC 3073, Australia",https://www.facebook.com/events/1049409600579313/,-37.7314154,145.03178994980806,
Your Time To TR!P | 24 May @ 24 Moons,2025-05-24,00:00,24 Moons,"2 Arthurton Rd, Northcote VIC 3070, Australia",https://www.facebook.com/events/1749430569321593/,-37.7691418,144.9982614,
"Disgruntled Civil Servant, Foley, The Crop Tops & No Body No Spirit - LIVE AT BAR 303",2025-05-24,19:00,Bar 303,"303 High St, Northcote VIC 3070, Australia",https://www.facebook.com/events/1806432303550381/,-37.7713296,144.99828116650363,
MzRizk | Punters DJ sessions,2025-05-24,23:59,Punters Club,"376 Brunswick St, Fitzroy VIC 3065, Australia",https://www.facebook.com/events/1349948062928283/,-37.7960561,144.9790327,
Cop This,2025-05-24,00:00,Altona Sports Club,"11 Altona Rd, Altona VIC 3018, Australia",https://www.facebook.com/events/1006185684959362/,-37.85754867,144.85121805353086,
MAY24,2025-05-24,00:00,Cinema Nova,"380 Lygon St, Carlton VIC 3053, Australia",https://www.facebook.com/events/1724765411791314/,-37.7978092,144.9680124,
"(Sat, May 24) ALPHABET CITY + MAMA'S BREW",2025-05-24,00:00,George Lane St Kilda,"1 George Ln, St Kilda VIC 3182, Australia",https://www.facebook.com/events/691969766573855/,-37.85997305,144.9780306,
Farewell 80s Party !,2025-05-24,20:00,One2three Bar,"123 Queens Parade, Clifton Hill VIC 3068, Australia",https://www.facebook.com/events/943889830990085/,-37.7892833,144.9901391,
"Assteroid EP Launch! With special guests, The Pearlies",2025-05-24,15:30,The Gem Bar and Dining,"289 Wellington St, Collingwood VIC 3066, Australia",https://www.facebook.com/events/1680406775936847/,-37.7963837,144.9875917,
Cy Gorman - Solo Electro Acoustic @ The Ragtime Tavern,2025-05-24,00:00,Ragtime Tavern,"206 Tyler St, Preston VIC 3072, Australia",https://www.facebook.com/events/1702790047784239/,-37.7310367,145.0142411,
Rach and Ollie MUSIC at CERES,2025-05-24,00:00,CERES Environment Park,"Stewart St & Roberts St East, Brunswick VIC 3056, Australia",https://www.facebook.com/events/1059979252639814/,-37.765454,144.9831564,
"Prelo with love -  decade of music, a night of charity",2025-05-24,19:00,Chapel Off Chapel,"12 Little Chapel St, Prahran VIC 3181, Australia",https://www.facebook.com/events/1212649197193444/,-37.84832452,144.99496955222065,
Mo Amer: El Oso Palestino Tour,2025-05-24,16:15,Palais Theatre,"Lower Esplanade, St Kilda VIC 3182, Australia",https://www.facebook.com/events/1693808248160251/,-37.86708671,144.97599656199426,
The Charm Offensive with support from Dawn Barrington,2025-05-24,19:00,Mr Boogie Man Bar,"160 Hoddle St, Abbotsford VIC 3067, Australia",https://www.facebook.com/events/1204837204424566/,-37.80245,144.99295304614787,
The Paul Williamson Quartet plays the music of Thelonious Monk,2025-05-24,19:30,Uptown Jazz Cafe,"1/177 Brunswick St, Fitzroy VIC 3065, Australia",https://www.facebook.com/events/3687586671539468/,-37.79705404,144.97869049756974,
VERONICA GREENE 'TYPICAL WORLD' SINGLE LAUNCH SATURDAY 24TH OF MAY @MAMMA CHENS,2025-05-24,00:00,Mamma Chen's,"42A Albert St, Footscray VIC 3011, Australia",https://www.facebook.com/events/991948009592298/,-37.8047552,144.89727240000002,
Sweetie & Friends,2025-05-24,00:00,Punters Club,"376 Brunswick St, Fitzroy VIC 3065, Australia",https://www.facebook.com/events/961113802863013/,-37.7960561,144.9790327,
Melbourne Bar Crawl | #1 Saturday Night Out,2025-05-24,00:00,On The Rocks Bar Crawl Melbourne,"The Joint, 35 Elizabeth St, Melbourne VIC 3000, Australia",https://www.facebook.com/events/1358139498520971/,-37.8172989,144.9643996,
Buzz & The Pickups X Air Guitar - Outdoor Arvo Westside Show,2025-05-24,16:00,Kindred Bandroom,"3 Harris St, Footscray VIC 3011, Australia",https://www.facebook.com/events/1028315278860095/,-37.8119001,144.9008247,
Matinée Memories: THAT'S ENTERTAINMENT!,2025-05-24,00:00,Palace Cinemas,"1 Champ St, Coburg VIC 3058, Australia",https://www.facebook.com/events/2485563098475319/,-37.736826,144.968318,
CHERRY BOMB x SMUT x BONEZ | Naarm | Sat 24 May,2025-05-24,00:00,Stay Gold,"133 Sydney Rd, Brunswick VIC 3056, Australia",https://www.facebook.com/events/2131057797347688/,-37.7743469,144.9607404,
TASTE OF IRELAND ,2025-05-24,00:00,Inkerman Hotel,"375 Inkerman St, St Kilda East VIC 3183, Australia",https://www.facebook.com/events/494748156796361/,-37.866444,144.99799715146656,
Vaudeville Smash,2025-05-24,19:30,The Night Cat,"137-141 Johnston St, Fitzroy VIC 3065, Australia",https://www.facebook.com/events/633446516197586/,-37.7982971,144.978128,
Ruby Page and Joe Ruberto Jazztet,2025-05-24,20:00,Clayton RSL,"171 Carinish Road Clayton, VIC 3168",https://www.eventbrite.com.au/e/ruby-page-and-joe-ruberto-jazztet-tickets-1341467368009?aff=ebdssbdestsearch,-37.9253129,145.1225275,
Melbourne Runs For Peace,2025-05-24,10:00,King Edward VII Memorial,"Melbourne St Kilda Road Melbourne, VIC 3004",https://www.eventbrite.com.au/e/melbourne-runs-for-peace-tickets-1330674967649?aff=ebdssbdestsearch,-37.8434114,144.9779348,Sport
Scentred :Sacred Soul Mini Retreat,2025-05-24,10:00,HMWRK CO-WORKING SPACE,"150 Junction Road Nunawading, VIC 3131",https://www.eventbrite.com.au/e/scentred-sacred-soul-mini-retreat-tickets-1347372911649?aff=ebdssbdestsearch,-37.8083611,145.1745281,Talks/Workshops
Film Screening of Woyane by Jonny Stern,2025-05-24,12:00,Millennium House,"296 Nicholson Street Seddon, VIC 3011",https://www.eventbrite.com/e/film-screening-of-woyane-by-jonny-stern-tickets-1334815191169?aff=ebdssbdestsearch,-37.8097179,144.8974609,Cinema
Sylvi gunn - 'Lost trades' SINGLE LAUNCH w/ Flora and Loukoumi,2025-05-24,19:30,280 Sydney Rd,"280 Sydney Road Brunswick, VIC 3056",https://www.eventbrite.com.au/e/sylvi-gunn-lost-trades-single-launch-w-flora-and-loukoumi-tickets-1347408056769?aff=ebdssbdestsearch,-37.7711488,144.9616353,Music
Make Your Own Hanji Lantern: Korean Craft Experience,2025-05-24,13:00,Federation Square,"Corner of Swanston and Flinders Streets Melbourne, VIC 3000",https://www.eventbrite.com.au/e/make-your-own-hanji-lantern-korean-craft-experience-tickets-1353361393359?aff=ebdssbdestsearch,-37.8175406,144.9674005,
Masquerade Party,2025-05-24,20:00,SOLACE ON CHAPEL,"56 Chapel Street Windsor, VIC 3181",https://www.eventbrite.com.au/e/masquerade-party-tickets-1352070642689?aff=ebdssbdestsearch,-37.855793,144.992801,
A Dinner to Die For: Murder Mystery Show at Oaks!,2025-05-24,19:00,Oaks Melbourne on Market Hotel,"60 Market Street Melbourne, VIC 3000",https://www.eventbrite.com.au/e/a-dinner-to-die-for-murder-mystery-show-at-oaks-tickets-1232366584629?aff=ebdssbdestsearch,-37.8177409,144.9607709,
Psycho Sequinz Live @ The Graveyard Bar,2025-05-24,19:00,The Graveyard Bar,"942 Sydney Road Coburg North, VIC 3058",https://www.eventbrite.com/e/psycho-sequinz-live-the-graveyard-bar-tickets-1281452331419?aff=ebdssbdestsearch,-37.7236554,144.9638725,Music
ONE-DAY INTENSIVE MAKEUP MASTER CLASS IN MELBOURNE,2025-05-24,11:00,No Filter Studios,"251 Brunswick Road Brunswick, VIC 3056",https://www.eventbrite.com.au/e/one-day-intensive-makeup-master-class-in-melbourne-tickets-1326130204139?aff=ebdssbdestsearch,-37.7768093,144.9599798,Talks/Workshops
EAT MY BEAT - The sound of ETB family,2025-05-24,22:00,New Guernica,"64 Smith Street Collingwood, VIC 3066",https://www.eventbrite.com.au/e/eat-my-beat-the-sound-of-etb-family-tickets-1347270816279?aff=ebdssbdestsearch,-37.8062529,144.9832565,Music
"Mantra Lounge - Sanctuary of Sound - Mantra, Music, Meditation",2025-05-24,19:00,48 River St,"48 River Street Level 1 South Yarra, VIC 3141",https://www.eventbrite.com.au/e/mantra-lounge-sanctuary-of-sound-mantra-music-meditation-tickets-1336204857699?aff=ebdssbdestsearch,-37.8377995,144.9976989,Music
Fast Friending: the fastest way to make new friends! (25-50/Happy Hour)MEL,2025-05-24,19:00,La Di Da,"577 Little Bourke Street Melbourne, VIC 3000",https://www.eventbrite.co.uk/e/fast-friending-the-fastest-way-to-make-new-friends-25-50happy-hourmel-tickets-1353286248599?aff=ebdssbdestsearch,-37.8154693,144.9556119,
ANGELINA JADE'S MAKEUP MASTERCLASS 2025,2025-05-24,11:00,Studio 149 Charman,"149 Charman Road Beaumaris, VIC 3193",https://www.eventbrite.com/e/angelina-jades-makeup-masterclass-2025-tickets-1296347784119?aff=ebdssbdestsearch,-37.9762002,145.0533479,Talks/Workshops
Sacred Bloom - Women's Circle,2025-05-24,06:30,St Kilda,"1 St Kilda, VIC 3182",https://www.eventbrite.com/e/ancient-bloom-womens-circle-tickets-1352066951649?aff=ebdssbdestsearch,-37.8572579,144.9821319,
Urban Wine Walk // Footscray & Seddon (VIC),2025-05-24,12:00,Footscray,"Multiple Venues Footscray, VIC 3011",https://www.eventbrite.com/e/urban-wine-walk-footscray-seddon-vic-tickets-1247813847809?aff=ebdssbdestsearch,-37.7988987,144.892357,Social/Dating
Roots 29: Redemption Song - Live Melbourne Muaythai,2025-05-24,18:00,Melbourne Pavilion,"135-157 Racecourse Road Kensington, VIC 3031",https://www.eventbrite.com/e/roots-29-redemption-song-live-melbourne-muaythai-tickets-1339455821419?aff=ebdssbdestsearch,-37.7891081,144.9364233,Sport
Crystal Basics,2025-05-24,10:30,"Oracle of Crystals, 228 Glenferrie Road, Malvern VIC, Australia","228 Glenferrie Road Malvern, VIC 3144",https://www.eventbrite.com.au/e/crystal-basics-tickets-1304944115979?aff=ebdssbdestsearch,-37.8585334,145.0292064,Talks/Workshops
"SOULDANCE:  Sound Bath and Guided Meditation (Thornbury, Vic)",2025-05-24,19:00,Prana House,"Level 1/885 High St Thornbury, VIC 3160",https://www.eventbrite.com.au/e/souldance-sound-bath-and-guided-meditation-thornbury-vic-tickets-1336426460519?aff=ebdssbdestsearch,-37.7537691,145.0011906,Talks/Workshops
Find Your Career Path in Australia - Workshop (Sponsorship Opportunities),2025-05-24,08:00,341 Queen St,"341 Queen Street Melbourne, VIC 3000",https://www.eventbrite.com/e/find-your-career-path-in-australia-workshop-sponsorship-opportunities-tickets-1290998042899?aff=ebdssbdestsearch,-37.8103754,144.9582607,Talks/Workshops
Melbourne - DayClubbers: Over 30s Day Party!,2025-05-24,16:00,Club Retro,"383 Lonsdale Street Melbourne, VIC 3000",https://www.eventbrite.com.au/e/melbourne-dayclubbers-over-30s-day-party-tickets-1305010504549?aff=ebdssbdestsearch,-37.8128025,144.9611855,Music
NOCHE DE ENTIERRO,2025-05-24,21:00,The Nashaa Club,"8 Jackson Street Toorak, VIC 3142",https://www.eventbrite.com.au/e/noche-de-entierro-tickets-1330549412109?aff=ebdssbdestsearch,-37.8401524,145.0079428,Music
ANUSHKA in the WOODS at The Lomond Hotel,2025-05-24,17:00,The Lomond Hotel,"225 Nicholson Street Brunswick East, VIC 3057",https://www.eventbrite.com.au/e/anushka-in-the-woods-at-the-lomond-hotel-tickets-1349459031289?aff=ebdssbdestsearch,-37.7670861,144.9800057,
Bushido Amateur MMA,2025-05-24,11:00,DKMMA,"324 Darebin Road Fairfield, VIC 3078",https://www.eventbrite.com.au/e/bushido-amateur-mma-tickets-1273015346169?aff=ebdssbdestsearch,-37.766436,145.02692,Sport
Floodlights,2025-05-24,12:00,Forum Melbourne,"150 Flinders St, Melbourne VIC 3000, Australia",https://premier.ticketek.com.au/shows/show.aspx?sh=FLOODLI25,-37.8166268,144.9695761,
Darebin United Apollo Soccer Clubs 50th Year Anniversary,2025-05-24,18:00,Stars International Reception Centre,"1C Bell Street Preston, VIC 3072",https://www.eventbrite.com.au/e/darebin-united-apollo-soccer-clubs-50th-year-anniversary-tickets-1266967817849?aff=ebdssbdestsearch,-37.7490362,145.0312993,Sport
Ross Wilson & The Peaceniks - 50 Years of Hits Tour - Geelong,2025-05-24,20:00,The Flying Saucer Club,"979-985 Nepean Hwy, Moorabbin VIC 3189, Australia",https://www.facebook.com/events/1363420321685156/,-37.9369432,145.0373674,
VANDEMONIAN LAGS - Ballarat,2025-05-24,19:30,The Flying Saucer Club,"979-985 Nepean Hwy, Moorabbin VIC 3189, Australia",https://www.facebook.com/events/1102525298234370/,-37.9369432,145.0373674,
Saree secrets: draped in heritage,2025-05-24,15:30,level 2/8 Rankins Ln,"8 Rankins Lane #level 2 Melbourne, VIC 3000",https://www.eventbrite.com.au/e/saree-secrets-draped-in-heritage-tickets-1334708752809?aff=ebdssbdestsearch,-37.8138898,144.962148,Art
Summer Healing Breathwork Workshop,2025-05-24,14:00,Summer Healing,"30-32 Sydney Road #1 Brunswick, VIC 3056",https://www.eventbrite.com.au/e/summer-healing-breathwork-workshop-tickets-1324739915749?aff=ebdssbdestsearch,-37.776965,144.960808,
Therry Penola Ladies Day,2025-05-24,13:00,J P Fawkner Reserve,"1A Francis Street Oak Park, VIC 3046",https://www.eventbrite.com.au/e/therry-penola-ladies-day-tickets-1341453576759?aff=ebdssbdestsearch,-37.7190678,144.9122072,Social/Dating
Unlock Your Life Path: A Creative Wellness Workshop 2hr Experience,2025-05-24,10:30,Prana House,"Level 1, 885 High Street Thornbury, VIC 3071",https://www.eventbrite.com.au/e/unlock-your-life-path-a-creative-wellness-workshop-2hr-experience-tickets-1332037312459?aff=ebdssbdestsearch,-37.7537691,145.0011906,
2025 Victorian University Rapid and Blitz Championships! External,2025-05-24,10:00,21 Chancellors Walk,"21 Chancellors Walk Clayton, VIC 3168",https://www.eventbrite.com.au/e/2025-victorian-university-rapid-and-blitz-championships-external-tickets-1344959944399?aff=ebdssbdestsearch,-37.9118511,145.1329483,
Mélange at The Valiant Bar// Part 3,2025-05-24,19:30,level 1/412 Little Collins St,"412 Little Collins Street level 1 Melbourne, VIC 3000",https://www.eventbrite.com.au/e/melange-at-the-valiant-bar-part-3-tickets-1354274955849?aff=ebdssbdestsearch,-37.8157453,144.9607827,
Antipasto Making & Aperitivo Masterclass,2025-05-24,02:30,Henry and the Fox,"525 Little Collins Street Melbourne, VIC 3000",https://www.eventbrite.com.au/e/antipasto-making-aperitivo-masterclass-tickets-1340107310039?aff=ebdssbdestsearch,-37.8172112,144.9572687,
Roccella Pizza Masterclass | GLUTEN FREE EDITION | May 24,2025-05-24,11:00,Roccella,"158 Clarendon Street East Melbourne, VIC 3002",https://www.eventbrite.com.au/e/roccella-pizza-masterclass-gluten-free-edition-may-24-tickets-1145152023529?aff=ebdssbdestsearch,-37.8119868,144.9835065,Talks/Workshops
Smoulder Exhibition Launch Event,2025-05-24,16:00,Neon Parlour,"791 High Street Thornbury, VIC 3071",https://www.eventbrite.com/e/smoulder-exhibition-launch-event-tickets-1336308256969?aff=ebdssbdestsearch,-37.75664140000001,145.0006435,Art
Paint n Sip in Melbourne | Midnight Glow,2025-05-24,18:30,Ladder Art Space,"4/81 Denmark St Kew, VIC 3101",https://www.eventbrite.com.au/e/paint-n-sip-in-melbourne-midnight-glow-tickets-130845647855?aff=ebdssbdestsearch,-37.8089958,145.0285779,Art
Ignite Change. Spark Impact.,2025-05-24,11:00,"The Langham, Melbourne","1 Southgate Avenue Southbank, VIC 3006",https://www.eventbrite.com/e/ignite-change-spark-impact-tickets-1306823748009?aff=ebdssbdestsearch,-37.82071680000001,144.9655941,Business/Networking
Hatha Yoga,2025-05-24,10:30,8 May Rd,"8 May Road Lalor, VIC 3075",https://www.eventbrite.com/e/hatha-yoga-tickets-1351276818339?aff=ebdssbdestsearch,-37.6725808,145.0178349,
these three things (Coburg North),2025-05-24,10:00,"Commoners Press, Coburg Studios, Coburg North","69-73 Charles Street Coburg North, VIC 3058",https://www.eventbrite.com.au/e/these-three-things-coburg-north-tickets-1271706441199?aff=ebdssbdestsearch,-37.730293,144.951921,Art
Biggest Morning Tea,2025-05-24,10:30,Pelicans Landing,"1 Syme Street Williamstown, VIC 3016",https://www.eventbrite.com.au/e/biggest-morning-tea-tickets-1312347369309?aff=ebdssbdestsearch,-37.8625308,144.9055323,Social/Dating
"Disgruntled Civil Servant, Foley, The Crop Tops & No Body No Spirit",2025-05-24,19:00,Bar 303,"303 High Street Northcote, VIC 3070",https://www.eventbrite.com.au/e/disgruntled-civil-servant-foley-the-crop-tops-no-body-no-spirit-tickets-1352100211129?aff=ebdssbdestsearch,-37.7713256,144.9982378,Theatre
Mojo Festival of Arts 2025,2025-05-24,13:00,Fringe Common Rooms,"Victoria Street Carlton, VIC 3053",https://www.eventbrite.com.au/e/mojo-festival-of-arts-2025-tickets-1244480006199?aff=ebdssbdestsearch,-37.8070051,144.9658001,Art
"Bollywood Cruise - Dinner, Dance & Drinks",2025-05-24,19:00,131 Harbour Esplanade,"131 Harbour Esplanade Docklands, VIC 3008",https://www.eventbrite.com.au/e/bollywood-cruise-dinner-dance-drinks-tickets-1338000117369?aff=ebdssbdestsearch,-37.81707129999999,144.9453813,
Wisdom Of The Serpent,2025-05-24,13:00,AKA Studio Yoga,"130C Nicholson Street Brunswick East, VIC 3057",https://www.eventbrite.com.au/e/wisdom-of-the-serpent-tickets-1329401027259?aff=ebdssbdestsearch,-37.767095,144.980478,
"BOLLYWOOD RAVE Party at Inflation Nightclub, Melbourne",2025-05-24,22:00,Inflation Nightclub,"60 King Street Melbourne, VIC 3000",https://www.eventbrite.com.au/e/bollywood-rave-party-at-inflation-nightclub-melbourne-tickets-1341480096079?aff=ebdssbdestsearch,-37.8188863,144.9571605,
Novel presents William Kiss + Special Guests (All Night Long),2025-05-24,22:00,Sub Club Melbourne,"Flinders Court Melbourne, VIC 3000",https://www.eventbrite.com.au/e/novel-presents-william-kiss-special-guests-all-night-long-tickets-1306258768139?aff=ebdssbdestsearch,-37.8179755,144.9644539,Music
Reiki Level 3A (introduction to Shinpiden - Master Teacher level) in person,2025-05-24,09:00,1154 Malvern Rd,"1154 Malvern Road Malvern, VIC 3144",https://www.eventbrite.com.au/e/reiki-level-3a-introduction-to-shinpiden-master-teacher-level-in-person-tickets-1305710528339?aff=ebdssbdestsearch,-37.8519349,145.0323243,
Learn Reiki 2,2025-05-24,09:00,Highett Neighbourhood Community House,"2 Livingston St Highett, VIC 3190",https://www.eventbrite.com.au/e/learn-reiki-2-tickets-1255254432799?aff=ebdssbdestsearch,-37.9476842,145.037952,Talks/Workshops
Mycology: Got Mush Room for a Sensory Experience?,2025-05-24,14:00,83 Kerr St,"83 Kerr Street Fitzroy, VIC 3065",https://www.eventbrite.com/e/mycology-got-mush-room-for-a-sensory-experience-tickets-1322007472939?aff=ebdssbdestsearch,-37.7966582,144.9781082,
SONGWRITING WORKSHOP hosted by Callan Orr w/ special guest John Floreani,2025-05-24,12:00,5 Tinning St,"5 Tinning Street Brunswick, VIC 3056",https://www.eventbrite.com/e/songwriting-workshop-hosted-by-callan-orr-w-special-guest-john-floreani-tickets-1332854536799?aff=ebdssbdestsearch,-37.7598537,144.9625172,Talks/Workshops
"HABIBI : The Arabian Bollywood Party at Crown, Melbourne",2025-05-24,21:30,Crown Melbourne,"8 Whiteman Street Southbank, VIC 3006",https://www.eventbrite.com.au/e/habibi-the-arabian-bollywood-party-at-crown-melbourne-tickets-1334908349809?aff=ebdssbdestsearch,-37.82343669999999,144.9580861,
Leading & Managing Teams Training,2025-05-24,08:00,Melbourne,"Melbourne Melbourne, VIC",https://www.eventbrite.com.au/e/leading-managing-teams-training-tickets-886648889697?aff=ebdssbdestsearch,-37.8136276,144.9630576,
"(Sat, May 24) CAM BUTLER (Album Launch) (George Lane Matinee Sessions)",2025-05-24,00:00,George Lane St Kilda,"1 George Ln, St Kilda VIC 3182, Australia",https://www.facebook.com/events/4053373144897654/,-37.85997305,144.9780306,
Yarra Valley Wine Tasting Tour | Melbourne Working Holiday Girls,2025-05-24,09:15,"St Paul's Cathedral, Melbourne","200 Flinders Street Melbourne, VIC 3000",https://www.eventbrite.com.au/e/yarra-valley-wine-tasting-tour-melbourne-working-holiday-girls-tickets-1334816144019?aff=ebdssbdestsearch,-37.81707919999999,144.9678541,Social/Dating
The Mouth LIVE ALBUM Preview with Drum Nation,2025-05-24,19:00,Kindred Bandroom,"3 Harris St, Footscray VIC 3011, Australia",https://www.facebook.com/events/3204191983071224/,-37.8119001,144.9008247,
"Budd // Smoke Witch 7"" Split Launch Show No.2  - Last Chance RnR Bar, Melbourne",2025-05-24,19:00,The Last Chance,"238 Victoria St, Melbourne VIC 3000, Australia",https://www.facebook.com/events/654683747367284/,-37.8059962,144.9585654,
Carlton v GWS GIANTS,2025-05-24,12:35,Marvel Stadium,"740 Bourke St, Docklands VIC 3008, Australia",https://www.facebook.com/events/1166813421705829/,-37.816529,144.94751697668812,
" INXSIVE, the INXS Tribute Show live at Lucky 13 Garage",2025-05-24,20:00,Lucky 13 Garage,"8 Cochranes Rd, Moorabbin VIC 3189, Australia",https://www.facebook.com/events/1379864286766999/,-37.94349189,145.07036236060654,
Pink Pony Club: Pop Party - Melbourne,2025-05-24,23:00,The Night Cat,"137-141 Johnston St, Fitzroy VIC 3065, Australia",https://www.facebook.com/events/994277075609377/,-37.7982971,144.978128,
RISING : COMMUNITAS WORKSHOP 4 | BRUNSWICK,2025-05-24,00:00,Brunswick Ballroom,"314 Sydney Rd, Brunswick VIC 3056, Australia",https://www.facebook.com/events/10010128728998506/,-37.7704205,144.9617083,
THE SOUTH EAST GENTS BRING NEW ORLEANS TO BRUNSWICK,2025-05-24,20:00,The Penny Black,"420 Sydney Rd, Brunswick VIC 3056, Australia",https://www.facebook.com/events/699680725894709/,-37.7679775,144.9621651,
(SOLD OUT) SUPERTROUPER - ABBA Show Presented By Superband | Dinner & Show,2025-05-24,00:00,arcobar heatherton,"8 Arco Ln, Heatherton VIC 3202, Australia",https://www.facebook.com/events/607481121871369/,-37.94673685,145.07837928457485,
Into The Mystic – The Music Of Van Morrison | MEMO Music Hall,2025-05-24,19:00,MEMO Music Hall,"88 Acland St, St Kilda VIC 3182, Australia",https://www.facebook.com/events/1045357544017171/,-37.8671902,144.9786817,
Carlton v GWS Giants - AFL Reserve,2025-05-24,12:35,Marvel Stadium,"740 Bourke St, Docklands VIC 3008, Australia",https://www.facebook.com/events/1193813148851863/,-37.816529,144.94751697668812,
North Melbourne v Collingwood - AFL Reserve,2025-05-24,19:35,Marvel Stadium,"740 Bourke St, Docklands VIC 3008, Australia",https://www.facebook.com/events/1661869311379948/,-37.816529,144.94751697668812,
Alanna & Old Hat @Paris Cat,2025-05-24,18:30,Paris Cat Jazz Club,"6 Goldie Pl, Melbourne VIC 3000, Australia",https://www.facebook.com/events/1228534115444747/,-37.8133262,144.96060714767358,
"(Sun, May 25) MARCIA HOWARD'S HOMEMADE JAM + DAMIAN HOWARD",2025-05-25,00:00,George Lane St Kilda,"1 George Ln, St Kilda VIC 3182, Australia",https://www.facebook.com/events/1199866544866834/,-37.85997305,144.9780306,
AI SYMPOSIUM 2025: BEYOND THE LENS [On Campus and Webinar],2025-05-25,11:00,Photography Studies College,"37-47 Thislethwaite St South Melbourne, VIC 3205",https://www.eventbrite.com.au/e/ai-symposium-2025-beyond-the-lens-on-campus-and-webinar-tickets-1300178080639?aff=ebdssbdestsearch,-37.8312512,144.9527165,Talks/Workshops
The Yachtski Brothers | Howler,2025-05-25,13:30,Howler,"7-11 Dawson St, Brunswick VIC 3056, Australia",https://www.facebook.com/events/656983496861395/,-37.7720304,144.9596527,
Meteor Infant w/ ctrl + me and Jeremy Nicholas,2025-05-25,18:00,Mr Boogie Man Bar,"160 Hoddle St, Abbotsford VIC 3067, Australia",https://www.facebook.com/events/1040859264040216/,-37.80245,144.99295304614787,
VANDEMONIAN LAGS - Frankston,2025-05-25,15:30,The Flying Saucer Club,"979-985 Nepean Hwy, Moorabbin VIC 3189, Australia",https://www.facebook.com/events/2826689570827925/,-37.9369432,145.0373674,
'Front Bar Sessions' with Jess Ribeiro,2025-05-25,15:00,The Corner Hotel,"57 Swan St, Richmond VIC 3121",https://www.facebook.com/events/1006755224731669/,-37.82464307,144.9926962,
Normie Rowe – The Story So Far...,2025-05-25,00:00,MEMO Music Hall,"88 Acland St, St Kilda VIC 3182, Australia",https://www.facebook.com/events/4003855423274472/,-37.8671902,144.9786817,
Ocean Grove 'Odd Label' Australian Tour - Melbourne 18+,2025-05-25,19:00,170 Russell,"170 Russell St, Melbourne VIC 3000, Australia",https://www.facebook.com/events/1179870083930669/,-37.8120109,144.9679369,
St Kilda v Gold Coast SUNS - AFL Reserve,2025-05-25,16:40,Marvel Stadium,"740 Bourke St, Docklands VIC 3008, Australia",https://www.facebook.com/events/1138583834378261/,-37.816529,144.94751697668812,
The Distant Blue - Album Launch ,2025-05-25,14:15,Mamma Chen's,"42A Albert St, Footscray VIC 3011, Australia",https://www.facebook.com/events/1048936750389932/,-37.8047552,144.89727240000002,
Hermosa Sounds | Brunswick Ballroom,2025-05-25,17:30,Brunswick Ballroom,"314 Sydney Rd, Brunswick VIC 3056, Australia",https://www.facebook.com/events/1324869008597980/,-37.7704205,144.9617083,
Spinal Energetics & Breathwork with Dr Brendan Rose,2025-05-25,03:30,Vyve Meditation Centre,"266 Bolton Street #1A Eltham, VIC 3095",https://www.eventbrite.com.au/e/spinal-energetics-breathwork-with-dr-brendan-rose-tickets-1306121658039?aff=ebdssbdestsearch,-37.720178,145.138187,Talks/Workshops
St Kilda v Gold Coast SUNS,2025-05-25,16:40,Marvel Stadium,"740 Bourke St, Docklands VIC 3008, Australia",https://www.facebook.com/events/934056355375069/,-37.816529,144.94751697668812,
"The Space Between- TaKeTiNa, Dance and Deep Rest",2025-05-25,13:00,Community Church of ST Mark (Baptist),"100 Hodgkinson Street Clifton Hill, VIC 3068",https://www.eventbrite.com/e/the-space-between-taketina-dance-and-deep-rest-tickets-1343366829349?aff=ebdssbdestsearch,-37.7893582,144.9912201,Talks/Workshops
Transformational Breathwork & Sound Healing - Spiritual Emergence,2025-05-25,11:45,"Kundalini House - Yoga, Massage and Acupuncture","391A Saint Georges Road Fitzroy North, VIC 3068",https://www.eventbrite.com.au/e/transformational-breathwork-sound-healing-spiritual-emergence-tickets-1312379455279?aff=ebdssbdestsearch,-37.7784498,144.9877886,Talks/Workshops
TALLER MADRES MIGRANTES,2025-05-25,10:00,Albert Park,"ALBERT PARK LAKE MELBOURNE, VIC 3206",https://www.eventbrite.com.ar/e/taller-madres-migrantes-tickets-1335070926079?aff=ebdssbdestsearch,-37.8442814,144.9687557,
Aria Sounds,2025-05-25,18:00,The Hawthorn Hotel,"481 Burwood Road Hawthorn, VIC 3122",https://www.eventbrite.com.au/e/aria-sounds-tickets-1332673635719?aff=ebdssbdestsearch,-37.8230028,145.0399686,Music
Breathwork and The Stress Response,2025-05-25,10:00,60 Hawthorn Rd,"60 Hawthorn Road Caulfield North, VIC 3161",https://www.eventbrite.com.au/e/breathwork-and-the-stress-response-tickets-1304884828649?aff=ebdssbdestsearch,-37.869703,145.02505,Talks/Workshops
"9D Breathwork ""You Are Enough"" StKilda",2025-05-25,14:00,infinite co studio,"14 Pakington Street St Kilda, VIC 3182",https://www.eventbrite.com.au/e/9d-breathwork-you-are-enough-stkilda-tickets-1341477237529?aff=ebdssbdestsearch,-37.8655601,144.9873231,Talks/Workshops
Paint in the Dark© All Ages - Family Friendly Event,2025-05-25,14:00,Paint for Fun,"252 Graham Street #Unit 1 Port Melbourne, VIC 3207",https://www.eventbrite.com.au/e/paint-in-the-dark-all-ages-family-friendly-event-tickets-1257746596929?aff=ebdssbdestsearch,-37.8386895,144.9385483,
SLVT SUNDAYS!,2025-05-25,10:00,The Moser Room (Chasers),"386 Chapel Street South Yarra, VIC 3141",https://www.eventbrite.com/e/slvt-sundays-tickets-1354477341189?aff=ebdssbdestsearch,-37.8459028,144.9947039,
Spill The Tea: Jonathan Barnett,2025-05-25,14:00,Positive Living Centre,"31-51 Commercial Road South Yarra, VIC 3141",https://www.eventbrite.com.au/e/spill-the-tea-jonathan-barnett-tickets-1321925026339?aff=ebdssbdestsearch,-37.845782,144.987145,Talks/Workshops
Sunday Salsa  – Dance  and Socialise!,2025-05-25,16:30,Ela Rose Studios,"20 Chingford Street Fairfield, VIC 3078",https://www.eventbrite.com.au/e/sunday-salsa-dance-and-socialise-tickets-1344919443259?aff=ebdssbdestsearch,-37.7696884,145.0239564,
SAKE MAKING WORKSHOP,2025-05-25,15:00,Sakedokoro Namara,"360 Victoria Street North Melbourne, VIC 3051",https://www.eventbrite.com.au/e/sake-making-workshop-tickets-1257416860679?aff=ebdssbdestsearch,-37.8054937,144.9542855,Talks/Workshops
POKEMON - May Challenge Event - Gameology BRUNSWICK - 25/05/2025,2025-05-25,11:30,Gameology Brunswick,"36 Hope Street Brunswick, VIC 3056",https://www.eventbrite.com.au/e/pokemon-may-challenge-event-gameology-brunswick-25052025-tickets-1319647764989?aff=ebdssbdestsearch,-37.7636924,144.9595539,
Caramel Turns 4 Years | 25th May 2025,2025-05-25,22:00,Platform One,"375 Flinders Street Melbourne, VIC 3000",https://www.eventbrite.com/e/caramel-turns-4-years-25th-may-2025-tickets-1343664379329?aff=ebdssbdestsearch,-37.8192278,144.9622577,
Hand Cut Collage Workshop,2025-05-25,14:00,791 High St,"791 High Street Thornbury, VIC 3071",https://www.eventbrite.com.au/e/hand-cut-collage-workshop-tickets-1347373543539?aff=ebdssbdestsearch,-37.75664140000001,145.0006435,
Fascial Freedom: Release and Transform to Thrive and Perform,2025-05-25,09:30,60 Hawthorn Rd,"60 Hawthorn Road Caulfield North, VIC 3161",https://www.eventbrite.com/e/fascial-freedom-release-and-transform-to-thrive-and-perform-tickets-1353224263199?aff=ebdssbdestsearch,-37.869703,145.02505,
Duldig Studio Clay Workshop Series: Home is Where the Heart is,2025-05-25,14:00,Duldig Studio Museum & Sculpture Garden,"92 Burke Road East Malvern, VIC 3145",https://www.eventbrite.com.au/e/duldig-studio-clay-workshop-series-home-is-where-the-heart-is-tickets-1317066032959?aff=ebdssbdestsearch,-37.8689721,145.0498034,
Rosie's Welcome Variety Show Spectacular!,2025-05-25,05:30,Circus Nexus,"1-7 Chifley Drive Preston, VIC 3072",https://www.eventbrite.com.au/e/rosies-welcome-variety-show-spectacular-tickets-1338119474369?aff=ebdssbdestsearch,-37.754973,145.0283961,Comedy
Pizza Masterclass with Antonio,2025-05-25,11:30,6/10 Tripovich St,"10 Tripovich Street #6 Brunswick, VIC 3056",https://www.eventbrite.com.au/e/pizza-masterclass-with-antonio-tickets-1126375662929?aff=ebdssbdestsearch,-37.76623730000001,144.9617429,
"Sunday School - Magpie, Turge, Billy Cart ",2025-05-25,16:00,Bergy Bandroom,"64 Sydney Rd, Brunswick VIC 3056, Australia",https://www.facebook.com/events/736106542081543/,-37.776327,144.9607158,
Langue de Chat at Paris Cat,2025-05-25,18:30,Paris Cat Jazz Club,"6 Goldie Pl, Melbourne VIC 3000, Australia",https://www.facebook.com/events/1004875868425037/,-37.8133262,144.96060714767358,
Embodied Healing Through Belly dance,2025-05-25,15:00,BIGBANG studio,"177 Beavers Road #1 Northcote, VIC 3070",https://www.eventbrite.com.au/e/embodied-healing-through-belly-dance-tickets-1295343720939?aff=ebdssbdestsearch,-37.76567989999999,144.9864456,
F2F Singles event,2025-05-25,15:00,Penny Young,"22 Young Street Moonee Ponds, VIC 3039",https://www.eventbrite.com/e/f2f-singles-event-tickets-1333667047039?aff=ebdssbdestsearch,-37.7677056,144.9231243,Social/Dating
Sound Healing - Sunday Sunset Sound Bath with Romy,2025-05-25,17:30,Private Studio in St Kilda East (see email for address),"Alma Road St Kilda East, VIC 3183",https://www.eventbrite.com.au/e/sound-healing-sunday-sunset-sound-bath-with-romy-tickets-1319710522699?aff=ebdssbdestsearch,-37.8626178,145.0005983,
Mike Rudd's Indelibles,2025-05-25,14:00,Kindred Bandroom,"3 Harris St, Footscray VIC 3011, Australia",https://www.facebook.com/events/1204107454421403/,-37.8119001,144.9008247,
Friends On Purpose: Breathwork & Connection,2025-05-25,11:30,No Name Studios | Breathwork,"298 Victoria Street #296 Brunswick, VIC 3056",https://www.eventbrite.com.au/e/friends-on-purpose-breathwork-connection-tickets-1324741781329?aff=ebdssbdestsearch,-37.7673128,144.963179,Social/Dating
Perform At Nevs Open Mic,2025-05-25,00:00,Nevermind Bar,"336 Burwood Rd, Hawthorn VIC 3122, Australia",https://www.facebook.com/events/702786802696318/,-37.8227498,145.03482611505956,
The Punters | Every Sunday at Punters Club,2025-05-25,00:00,Punters Club,"376 Brunswick St, Fitzroy VIC 3065, Australia",https://www.facebook.com/events/1173145007722321/,-37.7960561,144.9790327,
Sunday Funday - REGULAR BOYS,2025-05-25,00:00,Musicland Melbourne,"1359 Sydney Rd, Fawkner VIC 3060, Australia",https://www.facebook.com/events/665155712574368/,-37.6916774,144.9585701581541,
 FREE SUNDAY LIVE MUSIC | Peter Sullivan Trio,2025-05-25,00:00,arcobar heatherton,"8 Arco Ln, Heatherton VIC 3202, Australia",https://www.facebook.com/events/705180278545436/,-37.94673685,145.07837928457485,
The Repeters @ Oakleigh Music Hall,2025-05-25,14:30,Oakleigh Carnegie RSL,"95/97 Drummond St, Oakleigh VIC 3166, Australia",https://www.facebook.com/events/2360122554367872/,-37.8968576,145.08963741959553,
BAND-A-OKE Live band Karaoke,2025-05-25,00:00,Musicland Melbourne,"1359 Sydney Rd, Fawkner VIC 3060, Australia",https://www.facebook.com/events/1744777073050218/,-37.6916774,144.9585701581541,
Michael Zammit & Jenn Allas,2025-05-25,00:00,Altona Sports Club,"11 Altona Rd, Altona VIC 3018, Australia",https://www.facebook.com/events/1339811810410143/,-37.85754867,144.85121805353086,
DANCE TRIBE – A Sober Dance Party Experiment by Music is Medicine.,2025-05-25,15:00,Centre of You,"Upstairs, 217 Chapel St Prahran Melbourne, VIC 3181",https://www.eventbrite.com.au/e/dance-tribe-a-sober-dance-party-experiment-by-music-is-medicine-tickets-1343395123979?aff=ebdssbdestsearch,-37.8509316,144.9933031,Music
SONGS at CERES: Moongaze and Bom Derry,2025-05-25,00:00,CERES Environment Park,"Stewart St & Roberts St East, Brunswick VIC 3056, Australia",https://www.facebook.com/events/1019701353617538/,-37.765454,144.9831564,
SOUL OF FITZROY | ROOFTOP JAZZ & SOUL PARTY | WITH NORTHSIDE RECORDS,2025-05-25,00:00,Punters Club,"376 Brunswick St, Fitzroy VIC 3065, Australia",https://www.facebook.com/events/1217154460008624/,-37.7960561,144.9790327,
ROZ GIRVAN | BRUNSWICK BALLROOM,2025-05-25,13:00,Brunswick Ballroom,"314 Sydney Rd, Brunswick VIC 3056, Australia",https://www.facebook.com/events/9613110652114160/,-37.7704205,144.9617083,
BAG O' NAILS,2025-05-25,14:00,Way Out West Roots Music Club,"4 Market St, Newport VIC 3015, Australia",https://www.facebook.com/events/672090458866738/,-37.8439028,144.8823845,
 MUS x MUST presents STAY GOLD,2025-05-25,00:00,Stay Gold,"133 Sydney Rd, Brunswick VIC 3056, Australia",https://www.facebook.com/events/1204671334775484/,-37.7743469,144.9607404,
THE REBELLES with special guests Cinco Savage,2025-05-25,13:00,The Workers Club,"51 Brunswick St, Fitzroy VIC 3065, Australia",https://www.facebook.com/events/630751836629554/,-37.8055776,144.9769450659087,
Fine & Good Life Drawing - The Brunswick Green - In A Dream it Seemed Real,2025-05-25,19:00,The Brunswick Green,"313-315 Sydney Road Brunswick, VIC 3056",https://www.eventbrite.com.au/e/fine-good-life-drawing-the-brunswick-green-in-a-dream-it-seemed-real-tickets-1315955571539?aff=ebdssbdestsearch,-37.770138,144.9614257,Art
Tomorrow is a New Day Single Launch,2025-05-25,15:30,The Gem Bar and Dining,"289 Wellington St, Collingwood VIC 3066, Australia",https://www.facebook.com/events/1393584248623454/,-37.7963837,144.9875917,
Trench Crusade - Campaign League,2025-05-25,00:00,The Gaming Arena,"123 Bakers Rd, Coburg North VIC 3058, Australia",https://www.facebook.com/events/579100334568344/,-37.72715826,144.96115535488718,
Dungeons and Flagons - D&D One Shot Campaigns,2025-05-25,00:00,Fortress Melbourne,"Shop 25/23 Caledonian Ln, Melbourne VIC 3000, Australia",https://www.facebook.com/events/462112836967415/,-37.8120357,144.9642299,
Forest Therapy - Melbourne,2025-05-25,10:00,Botanic gardens,"Birdwood Ave Melbourne VIC 3004, Australia",https://www.facebook.com/events/1041437191053402/,-37.82683271,144.97238679810675,
Raw Food Fundamentals,2025-05-25,00:00,CERES Environment Park,"Stewart St & Roberts St East, Brunswick VIC 3056, Australia",https://www.facebook.com/events/1208129464306976/,-37.765454,144.9831564,
Business Communication Training,2025-05-26,08:30,Melbourne,"Melbourne Melbourne, VIC",https://www.eventbrite.com.au/e/business-communication-training-tickets-884101801287?aff=ebdssbdestsearch,-37.8136276,144.9630576,
Presentation Skills Training: Public Speaking & Interpersonal Skills,2025-05-26,08:00,Melbourne,"Melbourne Melbourne, VIC",https://www.eventbrite.com.au/e/presentation-skills-training-public-speaking-interpersonal-skills-tickets-884167387457?aff=ebdssbdestsearch,-37.8136276,144.9630576,
Negotiation for Leaders Training,2025-05-26,08:00,Melbourne,"Melbourne Melbourne, VIC",https://www.eventbrite.com.au/e/negotiation-for-leaders-training-tickets-884152543057?aff=ebdssbdestsearch,-37.8136276,144.9630576,
Administration Skills Training,2025-05-26,08:00,Melbourne,"Melbourne Melbourne, VIC",https://www.eventbrite.com.au/e/administration-skills-training-tickets-884161931137?aff=ebdssbdestsearch,-37.8136276,144.9630576,
Email Communication Training,2025-05-26,08:30,Melbourne,"Melbourne Melbourne, VIC",https://www.eventbrite.com.au/e/email-communication-training-tickets-884123746927?aff=ebdssbdestsearch,-37.8136276,144.9630576,
LAUGH4CALD: COOK4CALD Comedy Night Fundraiser,2025-05-26,06:30,Good Heavens Rooftop Bar,"79 Bourke Street #level 2 Melbourne, VIC 3000",https://www.eventbrite.co.uk/e/laugh4cald-cook4cald-comedy-night-fundraiser-tickets-1330562932549?aff=ebdssbdestsearch,-37.8120759,144.9711426,Comedy
Personality Style and Profiling Skill Training,2025-05-26,08:30,Melbourne,"Melbourne Melbourne, VIC",https://www.eventbrite.com.au/e/personality-style-and-profiling-skill-training-tickets-884144960377?aff=ebdssbdestsearch,-37.8136276,144.9630576,
Persuasion Training,2025-05-26,08:30,Melbourne,"Melbourne Melbourne, VIC",https://www.eventbrite.com.au/e/persuasion-training-tickets-884133375727?aff=ebdssbdestsearch,-37.8136276,144.9630576,
Goddesses Unleashed,2025-05-26,20:30,The Butterfly Club,"5 Carson Place Melbourne, VIC 3000",https://www.eventbrite.co.uk/e/goddesses-unleashed-tickets-1224240499289?aff=ebdssbdestsearch,-37.8154472,144.9652725,
Danger Jones Look and Learn with IvoryRoseHair .,2025-05-26,11:00,Salon Cosmetics,"2 Halsey Road Airport West, VIC 3042",https://www.eventbrite.com.au/e/danger-jones-look-and-learn-with-ivoryrosehair-tickets-1266691842399?aff=ebdssbdestsearch,-37.7193974,144.8915567,
Effective Communication Training,2025-05-26,08:30,Melbourne,"Melbourne Melbourne, VIC",https://www.eventbrite.com.au/e/effective-communication-training-tickets-884104258637?aff=ebdssbdestsearch,-37.8136276,144.9630576,
Careers in Sports Medicine - Information Evening,2025-05-26,18:30,Performe Sports Medicine,"20 Olympic Boulevard Melbourne, VIC 3004",https://www.eventbrite.com.au/e/careers-in-sports-medicine-information-evening-tickets-1292020270409?aff=ebdssbdestsearch,-37.8246095,144.9801781,Talks/Workshops
Where It All Began,2025-05-26,19:00,The Butterfly Club,"5 Carson Place Melbourne, VIC 3000",https://www.eventbrite.co.uk/e/where-it-all-began-tickets-1206103511069?aff=ebdssbdestsearch,-37.8154472,144.9652725,
Mastering Complex Skin Conditions with Gay Wardle Skin Institute (Melb),2025-05-26,09:00,Victoria University City,"370 Little Lonsdale Street Campus Level 19 Melbourne, VIC 3000",https://www.eventbrite.com.au/e/mastering-complex-skin-conditions-with-gay-wardle-skin-institute-melb-tickets-1143645005999?aff=ebdssbdestsearch,-37.8121112,144.9585905,Talks/Workshops
Qualifying Customers Training,2025-05-26,08:00,Melbourne,"Melbourne Melbourne, VIC",https://www.eventbrite.com.au/e/qualifying-customers-training-tickets-884172603057?aff=ebdssbdestsearch,-37.8136276,144.9630576,
Whispers on the Wind: New Moon in Gemini Cacao Ceremony & Restorative Yoga.,2025-05-26,06:30,Centre of You,"Upstairs, 217 Chapel St Prahran Melbourne, VIC 3181",https://www.eventbrite.com.au/e/whispers-on-the-wind-new-moon-in-gemini-cacao-ceremony-restorative-yoga-tickets-1334928941399?aff=ebdssbdestsearch,-37.8509316,144.9933031,Talks/Workshops
"DAVINES - Colour Lab Workshop - Melbourne, VIC",2025-05-26,10:00,shibui,"139 Toorak Road South Yarra, VIC 3141",https://www.eventbrite.com.au/e/davines-colour-lab-workshop-melbourne-vic-tickets-1229549328139?aff=ebdssbdestsearch,-37.8386846,144.991012,Talks/Workshops
 Harvey Pink’s Flying Bathhouse  Monday Nights in May Residency @ Merri Creek Tavern,2025-05-26,00:00,The Merri Creek Tavern,"111 High St, Northcote VIC 3070, Australia",https://www.facebook.com/events/1871693263592727/,-37.7794356,144.996838,
CIRCADIAN RHYTHMS,2025-05-26,00:00,Wax Music Lounge,"250 Flinders St, Melbourne VIC 3000, Australia",https://www.facebook.com/events/584862551173325/,-37.8176298,144.9661635,
JAZZPARTY MONDAY NIGHTS IN MAY/JUNE AT LULIE TAVERN,2025-05-26,00:00,Lulie Tavern,"225 Johnston St, Abbotsford VIC 3067, Australia",https://www.facebook.com/events/976995041217920/,-37.8000264,144.9936498,
Bring Her Back: First Look Screening,2025-05-26,21:00,Cinema Nova,"380 Lygon St, Carlton VIC 3053, Australia",https://www.facebook.com/events/1050300963651421/,-37.7978092,144.9680124,
Queen Rhi & The Velveteers Monday Residency @ BAR OUSSOU!,2025-05-26,00:00,Bar Oussou,"653 Sydney Rd, Brunswick VIC 3056, Australia",https://www.facebook.com/events/1307070087056751/,-37.7618155,144.9628753,
Fright Night Preview: BRING HER BACK,2025-05-26,19:00,Palace Cinemas,"1 Champ St, Coburg VIC 3058, Australia",https://www.facebook.com/events/1767631257128110/,-37.736826,144.968318,
Tavern Trivia - FREE Gaming & Pop Culture Trivia,2025-05-26,00:00,Fortress Melbourne,"Shop 25/23 Caledonian Ln, Melbourne VIC 3000, Australia",https://www.facebook.com/events/584700344451993/,-37.8120357,144.9642299,
"‘Social Sanctuary’ with Sarah Mary Chadwick, Gena Rose Bruce + Milly Strange",2025-05-26,19:00,Northcote Social Club,"301 High St, Northcote VIC 3070, Australia",https://www.facebook.com/events/1166084591474941/,-37.771471,144.998414,
Killer Pool Comp - Mondays,2025-05-26,00:00,Inkerman Hotel,"375 Inkerman St, St Kilda East VIC 3183, Australia",https://www.facebook.com/events/1038406204674063/,-37.866444,144.99799715146656,
Melbourne Lean Six Sigma Black Belt Certification,2025-05-27,09:00,120 Collins St,"120 Collins Street Levels 31 & 50/120 Collins St Melbourne, VIC 3000",https://www.eventbrite.com/e/melbourne-lean-six-sigma-black-belt-certification-tickets-1259144939409?aff=ebdssbdestsearch,-37.8138656,144.9695281,Business/Networking
MeTreat Retreats Autumn Sista Circle,2025-05-27,19:00,TBA,"Woodville Avenue Glen Huntly, VIC 3163",https://www.eventbrite.com.au/e/metreat-retreats-autumn-sista-circle-tickets-1322699573029?aff=ebdssbdestsearch,-37.8966104,145.0385197,Talks/Workshops
"1990 Premiers Brown, Banks, Shaw & Daicos LIVE at Olympic Hotel!",2025-05-27,18:00,Olympic Hotel,"31 Albert Street Preston, VIC 3072",https://www.eventbrite.com.au/e/1990-premiers-brown-banks-shaw-daicos-live-at-olympic-hotel-tickets-1313659945259?aff=ebdssbdestsearch,-37.7465792,145.021604,Sport
Advanced Presentation Skills,2025-05-27,08:00,Melbourne,"Melbourne Melbourne, VIC",https://www.eventbrite.com.au/e/advanced-presentation-skills-tickets-884804071797?aff=ebdssbdestsearch,-37.8136276,144.9630576,
"Melbourne, VIC Lean Six Sigma Green and Black Belt Conference By CP",2025-05-27,09:00,120 Collins St,"120 Collins Street Levels 31 & 50/120 Collins St Melbourne, VIC 3000",https://www.eventbrite.com/e/melbourne-vic-lean-six-sigma-green-and-black-belt-conference-by-cp-tickets-1254108184339?aff=ebdssbdestsearch,-37.8138656,144.9695281,Business/Networking
Time and Task Management Training,2025-05-27,08:00,Melbourne,"Melbourne Melbourne, VIC",https://www.eventbrite.com.au/e/time-and-task-management-training-tickets-884880751147?aff=ebdssbdestsearch,-37.8136276,144.9630576,
Time Management Training,2025-05-27,08:00,Melbourne,"Melbourne Melbourne, VIC",https://www.eventbrite.com.au/e/time-management-training-tickets-884885575577?aff=ebdssbdestsearch,-37.8136276,144.9630576,
Workplace Health Training,2025-05-27,08:00,Melbourne,"Melbourne Melbourne, VIC",https://www.eventbrite.com.au/e/workplace-health-training-tickets-884920881177?aff=ebdssbdestsearch,-37.8136276,144.9630576,
Developing Creativity Training,2025-05-27,08:00,Melbourne,"Melbourne Melbourne, VIC",https://www.eventbrite.com.au/e/developing-creativity-training-tickets-884910680667?aff=ebdssbdestsearch,-37.8136276,144.9630576,
Workplace Motivation Training,2025-05-27,08:00,Melbourne,"Melbourne Melbourne, VIC",https://www.eventbrite.com.au/e/workplace-motivation-training-tickets-884928473887?aff=ebdssbdestsearch,-37.8136276,144.9630576,
Understanding Others: Becoming a People Person Training,2025-05-27,08:00,Melbourne,"Melbourne Melbourne, VIC",https://www.eventbrite.com.au/e/understanding-others-becoming-a-people-person-training-tickets-884895635667?aff=ebdssbdestsearch,-37.8136276,144.9630576,
1Spatial World Tour 2025 - Melbourne,2025-05-27,08:30,Cargo Hall,"39 South Wharf Promenade South Wharf, VIC 3006",https://www.eventbrite.com.au/e/1spatial-world-tour-2025-melbourne-tickets-1215686263339?aff=ebdssbdestsearch,-37.8241781,144.9508272,Business/Networking
Paint and Sip in Melbourne: Crashing Wave,2025-05-27,18:30,Ladder Art Space,"4/81 Denmark St Kew, VIC 3101",https://www.eventbrite.com.au/e/paint-and-sip-in-melbourne-crashing-wave-tickets-1206167823429?aff=ebdssbdestsearch,-37.8089958,145.0285779,
"CAPM Melbourne, VIC In-person Class",2025-05-27,09:00,120 Collins St,"120 Collins Street Levels 31 & 50/120 Collins St Melbourne, VIC 3000",https://www.eventbrite.com/e/capm-melbourne-vic-in-person-class-tickets-1232681386209?aff=ebdssbdestsearch,-37.8138656,144.9695281,Talks/Workshops
"The Grass is Greener LIVE - Dream it, Live it - Your Dream Retirement",2025-05-27,09:30,Stomping Ground Brewery & Beer Hall - Morris Moor,"9 Cochranes Road Moorabbin, VIC 3189",https://www.eventbrite.com.au/e/the-grass-is-greener-live-dream-it-live-it-your-dream-retirement-tickets-1291978986929?aff=ebdssbdestsearch,-37.94185969999999,145.0618277,Talks/Workshops
LEAP - Sacred new moon event,2025-05-27,06:30,South Melbourne Life Saving Club,"72B Beaconsfield Parade Albert Park, VIC 3206",https://www.eventbrite.com.au/e/leap-sacred-new-moon-event-tickets-1332026540239?aff=ebdssbdestsearch,-37.84710949999999,144.9465725,
In-Person - Conversations to connect:Turn Conversations into Opportunities,2025-05-27,17:30,Brighton Golf Club,"99 Glencairn Avenue Brighton East, VIC 3187",https://www.eventbrite.com.au/e/in-person-conversations-to-connectturn-conversations-into-opportunities-tickets-1204096909269?aff=ebdssbdestsearch,-37.923105,145.0198233,Business/Networking
Melbourne PgMP Exam Preparation Course,2025-05-27,09:00,"Melbourne, VLC Training Center","Levels 31 & 50/120 Collins St Melbourne, VIC 3000",https://www.eventbrite.com/e/melbourne-pgmp-exam-preparation-course-tickets-1232058352699?aff=ebdssbdestsearch,-37.8144291,144.9696066,Business/Networking
Working with Co-occurring BPD and Complex Trauma,2025-05-27,09:00,Spectrum Personality Disorder and Complex Trauma Service,"110 Church Street Richmond, VIC 3121",https://www.eventbrite.com.au/e/working-with-co-occurring-bpd-and-complex-trauma-tickets-1108736463609?aff=ebdssbdestsearch,-37.8142371,144.9995624,Talks/Workshops
"AI, Advanced Tech & Web3 Pitch Night",2025-05-27,18:00,The Commons Gipps St,"38 Gipps St Collingwood, VIC 3066",https://www.eventbrite.com.au/e/ai-advanced-tech-web3-pitch-night-tickets-1088703855539?aff=ebdssbdestsearch,-37.8041282,144.9882914,Business/Networking
Employee Dispute Resolution,2025-05-27,08:00,Melbourne,"Melbourne Melbourne, VIC",https://www.eventbrite.com.au/e/employee-dispute-resolution-tickets-884924682547?aff=ebdssbdestsearch,-37.8136276,144.9630576,
"Sound Healing Melbourne, New Moon in Gemini, Ritual and Sound Bath",2025-05-27,19:30,Private Studio St Kilda East,"Alma Road St Kilda East, VIC 3183",https://www.eventbrite.com.au/e/sound-healing-melbourne-new-moon-in-gemini-ritual-and-sound-bath-tickets-1347816408159?aff=ebdssbdestsearch,-37.8626178,145.0005983,Talks/Workshops
LUX VIP MELB : Co-Working Day at the Terminus Hotel,2025-05-27,09:00,Terminus Hotel Fitzroy North,"492 Queens Parade Fitzroy North, VIC 3068",https://www.eventbrite.com.au/e/lux-vip-melb-co-working-day-at-the-terminus-hotel-tickets-1295279388519?aff=ebdssbdestsearch,-37.7853246,144.994443,Business/Networking
Fresh Networking - Box Hill Expression of Interest - Guest Registration,2025-05-27,07:30,Mister and Miss,"713 Whitehorse Road Mont Albert, VIC 3127",https://www.eventbrite.com.au/e/fresh-networking-box-hill-expression-of-interest-guest-registration-tickets-1333541160509?aff=ebdssbdestsearch,-37.8156166,145.1058197,Business/Networking
Kingston Retail and Hospitality Strategic Business Growth Workshop,2025-05-27,18:45,Quest Cheltenham,"37-39 Station Road #1 Cheltenham, VIC 3192",https://www.eventbrite.com.au/e/kingston-retail-and-hospitality-strategic-business-growth-workshop-tickets-1309227156669?aff=ebdssbdestsearch,-37.9669491,145.0574698,Business/Networking
Change Management Training,2025-05-27,08:00,Melbourne,"Melbourne Melbourne, VIC",https://www.eventbrite.com.au/e/change-management-training-tickets-884858213737?aff=ebdssbdestsearch,-37.8136276,144.9630576,
Resilience Training,2025-05-27,08:00,Melbourne,"Melbourne Melbourne, VIC",https://www.eventbrite.com.au/e/resilience-training-tickets-884824282247?aff=ebdssbdestsearch,-37.8136276,144.9630576,
Team Collaboration Training,2025-05-27,08:00,Melbourne,"Melbourne Melbourne, VIC",https://www.eventbrite.com.au/e/team-collaboration-training-tickets-884917350617?aff=ebdssbdestsearch,-37.8136276,144.9630576,
Cash Prize POOL COMP,2025-05-27,00:00,Inkerman Hotel,"375 Inkerman St, St Kilda East VIC 3183, Australia",https://www.facebook.com/events/1056315672649917/,-37.866444,144.99799715146656,
Comedy @ Bar 303,2025-05-27,19:30,Bar 303,"303 High St, Northcote VIC 3070, Australia",https://www.facebook.com/events/1392436338557175/,-37.7713296,144.99828116650363,
Movie Epic: Apocalypse Now Final Cut,2025-05-27,19:00,Cinema Nova,"380 Lygon St, Carlton VIC 3053, Australia",https://www.facebook.com/events/2405103476536517/,-37.7978092,144.9680124,
DRAG BINGO WITH ART SIMONE & JEMIMA HANDFUL ,2025-05-27,19:00,The Corner Hotel,"57 Swan St, Richmond VIC 3121",https://www.facebook.com/events/692913873424912/,-37.82464307,144.9926962,
Jane Austen Wrecked My Life; Gala Screening,2025-05-27,19:15,Cinema Nova,"380 Lygon St, Carlton VIC 3053, Australia",https://www.facebook.com/events/1199185371373639/,-37.7978092,144.9680124,
Alexander Biggs @ The Old Bar - Night #2,2025-05-27,19:30,The Old Bar,"74-76 Johnston St, Fitzroy VIC 3065, Australia",https://www.facebook.com/events/1161170111907050/,-37.79833,144.97711,
Weekly MTG Commander at The Gaming Arena,2025-05-27,00:00,The Gaming Arena,"123 Bakers Rd, Coburg North VIC 3058, Australia",https://www.facebook.com/events/1541838383370198/,-37.72715826,144.96115535488718,
Writing Sport: Writers on Campus ,2025-05-27,13:15,La Trobe University Sports Pavillion,"Sports Fields Pavillion, Bundoora VIC 3083, Australia",https://www.facebook.com/events/1941535949989182/,-37.7231325,145.0422049,
Meet Cute: A Celebration of Romantic Comedies,2025-05-27,00:00,Lido Cinemas,"675 Glenferrie Rd, Hawthorn VIC 3122, Australia",https://www.facebook.com/events/652154180558242/,-37.8205529,145.0355738,
Ichiko Aoba at Forum Melbourne ,2025-05-27,19:00,Forum Melbourne,"154 Flinders St, Melbourne VIC 3000, Australia",https://www.facebook.com/events/621498567321287/,-37.81644145,144.9693768124984,
Being Jewish After the Destruction of Gaza,2025-05-27,00:00,The Wheeler Centre,"176 Little Lonsdale St, Melbourne VIC 3000, Australia",https://www.facebook.com/events/640642278747745/,-37.8101765,144.9652219,
Change Your Thinking Training,2025-05-27,08:00,Melbourne,"Melbourne Melbourne, VIC",https://www.eventbrite.com.au/e/change-your-thinking-training-tickets-884853389307?aff=ebdssbdestsearch,-37.8136276,144.9630576,
Taking Initiative Training,2025-05-27,08:00,Melbourne,"Melbourne Melbourne, VIC",https://www.eventbrite.com.au/e/taking-initiative-training-tickets-884848334187?aff=ebdssbdestsearch,-37.8136276,144.9630576,
Skills for Personal Assisstants Training,2025-05-27,08:00,Melbourne,"Melbourne Melbourne, VIC",https://www.eventbrite.com.au/e/skills-for-personal-assisstants-training-tickets-884834593087?aff=ebdssbdestsearch,-37.8136276,144.9630576,
Retail Sales Training,2025-05-27,08:00,Melbourne,"Melbourne Melbourne, VIC",https://www.eventbrite.com.au/e/retail-sales-training-tickets-884830550997?aff=ebdssbdestsearch,-37.8136276,144.9630576,
Sales Presentation Training,2025-05-27,08:00,Melbourne,"Melbourne Melbourne, VIC",https://www.eventbrite.com.au/e/sales-presentation-training-tickets-884832737537?aff=ebdssbdestsearch,-37.8136276,144.9630576,
Workplace Negativity Training,2025-05-27,08:00,Melbourne,"Melbourne Melbourne, VIC",https://www.eventbrite.com.au/e/workplace-negativity-training-tickets-884933809847?aff=ebdssbdestsearch,-37.8136276,144.9630576,
Teamwork: Building Better Teams Training,2025-05-27,08:00,Melbourne,"Melbourne Melbourne, VIC",https://www.eventbrite.com.au/e/teamwork-building-better-teams-training-tickets-884851714297?aff=ebdssbdestsearch,-37.8136276,144.9630576,
Workplace Organisation Training,2025-05-27,08:00,Melbourne,"Melbourne Melbourne, VIC",https://www.eventbrite.com.au/e/workplace-organisation-training-tickets-884937741607?aff=ebdssbdestsearch,-37.8136276,144.9630576,
Behaviour in the Workplace Training,2025-05-27,08:00,Melbourne,"Melbourne Melbourne, VIC",https://www.eventbrite.com.au/e/behaviour-in-the-workplace-training-tickets-884827281217?aff=ebdssbdestsearch,-37.8136276,144.9630576,
Telephone Skills Training,2025-05-27,08:00,Melbourne,"Melbourne Melbourne, VIC",https://www.eventbrite.com.au/e/telephone-skills-training-tickets-884861664057?aff=ebdssbdestsearch,-37.8136276,144.9630576,
Retail Customer Service Training,2025-05-27,08:00,Melbourne,"Melbourne Melbourne, VIC",https://www.eventbrite.com.au/e/retail-customer-service-training-tickets-884828835867?aff=ebdssbdestsearch,-37.8136276,144.9630576,
Six Sigma Green Belt In-Person Training in Melbourne,2025-05-27,09:00,120 Collins St,"120 Collins Street Levels 31 & 50/120 Collins St Melbourne, VIC 3000",https://www.eventbrite.com/e/six-sigma-green-belt-in-person-training-in-melbourne-tickets-1256552023929?aff=ebdssbdestsearch,-37.8138656,144.9695281,
Social Marketing Training,2025-05-27,08:00,Melbourne,"Melbourne Melbourne, VIC",https://www.eventbrite.com.au/e/social-marketing-training-tickets-884839407487?aff=ebdssbdestsearch,-37.8136276,144.9630576,
Time Management for Leaders Training,2025-05-27,08:00,Melbourne,"Melbourne Melbourne, VIC",https://www.eventbrite.com.au/e/time-management-for-leaders-training-tickets-884882877507?aff=ebdssbdestsearch,-37.8136276,144.9630576,
Advanced Writing Skills,2025-05-27,08:00,Melbourne,"Melbourne Melbourne, VIC",https://www.eventbrite.com.au/e/advanced-writing-skills-tickets-884800992587?aff=ebdssbdestsearch,-37.8136276,144.9630576,
Anime and manga digital and traditional illustrating club,2025-05-27,11:30,City Library,"253 Flinders Lane Melbourne, VIC 3000",https://www.eventbrite.com.au/e/anime-and-manga-digital-and-traditional-illustrating-club-tickets-1108971346149?aff=ebdssbdestsearch,-37.8171117,144.9660625,
Workplace Bullying Training,2025-05-27,08:00,Melbourne,"Melbourne Melbourne, VIC",https://www.eventbrite.com.au/e/workplace-bullying-training-tickets-884904582427?aff=ebdssbdestsearch,-37.8136276,144.9630576,
Ado,2025-05-27,12:00,Rod Laver Arena,"200 Batman Ave, Melbourne VIC 3000, Australia",https://premier.ticketek.com.au/shows/show.aspx?sh=ADO25,-37.8216161,144.9785584,
"Strong Women, Strong Bodies: Nutrition & Movement for Lifelong Health",2025-05-27,07:30,Superwell - Albert Park,"44 Mills Street #Shop 4, 36 Albert Park, VIC 3206",https://www.eventbrite.com/e/strong-women-strong-bodies-nutrition-movement-for-lifelong-health-tickets-1309760632309?aff=ebdssbdestsearch,-37.8454286,144.9588458,Talks/Workshops
Ichiko Aoba,2025-05-27,12:00,Forum Melbourne,"150 Flinders St, Melbourne VIC 3000, Australia",https://premier.ticketek.com.au/shows/show.aspx?sh=ICHIKO25,-37.8166268,144.9695761,
"Melbourne, Fitzroy for ages 25-39 by Cheeky Events Australia",2025-05-28,19:00,Polly Bar,"401 Brunswick Street Fitzroy, VIC 3065",https://www.eventbrite.com.au/e/melbourne-fitzroy-for-ages-25-39-by-cheeky-events-australia-tickets-1353025358269?aff=ebdssbdestsearch,-37.7950784,144.9786736,Social/Dating
FeelGoodFlows@The Lume - The Greater Himalayas Breath Journey.,2025-05-28,18:30,THE LUME Melbourne,"5 Convention Centre Place South Wharf, VIC 3006",https://www.eventbrite.com.au/e/feelgoodflowsthe-lume-the-greater-himalayas-breath-journey-tickets-1326099833299?aff=ebdssbdestsearch,-37.8253426,144.9506281,Talks/Workshops
WLTH WLKS Business Networking Walk @ South Melbourne,2025-05-28,10:00,The Kettle Black,"50 Albert Road South Melbourne, VIC 3205",https://www.eventbrite.com.au/e/wlth-wlks-business-networking-walk-south-melbourne-tickets-1343435304159?aff=ebdssbdestsearch,-37.8339749,144.9710507,Business/Networking
"DAVINES - Cover with Confidence Theory Workshop - Melbourne, VIC",2025-05-28,10:00,Czar Workspace - Office Space & Coworking,"401 Collins Street #Level 2 Melbourne, VIC 3000",https://www.eventbrite.com.au/e/davines-cover-with-confidence-theory-workshop-melbourne-vic-tickets-1245552594339?aff=ebdssbdestsearch,-37.8172484,144.9612208,
In-Person PMI ACP Exam Prep Course in Melbourne,2025-05-28,09:00,120 Collins St,"120 Collins Street Levels 31 & 50/120 Collins St Melbourne, VIC 3000",https://www.eventbrite.com/e/in-person-pmi-acp-exam-prep-course-in-melbourne-tickets-1119732212189?aff=ebdssbdestsearch,-37.8138656,144.9695281,
Effective Toolbox Meetings Training,2025-05-28,08:00,Melbourne,"Melbourne Melbourne, VIC",https://www.eventbrite.com.au/e/effective-toolbox-meetings-training-tickets-885472561267?aff=ebdssbdestsearch,-37.8136276,144.9630576,
Create A Positive Customer Experience Training,2025-05-28,08:00,Melbourne,"Melbourne Melbourne, VIC",https://www.eventbrite.com.au/e/create-a-positive-customer-experience-training-tickets-885517254947?aff=ebdssbdestsearch,-37.8136276,144.9630576,
Emotional Awareness Training,2025-05-28,08:00,Melbourne,"Melbourne Melbourne, VIC",https://www.eventbrite.com.au/e/emotional-awareness-training-tickets-885479933317?aff=ebdssbdestsearch,-37.8136276,144.9630576,
Business  Breakfast - May 2025,2025-05-28,07:15,Vibe Hotel Melbourne,"1 Queen Street Melbourne, VIC 3000",https://www.eventbrite.com.au/e/business-breakfast-may-2025-tickets-1309251680019?aff=ebdssbdestsearch,-37.8188186,144.962001,Business/Networking
Code of Conduct Training: Setting the Tone for Your Workplace,2025-05-28,08:00,Melbourne,"Melbourne Melbourne, VIC",https://www.eventbrite.com.au/e/code-of-conduct-training-setting-the-tone-for-your-workplace-tickets-885524787477?aff=ebdssbdestsearch,-37.8136276,144.9630576,
How To Hold A Sign,2025-05-28,19:00,The Butterfly Club,"5 Carson Place Melbourne, VIC 3000",https://www.eventbrite.co.uk/e/how-to-hold-a-sign-tickets-1119452666059?aff=ebdssbdestsearch,-37.8154472,144.9652725,
ONE PIECE - Treasure Cup 2025 - Gameology BRUNSWICK - 28/05/2025,2025-05-28,06:30,Gameology Brunswick,"36 Hope Street Brunswick, VIC 3056",https://www.eventbrite.com.au/e/one-piece-treasure-cup-2025-gameology-brunswick-28052025-tickets-1319640533359?aff=ebdssbdestsearch,-37.7636924,144.9595539,Games
Comedy House presents Ray O'Leary,2025-05-28,20:00,Altona Sports Club,"11 Altona Rd, Altona VIC 3018, Australia",https://www.facebook.com/events/569776519050528/,-37.85754867,144.85121805353086,
Generation Women Melbourne: 'Women Rising- Stories of New Beginnings and Reinventions',2025-05-28,00:00,Howler,"7-11 Dawson St, Brunswick VIC 3056, Australia",https://www.facebook.com/events/1890082175152379/,-37.7720304,144.9596527,
The Outernet,2025-05-28,18:00,Bird's Basement,"11 Singers Ln, Melbourne VIC 3000, Australia",https://www.facebook.com/events/928940365751338/,-37.81114416,144.95680390283175,
STOCK,2025-05-28,00:00,Bar 303,"303 High St, Northcote VIC 3070, Australia",https://www.facebook.com/events/674562558391656/,-37.7713296,144.99828116650363,
'The White Lotus' Trivia,2025-05-28,19:00,Northcote Social Club,"301 High St, Northcote VIC 3070, Australia",https://www.facebook.com/events/2098155854023608/,-37.771471,144.998414,
Malevolence (uk) with Splinter – Melbourne 18+,2025-05-28,19:00,Stay Gold,"133 Sydney Rd, Brunswick VIC 3056, Australia",https://www.facebook.com/events/1408547470305823/,-37.7743469,144.9607404,
Secret Life of Birds Tour,2025-05-28,00:00,Botanic gardens,"Birdwood Ave Melbourne VIC 3004, Australia",https://www.facebook.com/events/494659170340316/,-37.82683271,144.97238679810675,
COMMON EVIL & ELECTRIC FUNERAL ,2025-05-28,19:00,The Last Chance,"238 Victoria St, Melbourne VIC 3000, Australia",https://www.facebook.com/events/535742352948656/,-37.8059962,144.9585654,
Batshit,2025-05-28,12:00,Fairfax Studio,"100 St Kilda Rd, Southbank VIC 3006, Australia",https://premier.ticketek.com.au/shows/show.aspx?sh=BATSHIT25,-37.8217698,144.9683587,
Writing Proposals Training,2025-05-28,08:00,Melbourne,"Melbourne Melbourne, VIC",https://www.eventbrite.com.au/e/writing-proposals-training-tickets-885486512997?aff=ebdssbdestsearch,-37.8136276,144.9630576,
Space & Defence Roundtable,2025-05-28,15:00,level 5/121 Exhibition St,"121 Exhibition Street #level 5 Melbourne, VIC 3000",https://www.eventbrite.com.au/e/space-defence-roundtable-tickets-1334934778859?aff=ebdssbdestsearch,-37.8126466,144.9703748,Business/Networking
Game of finance,2025-05-28,12:00,level 3/141 Camberwell Rd,"141 Camberwell Road #level 3 Hawthorn East, VIC 3123",https://www.eventbrite.com.au/e/game-of-finance-tickets-1353030303059?aff=ebdssbdestsearch,-37.8291482,145.0545251,
Harassment Training,2025-05-28,08:00,Melbourne,"Melbourne Melbourne, VIC",https://www.eventbrite.com.au/e/harassment-training-tickets-885531918807?aff=ebdssbdestsearch,-37.8136276,144.9630576,
Writing Reports & Proposals Training,2025-05-28,08:00,Melbourne,"Melbourne Melbourne, VIC",https://www.eventbrite.com.au/e/writing-reports-proposals-training-tickets-885488860017?aff=ebdssbdestsearch,-37.8136276,144.9630576,
Logistics and Distribution Training,2025-05-28,08:00,Melbourne,"Melbourne Melbourne, VIC",https://www.eventbrite.com.au/e/logistics-and-distribution-training-tickets-885552349917?aff=ebdssbdestsearch,-37.8136276,144.9630576,
Corporate Communication Skills Training,2025-05-28,08:00,Melbourne,"Melbourne Melbourne, VIC",https://www.eventbrite.com.au/e/corporate-communication-skills-training-tickets-885502811747?aff=ebdssbdestsearch,-37.8136276,144.9630576,
Closing the Sale Training,2025-05-28,08:00,Melbourne,"Melbourne Melbourne, VIC",https://www.eventbrite.com.au/e/closing-the-sale-training-tickets-885586201167?aff=ebdssbdestsearch,-37.8136276,144.9630576,
Employee Termination Processes Training,2025-05-28,08:00,Melbourne,"Melbourne Melbourne, VIC",https://www.eventbrite.com.au/e/employee-termination-processes-training-tickets-885512841747?aff=ebdssbdestsearch,-37.8136276,144.9630576,
Managing Poor Performance,2025-05-28,08:00,Melbourne,"Melbourne Melbourne, VIC",https://www.eventbrite.com.au/e/managing-poor-performance-tickets-885566562427?aff=ebdssbdestsearch,-37.8136276,144.9630576,
Complaint Handling Training,2025-05-28,08:00,Melbourne,"Melbourne Melbourne, VIC",https://www.eventbrite.com.au/e/complaint-handling-training-tickets-885475169067?aff=ebdssbdestsearch,-37.8136276,144.9630576,
Contact Centre Skills Training,2025-05-28,08:00,Melbourne,"Melbourne Melbourne, VIC",https://www.eventbrite.com.au/e/contact-centre-skills-training-tickets-885490976347?aff=ebdssbdestsearch,-37.8136276,144.9630576,
Emotional Intelligence (EQ) Leadership Training,2025-05-28,08:00,Melbourne,"Melbourne Melbourne, VIC",https://www.eventbrite.com.au/e/emotional-intelligence-eq-leadership-training-tickets-885483403697?aff=ebdssbdestsearch,-37.8136276,144.9630576,
Copywriting Fundamentals Training,2025-05-28,08:00,Melbourne,"Melbourne Melbourne, VIC",https://www.eventbrite.com.au/e/copywriting-fundamentals-training-tickets-885498027437?aff=ebdssbdestsearch,-37.8136276,144.9630576,
Communicating with Influence Training,2025-05-28,08:00,Melbourne,"Melbourne Melbourne, VIC",https://www.eventbrite.com.au/e/communicating-with-influence-training-tickets-885548749147?aff=ebdssbdestsearch,-37.8136276,144.9630576,
Active Listening Training,2025-05-28,08:00,Melbourne,"Melbourne Melbourne, VIC",https://www.eventbrite.com.au/e/active-listening-training-tickets-885539100287?aff=ebdssbdestsearch,-37.8136276,144.9630576,
Managing Difficult Conversations Training,2025-05-28,08:00,Melbourne,"Melbourne Melbourne, VIC",https://www.eventbrite.com.au/e/managing-difficult-conversations-training-tickets-885559982747?aff=ebdssbdestsearch,-37.8136276,144.9630576,
Customer Contact Training,2025-05-28,08:00,Melbourne,"Melbourne Melbourne, VIC",https://www.eventbrite.com.au/e/customer-contact-training-tickets-885519491637?aff=ebdssbdestsearch,-37.8136276,144.9630576,
RICHMOND - Professional Development Training Day for Property Managers,2025-05-28,10:00,REA Group Corporate Headquarters 511 Church Street Richmond VIC 3121,"511 Church Street Richmond, VIC 3121",https://www.eventbrite.com.au/e/richmond-professional-development-training-day-for-property-managers-tickets-1117257680799?aff=ebdssbdestsearch,-37.8289305,144.9974892,Business/Networking
Club Sup - Book Swap (Melbourne),2025-05-28,18:00,Hector's Deli,"111 Moor Street Fitzroy, VIC 3065",https://www.eventbrite.com.au/e/club-sup-book-swap-melbourne-tickets-1352929441379?aff=ebdssbdestsearch,-37.8015401,144.9786736,
Leading Through Confidence Training,2025-05-28,08:00,Melbourne,"Melbourne Melbourne, VIC",https://www.eventbrite.com.au/e/leading-through-confidence-training-tickets-885546211557?aff=ebdssbdestsearch,-37.8136276,144.9630576,
How to Generate $150K/Year From a Single Residential Property,2025-05-28,18:00,Quest Burwood East,"315 Burwood Highway Burwood East, VIC 3151",https://www.eventbrite.com.au/e/how-to-generate-150kyear-from-a-single-residential-property-tickets-1341667947949?aff=ebdssbdestsearch,-37.8536759,145.1624134,Business/Networking
"PURE - Beautiful Brunettes & Radiant Reds Theory Workshop - Melbourne, VIC",2025-05-28,13:30,Czar Workspace - Office Space & Coworking,"401 Collins Street #Level 2 Melbourne, VIC 3000",https://www.eventbrite.com.au/e/pure-beautiful-brunettes-radiant-reds-theory-workshop-melbourne-vic-tickets-1245556064719?aff=ebdssbdestsearch,-37.8172484,144.9612208,
Generation Gap Training,2025-05-28,08:00,Melbourne,"Melbourne Melbourne, VIC",https://www.eventbrite.com.au/e/generation-gap-training-tickets-885521016197?aff=ebdssbdestsearch,-37.8136276,144.9630576,
New Moon Sound Journey,2025-05-28,19:00,"Oracle of Crystals, 228 Glenferrie Road, Malvern VIC, Australia","228 Glenferrie Road Malvern, VIC 3144",https://www.eventbrite.com.au/e/new-moon-sound-journey-tickets-1351242475619?aff=ebdssbdestsearch,-37.8585334,145.0292064,Talks/Workshops
Journalism Training,2025-05-28,08:00,Melbourne,"Melbourne Melbourne, VIC",https://www.eventbrite.com.au/e/journalism-training-tickets-885541808387?aff=ebdssbdestsearch,-37.8136276,144.9630576,
Managing Emotions in the Workplace Training,2025-05-28,08:00,Melbourne,"Melbourne Melbourne, VIC",https://www.eventbrite.com.au/e/managing-emotions-in-the-workplace-training-tickets-885563643697?aff=ebdssbdestsearch,-37.8136276,144.9630576,
Gypsy King Jones Trio & Thursday Night Jam!,2025-05-29,00:00,Hume Blues Club Inc,"27 Ballantyne St, Thornbury VIC 3071, Australia",https://www.facebook.com/events/1227679685443287/,-37.7588241,144.9985126,
"GUERNS THURS: NEW SALOONICA :$4 Pots, Seltzers $6 Vodkas!",2025-05-29,00:00,New Guernica,"64 Smith St, Collingwood VIC 3066, Australia",https://www.facebook.com/events/1009451980910259/,-37.80624775,144.98331211946754,
Ullah 'If I Were A Fish' Tour,2025-05-29,19:30,The Old Bar,"74-76 Johnston St, Fitzroy VIC 3065, Australia",https://www.facebook.com/events/1697629500832996/,-37.79833,144.97711,
Hellphx live at last chance ,2025-05-29,00:00,The Last Chance,"238 Victoria St, Melbourne VIC 3000, Australia",https://www.facebook.com/events/2170732313376668/,-37.8059962,144.9585654,
Astral Flex of Circadian Rhythms Plus cocktail takeover by Rene Schaeffer of Serai Melbourne,2025-05-29,19:30,Uptown Jazz Cafe,"1/177 Brunswick St, Fitzroy VIC 3065, Australia",https://www.facebook.com/events/699936692980087/,-37.79705404,144.97869049756974,
Growing Pains EP Launch w/ Isadora ,2025-05-29,00:00,Shotkickers,"744 High St, Thornbury VIC 3071, Australia",https://www.facebook.com/events/1654636252604954/,-37.75592655,145.0013923,
Flow Motion ~ Late Night Jams,2025-05-29,19:00,Kindred Bandroom,"3 Harris St, Footscray VIC 3011, Australia",https://www.facebook.com/events/1897907714385531/,-37.8119001,144.9008247,
RMIT Study Expo,2025-05-29,17:00, RMIT University,"Building 16 336/348 Swanston St, Melbourne VIC 3000, Australia",https://www.facebook.com/events/1355113785617199/,-37.8091922,144.9639727,
THE NIGHT FLIGHT ORCHESTRA - Melbourne - Max Watts - Thur 29th May,2025-05-29,19:30,Max Watts,"125 Swanston St, Melbourne VIC 3000, Australia",https://www.facebook.com/events/1784165105478705/,-37.8147557,144.9659879,
Ezra Collective,2025-05-29,12:00,Forum Melbourne,"150 Flinders St, Melbourne VIC 3000, Australia",https://premier.ticketek.com.au/shows/show.aspx?sh=EZRACOL25,-37.8166268,144.9695761,
Melbourne International Comedy Festival Roadshow,2025-05-29,19:30,Melbourne International Comedy Festival,Melbourne,https://www.facebook.com/events/467154506404211/,-37.8136,144.9631,
Prinnie Stevens,2025-05-29,18:00,Bird's Basement,"11 Singers Ln, Melbourne VIC 3000, Australia",https://www.facebook.com/events/605199279078640/,-37.81114416,144.95680390283175,
The Beatnik Preachers LIVE & FREE at FAD GALLERY BAR,2025-05-29,20:30,Fad Gallery Bar,"14 Corrs Ln, Melbourne VIC 3000, Australia",https://www.facebook.com/events/3053365884821418/,-37.8112208,144.9684346,
SOLD OUT | EZRA COLLECTIVE | MELBOURNE | FORUM,2025-05-29,19:00,Forum Melbourne,"154 Flinders St, Melbourne VIC 3000, Australia",https://www.facebook.com/events/29349890464601890/,-37.81644145,144.9693768124984,
YAIMA ~ Live in MELBOURNE,2025-05-29,19:30,Northcote Theatre,"216 High St, Northcote VIC 3070, Australia",https://www.facebook.com/events/3873719349554223/,-37.7737068,144.9982706,
Movie Mixer Opening Night: THE PHOENICIAN SCHEME,2025-05-29,18:45,Palace Cinemas,"1 Champ St, Coburg VIC 3058, Australia",https://www.facebook.com/events/1367563017789448/,-37.736826,144.968318,
Point North (usa) with Zero 9:36 + More | Stay Gold Melbourne | May 29,2025-05-29,00:00,Stay Gold,"133 Sydney Rd, Brunswick VIC 3056, Australia",https://www.facebook.com/events/687035634050375/,-37.7743469,144.9607404,
