Event_Title,Date,Time,Venue,Address,url,Latitude,Longitude
SUMMER PARTY 2024,2000-01-01,12:00,Thomastown,"Thomastown Thomastown, VIC 3074",https://www.eventbrite.com.au/e/summer-party-2024-tickets-1072886395089?aff=ebdssbdestsearch,-37.6832672,145.0081104
ELITE TALKS 2024,2024-11-28,16:30,Kathleen Fitzpatrick Theatre,"The University of Melbounre Parkville, VIC 3052",https://www.eventbrite.com.au/e/elite-talks-2024-registration-1040283254217?aff=ebdssbdestsearch,,
Chapel Boxing Fight Night,2024-11-29,18:00,"Chapel Boxing and Fitness, Chapel Street, St Kilda VIC, Australia","2 Chapel Street St Kilda, VIC 3182",https://www.eventbrite.com/e/chapel-boxing-fight-night-tickets-1047744300407?aff=ebdssbdestsearch,-37.8588974,144.9927354
GYPSY!  The Australian Fleetwood Mac Tribute Show,2024-11-29,18:30,Olympic Hotel,"31 Albert Street Preston, VIC 3072",https://www.eventbrite.com.au/e/gypsy-the-australian-fleetwood-mac-tribute-show-tickets-1023087731947?aff=ebdssbdestsearch,-37.74658925,145.0214950221884
DSM Christmas Market,2024-11-29,17:00,Deutsche Schule Melbourne,"96 Barkly Street Fitzroy North, VIC 3068",https://www.eventbrite.com.au/e/dsm-christmas-market-tickets-1023140399477?aff=ebdssbdestsearch,-37.77889265,144.9829291370925
Mentor Walks Melbourne: Get guidance and grow your network,2024-11-29,07:10,"Under King Edward VII Monument (behind the floral clock), Queen Victoria Gardens","Saint Kilda Road Melbourne, VIC 3004",https://www.eventbrite.com.au/e/mentor-walks-melbourne-get-guidance-and-grow-your-network-tickets-856746430637?aff=ebdssbdestsearch,,
Yasss Queens Park 2024,2024-11-30,14:00,Queens Park,"Kellaway Avenue Moonee Ponds, VIC 3039",https://www.eventbrite.com.au/e/yasss-queens-park-2024-tickets-1021436974487?aff=ebdssbdestsearch,-37.7640651,144.9246036
ARTHOUSE SELECTIVE presents PRESSED,2024-11-30,12:00,Monphell House,"7-9 Brunswick Road Brunswick East, VIC 3057",https://www.eventbrite.com.au/e/arthouse-selective-presents-pressed-tickets-1075310796539?aff=ebdssbdestsearch,-37.778799,144.9772746
Rebellion Muaythai 32: 63.50Kg Eliminator // Roots 27: Ring the Alarm,2024-11-30,16:00,Melbourne Pavilion,"135-157 Racecourse Road Kensington, VIC 3031",https://www.eventbrite.com/e/rebellion-muaythai-32-6350kg-eliminator-roots-27-ring-the-alarm-tickets-1066632870629?aff=ebdssbdestsearch,-37.7889557,144.9363556
"EAT THE BEAT FESTIVAL ft. CARL COX, CHRIS LIEBING, LILLY PALMER, MHA IRI",2024-11-30,15:00,PICA (Port Melbourne Industrial Centre for the Arts),"1 Thackray Road Port Melbourne, VIC 3207",https://www.eventbrite.com.au/e/eat-the-beat-festival-ft-carl-cox-chris-liebing-lilly-palmer-mha-iri-tickets-904718947727?aff=ebdssbdestsearch,-37.8284751,144.9254729
Williamstown Beer and Cider Festival 2024,2024-11-30,12:00,Seaworks Maritime Precinct,"82 Nelson Place Williamstown, VIC 3016",https://www.eventbrite.com.au/e/williamstown-beer-and-cider-festival-2024-tickets-954442331707?aff=ebdssbdestsearch,-37.8634293,144.9069007
Alchemy | The Journey | Trance Classics feat Binary Finary,2024-11-30,20:00,24 Moons,"2 Arhurton Road Northcote, VIC 3070",https://www.eventbrite.com.au/e/alchemy-the-journey-trance-classics-feat-binary-finary-tickets-1037328576697?aff=ebdssbdestsearch,,
SOJI TRIVIA,2024-12-01,18:00,The Greenhouse,"518 High Street Northcote, VIC 3070",https://www.eventbrite.com.au/e/soji-trivia-tickets-1068024292409?aff=ebdssbdestsearch,-37.7633088,144.9998047
ABC14 Combined Scientific Meetings of ANZSB & ANZORS,2024-12-01,09:00,"John Street, Hawthorn VIC, Australia","John Street Hawthorn, VIC 3122",https://www.eventbrite.com/e/abc14-combined-scientific-meetings-of-anzsb-anzors-tickets-781037844217?aff=ebdssbdestsearch,-37.8215065,145.0390928
In Bold & Fox Events Co presents Merry Businessmas,2024-12-04,18:30,Le Ciel Events,"13 Cremorne Street #Level 6 Cremorne, VIC 3121",https://www.eventbrite.com.au/e/in-bold-fox-events-co-presents-merry-businessmas-tickets-1066179374209?aff=ebdssbdestsearch,,
The Melbourne Moth StorySLAM: SILVER LINING,2024-12-04,19:30,Howler,"7-11 Dawson St Brunswick, VIC 3056",https://www.eventbrite.com/e/the-melbourne-moth-storyslam-silver-lining-tickets-908470077457?aff=ebdssbdestsearch,-37.7720304,144.9596527
Professor Kate Crawford: Mapping Planetary AI,2024-12-05,19:30,State Library Victoria,"328 Swanston St Conversation Quarter Melbourne, VIC 3000",https://www.eventbrite.com.au/e/professor-kate-crawford-mapping-planetary-ai-tickets-1070309678059?aff=ebdssbdestsearch,,
Kickoff summer 2024,2024-12-06,20:00,30-34 Charles St,"30-34 Charles Street Coburg North, VIC 3058",https://www.eventbrite.com/e/kickoff-summer-2024-tickets-1071515615049?aff=ebdssbdestsearch,-37.7288278,144.9551439
"Unreal x Klangkuenstler ""All Night Long"" Australia",2024-12-06,19:00,PICA - Port Melbourne Industrial Centre of the Arts,"11 Woolboard Road Port Melbourne, VIC 3027",https://www.eventbrite.com.au/e/unreal-x-klangkuenstler-all-night-long-australia-tickets-865232964087?aff=ebdssbdestsearch,-37.8301736,144.9248531
ALWAYS LIVE Presents Jamaica Music and Food,2024-12-07,11:00,Seaworks Maritime Precinct,"82 Nelson Place Williamstown, VIC 3016",https://www.eventbrite.com.au/e/always-live-presents-jamaica-music-and-food-tickets-947617137367?aff=ebdssbdestsearch,-37.8634293,144.9069007
Australian National Jigsaw Puzzle Championships 2024,2024-12-07,09:00,State Sport Centres - MSAC,"30 Aughtie Drive Albert Park, VIC 3206",https://www.eventbrite.com.au/e/australian-national-jigsaw-puzzle-championships-2024-tickets-896814946647?aff=ebdssbdestsearch,-37.8393229,144.9635459
Melbourne Mingle | Traffic Light Party 2024,2024-12-07,20:00,The Black Rabbit,"85 Queen Street Melbourne, VIC 3000",https://www.eventbrite.com.au/e/melbourne-mingle-traffic-light-party-2024-tickets-1072888050039?aff=ebdssbdestsearch,-37.81889,144.9625902
"[MEL] MEMORIES X 07.12.2024 | QUOC THIEN, PHUONG THAO, HUYNH TU, MINH KHA",2024-12-07,07:30,Golf Square Sunshine,"8 Annastasia Way Sunshine North, VIC 3020",https://www.eventbrite.com.au/e/mel-memories-x-07122024-quoc-thien-phuong-thao-huynh-tu-minh-kha-tickets-1044580888557?aff=ebdssbdestsearch,-37.77493546849251,144.8274425703173
CCCS Conference 2024: Grounding Global China,2024-12-08,09:00,Sidney Myer Asia Institute,"761 Swanston Street #325 Parkville, VIC 3052",https://www.eventbrite.com.au/e/cccs-conference-2024-grounding-global-china-tickets-911006022537?aff=ebdssbdestsearch,,
MCW End Game 2024,2024-12-08,15:00,Melbourne Pavilion,"135-157 Racecourse Road Kensington, VIC 3031",https://www.eventbrite.com.au/e/mcw-end-game-2024-tickets-1006014355017?aff=ebdssbdestsearch,-37.7889557,144.9363556
The Witches Faire,2024-12-08,10:00,Hawthorn Arts Centre,"360 Burwood Road Hawthorn, VIC 3122",https://www.eventbrite.com/e/the-witches-faire-tickets-1023098153117?aff=ebdssbdestsearch,-37.8230335,145.03588565533943
Master of Speech Pathology Celebration and Awards Evening 2024,2024-12-12,18:00,Melbourne Business School,"200 Leicester Street Carlton, VIC 3053",https://www.eventbrite.com.au/e/master-of-speech-pathology-celebration-and-awards-evening-2024-tickets-1033125515227?aff=ebdssbdestsearch,-37.801358,144.96116515896085
ATAR Results Party,2024-12-12,20:00,onesixone rooftop,"161 high st prahran, VIC 3181",https://www.eventbrite.com.au/e/atar-results-party-tickets-864801172587?aff=ebdssbdestsearch,-37.851542,144.9909994
Women Of Westpac Christmas Event,2024-12-12,04:30,150 Collins St,"150 Collins Street Melbourne, VIC 3000",https://www.eventbrite.com/e/women-of-westpac-christmas-event-tickets-1040251228427?aff=ebdssbdestsearch,-37.8164276,144.9630757
Spectrum Gala 2024,2024-12-13,19:00,Almina,"624 Sydney Road #1 Brunswick, VIC 3056",https://www.eventbrite.com.au/e/spectrum-gala-2024-tickets-1075331147409?aff=ebdssbdestsearch,,
The DOT presents GOLDIE (3 Hour Set),2024-12-13,21:00,The Third Day,"290 Macaulay Road North Melbourne, VIC 3051",https://www.eventbrite.com.au/e/the-dot-presents-goldie-3-hour-set-tickets-1079170641439?aff=ebdssbdestsearch,-37.79495975,144.93665199999998
ATET Forever: The Journey,2024-12-13,19:00,Docklands,"docklands ferry Docklands, VIC 3008",https://www.eventbrite.com.au/e/atet-forever-the-journey-tickets-1093457453679?aff=ebdssbdestsearch,,
AGE Of LOVE - P!NK Party,2024-12-14,21:00,The Nashaa Club,"8 Jackson Street Toorak, VIC 3142",https://www.eventbrite.com.au/e/age-of-love-pnk-party-tickets-964336274757?aff=ebdssbdestsearch,-37.8399924,145.0075974
"SHOOTERS SHOOT: 4TH MAJOR CHARITY BASKETBALL EVENT, 4 OURS",2024-12-14,10:00,Seaworks Maritime Precinct,"82 Nelson Place #82 Williamstown, VIC 3016",https://www.eventbrite.com/e/shooters-shoot-4th-major-charity-basketball-event-4-ours-tickets-1054456871889?aff=ebdssbdestsearch,,
Warg presents Stef Mendesidis [LIVE],2024-12-14,19:00,The Third Day,"290 Macaulay Road North Melbourne, VIC 3051",https://www.eventbrite.com.au/e/warg-presents-stef-mendesidis-live-tickets-1075324327009?aff=ebdssbdestsearch,-37.79495975,144.93665199999998
ATET Forever: JÄMO & KUMI,2024-12-15,18:00,Docklands,"docklands ferry Docklands, VIC 3008",https://www.eventbrite.com.au/e/atet-forever-jamo-kumi-tickets-1091823285839?aff=ebdssbdestsearch,,
SUNDAYLICIOUS | THE PRECINCT | SUNDAY DEC 15 | 3pm- 11pm | LGBTQIA+ event,2024-12-15,15:00,The Precinct Hotel,"60 Swan Street Cremorne, VIC 3121",https://www.eventbrite.com.au/e/sundaylicious-the-precinct-sunday-dec-15-3pm-11pm-lgbtqia-event-tickets-941690550787?aff=ebdssbdestsearch,-37.8248049,144.9898477
墨尔本-望子成凤返场,2024-12-15,07:30,Library at The Dock,"107 Victoria Harbour Promenade Docklands, VIC 3008",https://www.eventbrite.com/e/1079981617089?aff=ebdssbdestsearch,-37.8200204,144.94054449965813
Eat The Beat : BOXING DAY BOAT PARTY,2024-12-26,05:30,131 Harbour Esplanade,"131 Harbour Esplanade Docklands, VIC 3008",https://www.eventbrite.com.au/e/eat-the-beat-boxing-day-boat-party-tickets-1076278300369?aff=ebdssbdestsearch,-37.81688845,144.9451909021013
The D.O.T 2025,2025-01-04,13:00,Melbourne Pavilion,"135-157 Racecourse Road Kensington, VIC 3031",https://www.eventbrite.com.au/e/the-dot-2025-tickets-1046642585147?aff=ebdssbdestsearch,-37.7889557,144.9363556
DANGEROUS GOODS 4XXL - BLACK FRIDAY SALE!,2025-01-25,14:00,PICA (Port Melbourne Industrial Centre for the Arts),"11 Woolboard Road Port Melbourne, VIC 3207",https://www.eventbrite.com.au/e/dangerous-goods-4xxl-black-friday-sale-tickets-928323930867?aff=ebdssbdestsearch,-37.83011069919388,144.92517077127118
BAND COMPETITION - Good Things Festival Band Comp // Melbourne // Final,,20:45,Cinema Nova,"380 Lygon St, Carlton VIC 3053, Australia",https://www.facebook.com/events/860045712611911/,-37.7978092,144.9680124
BAND COMPETITION - Good Things Festival Band Comp // Melbourne // Final,,19:00,Northcote Theatre,"216 High St, Northcote VIC 3070, Australia",https://www.facebook.com/events/1081114210192060/,-37.7737068,144.9982706
BAND COMPETITION - Good Things Festival Band Comp // Melbourne // Final,,13:00,Palace Cinemas,"1 Champ St, Coburg VIC 3058, Australia",https://www.facebook.com/events/1091741695943924/,-37.736826,144.968318
BAND COMPETITION - Good Things Festival Band Comp // Melbourne // Final,,22:30,StoryVille,"185 Lonsdale St, Melbourne VIC 3000, Australia",https://www.facebook.com/events/27534464322864348/,-37.81117675,144.9668442406415
BAND COMPETITION - Good Things Festival Band Comp // Melbourne // Final,,13:00,Cinema Nova,"380 Lygon St, Carlton VIC 3053, Australia",https://www.facebook.com/events/928519105840969/,-37.7978092,144.9680124
BAND COMPETITION - Good Things Festival Band Comp // Melbourne // Final,,12:45,Cinema Nova,"380 Lygon St, Carlton VIC 3053, Australia",https://www.facebook.com/events/1263529054847345/,-37.7978092,144.9680124
BAND COMPETITION - Good Things Festival Band Comp // Melbourne // Final,,21:00,Brown Alley,"585 Lonsdale St, Melbourne VIC 3000, Australia",https://www.facebook.com/events/610060771686637/,-37.8146155,144.9552495
BAND COMPETITION - Good Things Festival Band Comp // Melbourne // Final,,19:00,Revolver Upstairs,"Level 2/229 Chapel St, Prahran VIC 3181, Australia",https://www.facebook.com/events/425731170326645/,-37.8505902,144.9933469
BAND COMPETITION - Good Things Festival Band Comp // Melbourne // Final,,19:00,Max Watts,"125 Swanston St, Melbourne VIC 3000, Australia",https://www.facebook.com/events/1040941070941784/,-37.8147557,144.9659879
BAND COMPETITION - Good Things Festival Band Comp // Melbourne // Final,,17:00,Secret Garden Bar,"7/60 Fitzroy St, St Kilda VIC 3182, Australia",https://www.facebook.com/events/276233187077403/,-37.85747233,144.98140261298386
BAND COMPETITION - Good Things Festival Band Comp // Melbourne // Final,,10:30,Palace Cinemas,"1 Champ St, Coburg VIC 3058, Australia",https://www.facebook.com/events/898755179031993/,-37.736826,144.968318
BAND COMPETITION - Good Things Festival Band Comp // Melbourne // Final,,20:00,Max Watts,"125 Swanston St, Melbourne VIC 3000, Australia",https://www.facebook.com/events/1897115354060500/,-37.8147557,144.9659879
BAND COMPETITION - Good Things Festival Band Comp // Melbourne // Final,,19:00,Forum Melbourne,"154 Flinders St, Melbourne VIC 3000, Australia",https://www.facebook.com/events/1658152661400722/,-37.81644145,144.9693768124984
BAND COMPETITION - Good Things Festival Band Comp // Melbourne // Final,,09:00,24 Moons,"2 Arthurton Rd, Northcote VIC 3070, Australia",https://www.facebook.com/events/485148191233227/,-37.7691418,144.9982614
BAND COMPETITION - Good Things Festival Band Comp // Melbourne // Final,,14:00,EMO NEVER SLEEPS,"629 Bourke St, Melbourne VIC 3004, Australia",https://www.facebook.com/events/307391512396163/,-37.8167994,144.9552063
BAND COMPETITION - Good Things Festival Band Comp // Melbourne // Final,,19:30,Inkerman Hotel,"375 Inkerman St, St Kilda East VIC 3183, Australia",https://www.facebook.com/events/2779506008881959/,-37.866444,144.99799715146656
BAND COMPETITION - Good Things Festival Band Comp // Melbourne // Final,,19:00,The Last Chance,"238 Victoria St, Melbourne VIC 3000, Australia",https://www.facebook.com/events/851626583802872/,-37.8059962,144.9585654
BAND COMPETITION - Good Things Festival Band Comp // Melbourne // Final,,22:00,StoryVille,"185 Lonsdale St, Melbourne VIC 3000, Australia",https://www.facebook.com/events/1800895414056562/,-37.81117675,144.9668442406415
BAND COMPETITION - Good Things Festival Band Comp // Melbourne // Final,,20:00,Shotkickers,"744 High St, Thornbury VIC 3071, Australia",https://www.facebook.com/events/851349990511078/,-37.75592655,145.0013923
BAND COMPETITION - Good Things Festival Band Comp // Melbourne // Final,,20:00,Altona Sports Club,"11 Altona Rd, Altona VIC 3018, Australia",https://www.facebook.com/events/1322440642462023/,-37.85754867,144.85121805353086
BAND COMPETITION - Good Things Festival Band Comp // Melbourne // Final,,15:00,Arts Centre Melbourne,"100 St Kilda Rd, Southbank VIC 3004, Australia",https://www.facebook.com/events/7899113556871811/,-37.8216405,144.9683143
BAND COMPETITION - Good Things Festival Band Comp // Melbourne // Final,,19:00,Stay Gold,"133 Sydney Rd, Brunswick VIC 3056, Australia",https://www.facebook.com/events/1568764510674101/,-37.7743469,144.9607404
BAND COMPETITION - Good Things Festival Band Comp // Melbourne // Final,,19:00,George Lane St Kilda,"1 George Ln, St Kilda VIC 3182, Australia",https://www.facebook.com/events/1227125368493199/,-37.85997305,144.9780306
BAND COMPETITION - Good Things Festival Band Comp // Melbourne // Final,,19:00,MEMO Music Hall,"88 Acland St, St Kilda VIC 3182, Australia",https://www.facebook.com/events/1091930025876651/,-37.8671902,144.9786817
BAND COMPETITION - Good Things Festival Band Comp // Melbourne // Final,,19:00,Red Betty,"859a Sydney Rd, Brunswick VIC 3056, Australia",https://www.facebook.com/events/1284425475922011/,-37.77018614,144.96159377021291
BAND COMPETITION - Good Things Festival Band Comp // Melbourne // Final,,19:30,Northcote Social Club,"301 High St, Northcote VIC 3070, Australia",https://www.facebook.com/events/934591592203455/,-37.771471,144.998414
BAND COMPETITION - Good Things Festival Band Comp // Melbourne // Final,,19:00,Musicland Melbourne,"1359 Sydney Rd, Fawkner VIC 3060, Australia",https://www.facebook.com/events/392049400005701/,-37.6916774,144.9585701581541
BAND COMPETITION - Good Things Festival Band Comp // Melbourne // Final,,19:00,The Merri Creek Tavern,"111 High St, Northcote VIC 3070, Australia",https://www.facebook.com/events/1188087808931212/,-37.7794356,144.996838
BAND COMPETITION - Good Things Festival Band Comp // Melbourne // Final,,20:00,Good Things Festival,"448 Epsom Rd, Flemington VIC 3031, Australia",https://www.facebook.com/events/2120057538389573/,-37.78925135,144.9127712588256
BAND COMPETITION - Good Things Festival Band Comp // Melbourne // Final,,18:45,Cinema Nova,"380 Lygon St, Carlton VIC 3053, Australia",https://www.facebook.com/events/1536686260312827/,-37.7978092,144.9680124
BAND COMPETITION - Good Things Festival Band Comp // Melbourne // Final,,18:30,Palace Cinemas,"1 Champ St, Coburg VIC 3058, Australia",https://www.facebook.com/events/439338735510597/,-37.736826,144.968318
BAND COMPETITION - Good Things Festival Band Comp // Melbourne // Final,,19:00,Mamma Chen's,"42A Albert St, Footscray VIC 3011, Australia",https://www.facebook.com/events/8182491308521964/,-37.8047552,144.89727240000002
BAND COMPETITION - Good Things Festival Band Comp // Melbourne // Final,,18:00,Fortress Melbourne,"Shop 25/23 Caledonian Ln, Melbourne VIC 3000, Australia",https://www.facebook.com/events/1617677221972877/,-37.8120357,144.9642299
BAND COMPETITION - Good Things Festival Band Comp // Melbourne // Final,,18:00,The Gaming Arena,"123 Bakers Rd, Coburg North VIC 3058, Australia",https://www.facebook.com/events/912618530441913/,-37.72715826,144.96115535488718
BAND COMPETITION - Good Things Festival Band Comp // Melbourne // Final,,19:30,Bar Oussou,"653 Sydney Rd, Brunswick VIC 3056, Australia",https://www.facebook.com/events/844277771021573/,-37.7618155,144.9628753
BAND COMPETITION - Good Things Festival Band Comp // Melbourne // Final,,19:00,Retreat Hotel,"Level 1/280 Sydney Rd, Brunswick VIC 3056, Australia",https://www.facebook.com/events/9589668451095704/,-37.7711487,144.9615949
BAND COMPETITION - Good Things Festival Band Comp // Melbourne // Final,,19:30,Open Studio,"204 High St, Northcote VIC 3070, Australia",https://www.facebook.com/events/892283035769495/,-37.7742382,144.9981587
BAND COMPETITION - Good Things Festival Band Comp // Melbourne // Final,,18:00,Bird's Basement,"11 Singers Ln, Melbourne VIC 3000, Australia",https://www.facebook.com/events/1753273782169213/,-37.81114416,144.95680390283175
BAND COMPETITION - Good Things Festival Band Comp // Melbourne // Final,,20:00,Ragtime Tavern,"206 Tyler St, Preston VIC 3072, Australia",https://www.facebook.com/events/495160123392132/,-37.7310367,145.0142411
BAND COMPETITION - Good Things Festival Band Comp // Melbourne // Final,,20:00,24 Moons,"2 Arthurton Rd, Northcote VIC 3070, Australia",https://www.facebook.com/events/8747371932042175/,-37.7691418,144.9982614
BAND COMPETITION - Good Things Festival Band Comp // Melbourne // Final,,20:30,Palais Theatre,"Lower Esplanade, St Kilda VIC 3182, Australia",https://www.facebook.com/events/1432624140694207/,-37.86708671,144.97599656199426
BAND COMPETITION - Good Things Festival Band Comp // Melbourne // Final,,19:00,Hume Blues Club Inc,"27 Ballantyne St, Thornbury VIC 3071, Australia",https://www.facebook.com/events/539498501980260/,-37.7588241,144.9985126
BAND COMPETITION - Good Things Festival Band Comp // Melbourne // Final,,20:00,The Night Cat,"137-141 Johnston St, Fitzroy VIC 3065, Australia",https://www.facebook.com/events/1524794968176362/,-37.7982971,144.978128
BAND COMPETITION - Good Things Festival Band Comp // Melbourne // Final,,19:30,Howler,"7-11 Dawson St, Brunswick VIC 3056, Australia",https://www.facebook.com/events/1046346677134164/,-37.7720304,144.9596527
BAND COMPETITION - Good Things Festival Band Comp // Melbourne // Final,,19:00,Kindred Bandroom,"3 Harris St, Footscray VIC 3011, Australia",https://www.facebook.com/events/1259750165171612/,-37.8119001,144.9008247
BAND COMPETITION - Good Things Festival Band Comp // Melbourne // Final,,20:00,The Merri Creek Tavern,"111 High St, Northcote VIC 3070, Australia",https://www.facebook.com/events/598004375890718/,-37.7794356,144.996838
BAND COMPETITION - Good Things Festival Band Comp // Melbourne // Final,,20:30,Fad Gallery Bar,"14 Corrs Ln, Melbourne VIC 3000, Australia",https://www.facebook.com/events/528811026812453/,-37.8112208,144.9684346
BAND COMPETITION - Good Things Festival Band Comp // Melbourne // Final,,14:00,Kindred Bandroom,"3 Harris St, Footscray VIC 3011, Australia",https://www.facebook.com/events/8698942073504576/,-37.8119001,144.9008247
BAND COMPETITION - Good Things Festival Band Comp // Melbourne // Final,,20:00,Bar Oussou,"653 Sydney Rd, Brunswick VIC 3056, Australia",https://www.facebook.com/events/1562264308501104/,-37.7618155,144.9628753
BAND COMPETITION - Good Things Festival Band Comp // Melbourne // Final,,19:30,Bergy Bandroom,"64 Sydney Rd, Brunswick VIC 3056, Australia",https://www.facebook.com/events/539471155313524/,-37.776327,144.9607158
BAND COMPETITION - Good Things Festival Band Comp // Melbourne // Final,,21:30,Punters Club,"376 Brunswick St, Fitzroy VIC 3065, Australia",https://www.facebook.com/events/2536488899883343/,-37.7960561,144.9790327
BAND COMPETITION - Good Things Festival Band Comp // Melbourne // Final,,19:00,The Workers Club,"51 Brunswick St, Fitzroy VIC 3065, Australia",https://www.facebook.com/events/1110865717299277/,-37.8055776,144.9769450659087
BAND COMPETITION - Good Things Festival Band Comp // Melbourne // Final,,19:00,Altona Sports Club,"11 Altona Rd, Altona VIC 3018, Australia",https://www.facebook.com/events/3479359225530266/,-37.85754867,144.85121805353086
BAND COMPETITION - Good Things Festival Band Comp // Melbourne // Final,,18:00,CERES Environment Park,"Stewart St & Roberts St East, Brunswick VIC 3056, Australia",https://www.facebook.com/events/2987264611429673/,-37.765454,144.9831564
BAND COMPETITION - Good Things Festival Band Comp // Melbourne // Final,,22:00,onesixone,"161 High St, Prahran VIC 3181, Australia",https://www.facebook.com/events/1221284035759546/,-37.85425256,145.0112666323418
BAND COMPETITION - Good Things Festival Band Comp // Melbourne // Final,,20:00,Open Studio,"204 High St, Northcote VIC 3070, Australia",https://www.facebook.com/events/459221979958770/,-37.7742382,144.9981587
BAND COMPETITION - Good Things Festival Band Comp // Melbourne // Final,,19:00,Bad Decisions Bar,"46 Johnston St, Fitzroy VIC 3065, Australia",https://www.facebook.com/events/536600069291306/,-37.798246,144.9762881
BAND COMPETITION - Good Things Festival Band Comp // Melbourne // Final,,21:30,New Guernica,"64 Smith St, Collingwood VIC 3066, Australia",https://www.facebook.com/events/1045472267350812/,-37.80624775,144.98331211946754
BAND COMPETITION - Good Things Festival Band Comp // Melbourne // Final,,19:00,Inkerman Hotel,"375 Inkerman St, St Kilda East VIC 3183, Australia",https://www.facebook.com/events/508452218649178/,-37.866444,144.99799715146656
BAND COMPETITION - Good Things Festival Band Comp // Melbourne // Final,,22:00,Bar Oussou,"653 Sydney Rd, Brunswick VIC 3056, Australia",https://www.facebook.com/events/1080658566695749/,-37.7618155,144.9628753
BAND COMPETITION - Good Things Festival Band Comp // Melbourne // Final,,18:30,The Gaming Arena,"123 Bakers Rd, Coburg North VIC 3058, Australia",https://www.facebook.com/events/1617564228827173/,-37.72715826,144.96115535488718
BAND COMPETITION - Good Things Festival Band Comp // Melbourne // Final,,09:00,Keilor Basketball Netball Stadium,"Stadium Dr, Keilor Park VIC 3042, Australia",https://www.facebook.com/events/408883291671962/,-37.71397544,144.85424970601656
BAND COMPETITION - Good Things Festival Band Comp // Melbourne // Final,,20:00,Bar 303,"303 High St, Northcote VIC 3070, Australia",https://www.facebook.com/events/408121785680711/,-37.7713296,144.99828116650363
BAND COMPETITION - Good Things Festival Band Comp // Melbourne // Final,,17:30,Mamma Chen's,"42A Albert St, Footscray VIC 3011, Australia",https://www.facebook.com/events/566229132473425/,-37.8047552,144.89727240000002
BAND COMPETITION - Good Things Festival Band Comp // Melbourne // Final,,19:00,Second Story,"222A Johnston St, Collingwood VIC 3066, Australia",https://www.facebook.com/events/8809337909126669/,-37.79913366,144.9859876802753
BAND COMPETITION - Good Things Festival Band Comp // Melbourne // Final,,20:00,Lucky 13 Garage,"8 Cochranes Rd, Moorabbin VIC 3189, Australia",https://www.facebook.com/events/1575805869716619/,-37.94349189,145.07036236060654
BAND COMPETITION - Good Things Festival Band Comp // Melbourne // Final,,19:30,The Merri Creek Tavern,"111 High St, Northcote VIC 3070, Australia",https://www.facebook.com/events/483483040677607/,-37.7794356,144.996838
BAND COMPETITION - Good Things Festival Band Comp // Melbourne // Final,,18:40,Cinema Nova,"380 Lygon St, Carlton VIC 3053, Australia",https://www.facebook.com/events/3358916720918636/,-37.7978092,144.9680124
BAND COMPETITION - Good Things Festival Band Comp // Melbourne // Final,,19:30,Uptown Jazz Cafe,"1/177 Brunswick St, Fitzroy VIC 3065, Australia",https://www.facebook.com/events/528515086675002/,-37.79705404,144.97869049756974
BAND COMPETITION - Good Things Festival Band Comp // Melbourne // Final,,19:30,One2three Bar,"123 Queens Parade, Clifton Hill VIC 3068, Australia",https://www.facebook.com/events/878568654378283/,-37.7892833,144.9901391
BAND COMPETITION - Good Things Festival Band Comp // Melbourne // Final,,23:00,Sub Club Melbourne,"Flinders Ct, Melbourne VIC 3000, Australia",https://www.facebook.com/events/9138371579506965/,-37.81776587,144.96433104920948
BAND COMPETITION - Good Things Festival Band Comp // Melbourne // Final,,19:00,EMO NEVER SLEEPS,"629 Bourke St, Melbourne VIC 3004, Australia",https://www.facebook.com/events/8620341981386605/,-37.8167994,144.9552063
BAND COMPETITION - Good Things Festival Band Comp // Melbourne // Final,,21:00,New Guernica,"64 Smith St, Collingwood VIC 3066, Australia",https://www.facebook.com/events/1062987032227999/,-37.80624775,144.98331211946754
BAND COMPETITION - Good Things Festival Band Comp // Melbourne // Final,,20:00,Laundry Bar,"50 Johnston St, Fitzroy VIC 3065, Australia",https://www.facebook.com/events/1559493408003884/,-37.7983139,144.9764962
BAND COMPETITION - Good Things Festival Band Comp // Melbourne // Final,,18:30,Brunswick Ballroom,"314 Sydney Rd, Brunswick VIC 3056, Australia",https://www.facebook.com/events/964204142414565/,-37.7704205,144.9617083
BAND COMPETITION - Good Things Festival Band Comp // Melbourne // Final,,21:00,Laundry Bar,"50 Johnston St, Fitzroy VIC 3065, Australia",https://www.facebook.com/events/1069021031291019/,-37.7983139,144.9764962
BAND COMPETITION - Good Things Festival Band Comp // Melbourne // Final,,20:00,Kindred Bandroom,"3 Harris St, Footscray VIC 3011, Australia",https://www.facebook.com/events/1934297767074884/,-37.8119001,144.9008247
BAND COMPETITION - Good Things Festival Band Comp // Melbourne // Final,,19:30,The Thornbury Theatre,"859 High St, Thornbury VIC 3071, Australia",https://www.facebook.com/events/997685448516863/,-37.754662,145.0011167
BAND COMPETITION - Good Things Festival Band Comp // Melbourne // Final,,21:15,Altona Sports Club,"11 Altona Rd, Altona VIC 3018, Australia",https://www.facebook.com/events/513651934543795/,-37.85754867,144.85121805353086
BAND COMPETITION - Good Things Festival Band Comp // Melbourne // Final,,18:00,Punters Club,"376 Brunswick St, Fitzroy VIC 3065, Australia",https://www.facebook.com/events/1305201464168285/,-37.7960561,144.9790327
BAND COMPETITION - Good Things Festival Band Comp // Melbourne // Final,,22:00,Punters Club,"376 Brunswick St, Fitzroy VIC 3065, Australia",https://www.facebook.com/events/9013544508761924/,-37.7960561,144.9790327
BAND COMPETITION - Good Things Festival Band Comp // Melbourne // Final,,20:00,On The Rocks Bar Crawl Melbourne,"The Joint, 35 Elizabeth St, Melbourne VIC 3000, Australia",https://www.facebook.com/events/302113586202741/,-37.8172989,144.9643996
BAND COMPETITION - Good Things Festival Band Comp // Melbourne // Final,,19:00,The Penny Black,"420 Sydney Rd, Brunswick VIC 3056, Australia",https://www.facebook.com/events/890233243059084/,-37.7679775,144.9621651
BAND COMPETITION - Good Things Festival Band Comp // Melbourne // Final,,19:30,Palais Theatre,"Lower Esplanade, St Kilda VIC 3182, Australia",https://www.facebook.com/events/964344361619456/,-37.86708671,144.97599656199426
BAND COMPETITION - Good Things Festival Band Comp // Melbourne // Final,,21:00,Mango Club,"577 Little Bourke St Docklands VIC 3000, Australia",https://www.facebook.com/events/1273850687373977/,-37.81578222,144.95396129427266
BAND COMPETITION - Good Things Festival Band Comp // Melbourne // Final,,21:00,THE CURTIN (John Curtin hotel),"29 Lygon St, Carlton VIC 3053, Australia",https://www.facebook.com/events/1580879152527241/,-37.8061581,144.9657057
BAND COMPETITION - Good Things Festival Band Comp // Melbourne // Final,,20:00,The Workers Club,"51 Brunswick St, Fitzroy VIC 3065, Australia",https://www.facebook.com/events/1569289953942033/,-37.8055776,144.9769450659087
BAND COMPETITION - Good Things Festival Band Comp // Melbourne // Final,,22:00,Revolver Upstairs,"Level 2/229 Chapel St, Prahran VIC 3181, Australia",https://www.facebook.com/events/1663607770865411/,-37.8505902,144.9933469
BAND COMPETITION - Good Things Festival Band Comp // Melbourne // Final,,18:30,arcobar heatherton,"8 Arco Ln, Heatherton VIC 3202, Australia",https://www.facebook.com/events/1868337756994118/,-37.94673685,145.07837928457485
BAND COMPETITION - Good Things Festival Band Comp // Melbourne // Final,,18:30,Open Studio,"204 High St, Northcote VIC 3070, Australia",https://www.facebook.com/events/580292704323252/,-37.7742382,144.9981587
BAND COMPETITION - Good Things Festival Band Comp // Melbourne // Final,,20:00,Wax Music Lounge,"250 Flinders St, Melbourne VIC 3000, Australia",https://www.facebook.com/events/519102081100164/,-37.8176298,144.9661635
BAND COMPETITION - Good Things Festival Band Comp // Melbourne // Final,,21:00,Open Studio,"204 High St, Northcote VIC 3070, Australia",https://www.facebook.com/events/528218920102132/,-37.7742382,144.9981587
BAND COMPETITION - Good Things Festival Band Comp // Melbourne // Final,,19:00,170 Russell,"170 Russell St, Melbourne VIC 3000, Australia",https://www.facebook.com/events/549701127413257/,-37.8120109,144.9679369
BAND COMPETITION - Good Things Festival Band Comp // Melbourne // Final,,20:00,Palais Theatre,"Lower Esplanade, St Kilda VIC 3182, Australia",https://www.facebook.com/events/875899220610697/,-37.86708671,144.97599656199426
BAND COMPETITION - Good Things Festival Band Comp // Melbourne // Final,,18:00,Howler,"7-11 Dawson St, Brunswick VIC 3056, Australia",https://www.facebook.com/events/924051169585668/,-37.7720304,144.9596527
BAND COMPETITION - Good Things Festival Band Comp // Melbourne // Final,,20:00,Bergy Bandroom,"64 Sydney Rd, Brunswick VIC 3056, Australia",https://www.facebook.com/events/1236709104203511/,-37.776327,144.9607158
BAND COMPETITION - Good Things Festival Band Comp // Melbourne // Final,,21:00,The Night Cat,"137-141 Johnston St, Fitzroy VIC 3065, Australia",https://www.facebook.com/events/491857240259009/,-37.7982971,144.978128
BAND COMPETITION - Good Things Festival Band Comp // Melbourne // Final,,19:00,Brunswick Ballroom,"314 Sydney Rd, Brunswick VIC 3056, Australia",https://www.facebook.com/events/451153044154591/,-37.7704205,144.9617083
BAND COMPETITION - Good Things Festival Band Comp // Melbourne // Final,,20:30,Oakleigh Carnegie RSL,"95/97 Drummond St, Oakleigh VIC 3166, Australia",https://www.facebook.com/events/3513486142296206/,-37.8968576,145.08963741959553
BAND COMPETITION - Good Things Festival Band Comp // Melbourne // Final,,13:00,Brunswick Ballroom,"314 Sydney Rd, Brunswick VIC 3056, Australia",https://www.facebook.com/events/1352705972104342/,-37.7704205,144.9617083
BAND COMPETITION - Good Things Festival Band Comp // Melbourne // Final,,14:00,Howler,"7-11 Dawson St, Brunswick VIC 3056, Australia",https://www.facebook.com/events/8705244386185188/,-37.7720304,144.9596527
BAND COMPETITION - Good Things Festival Band Comp // Melbourne // Final,,17:00,Stay Gold,"133 Sydney Rd, Brunswick VIC 3056, Australia",https://www.facebook.com/events/2021353361659738/,-37.7743469,144.9607404
BAND COMPETITION - Good Things Festival Band Comp // Melbourne // Final,,19:30,Palladium at Crown,"Level 1 Crown Towers, Crown Melbourne, 8 Whiteman St, Southbank VIC 3006, Australia",https://www.facebook.com/events/1761622021290878/,-37.822181,144.959875
BAND COMPETITION - Good Things Festival Band Comp // Melbourne // Final,,20:00,Transport Hotel,"Transport Hotel, Ground Level Federation Square, Melbourne VIC 3000, Australia",https://www.facebook.com/events/1063377405038517/,-37.81835059,144.9683925
BAND COMPETITION - Good Things Festival Band Comp // Melbourne // Final,,16:00,Transport Hotel,"Transport Hotel, Ground Level Federation Square, Melbourne VIC 3000, Australia",https://www.facebook.com/events/530453529847830/,-37.81835059,144.9683925
BAND COMPETITION - Good Things Festival Band Comp // Melbourne // Final,,17:00,Marvel Stadium,"740 Bourke St, Docklands VIC 3008, Australia",https://www.facebook.com/events/508668991590162/,-37.816529,144.94751697668812
BAND COMPETITION - Good Things Festival Band Comp // Melbourne // Final,,19:35,Uptown Jazz Cafe,"1/177 Brunswick St, Fitzroy VIC 3065, Australia",https://www.facebook.com/events/1629717784557769/,-37.79705404,144.97869049756974
BAND COMPETITION - Good Things Festival Band Comp // Melbourne // Final,,19:00,Open Studio,"204 High St, Northcote VIC 3070, Australia",https://www.facebook.com/events/979600963925160/,-37.7742382,144.9981587
BAND COMPETITION - Good Things Festival Band Comp // Melbourne // Final,,17:00,Punters Club,"376 Brunswick St, Fitzroy VIC 3065, Australia",https://www.facebook.com/events/8700865783364283/,-37.7960561,144.9790327
BAND COMPETITION - Good Things Festival Band Comp // Melbourne // Final,,13:00,The Workers Club,"51 Brunswick St, Fitzroy VIC 3065, Australia",https://www.facebook.com/events/2262996257393322/,-37.8055776,144.9769450659087
BAND COMPETITION - Good Things Festival Band Comp // Melbourne // Final,,11:00,Stay Gold,"133 Sydney Rd, Brunswick VIC 3056, Australia",https://www.facebook.com/events/1201626830924024/,-37.7743469,144.9607404
BAND COMPETITION - Good Things Festival Band Comp // Melbourne // Final,,19:30,The Toff,"2f/252 Swanston St, Melbourne VIC 3000, Australia",https://www.facebook.com/events/1263990794639927/,-37.80660325,144.9628141258931
BAND COMPETITION - Good Things Festival Band Comp // Melbourne // Final,,14:30,George Lane St Kilda,"1 George Ln, St Kilda VIC 3182, Australia",https://www.facebook.com/events/517026814446745/,-37.85997305,144.9780306
BAND COMPETITION - Good Things Festival Band Comp // Melbourne // Final,,20:30,Bar 303,"303 High St, Northcote VIC 3070, Australia",https://www.facebook.com/events/566445886073913/,-37.7713296,144.99828116650363
BAND COMPETITION - Good Things Festival Band Comp // Melbourne // Final,,18:00,Bar Oussou,"653 Sydney Rd, Brunswick VIC 3056, Australia",https://www.facebook.com/events/544873758255336/,-37.7618155,144.9628753
BAND COMPETITION - Good Things Festival Band Comp // Melbourne // Final,,14:00,Mamma Chen's,"42A Albert St, Footscray VIC 3011, Australia",https://www.facebook.com/events/1194216934967309/,-37.8047552,144.89727240000002
BAND COMPETITION - Good Things Festival Band Comp // Melbourne // Final,,21:00,Bar Open,"317 Brunswick St, Fitzroy VIC 3065, Australia",https://www.facebook.com/events/1117439066603008/,-37.79773,144.978425
BAND COMPETITION - Good Things Festival Band Comp // Melbourne // Final,,15:00,The Last Chance,"238 Victoria St, Melbourne VIC 3000, Australia",https://www.facebook.com/events/1276625326842437/,-37.8059962,144.9585654
BAND COMPETITION - Good Things Festival Band Comp // Melbourne // Final,,16:00,Bar Oussou,"653 Sydney Rd, Brunswick VIC 3056, Australia",https://www.facebook.com/events/866828465622916/,-37.7618155,144.9628753
BAND COMPETITION - Good Things Festival Band Comp // Melbourne // Final,,16:00,MEMO Music Hall,"88 Acland St, St Kilda VIC 3182, Australia",https://www.facebook.com/events/947678549775611/,-37.8671902,144.9786817
BAND COMPETITION - Good Things Festival Band Comp // Melbourne // Final,,14:30,Oakleigh Carnegie RSL,"95/97 Drummond St, Oakleigh VIC 3166, Australia",https://www.facebook.com/events/544003634753497/,-37.8968576,145.08963741959553
BAND COMPETITION - Good Things Festival Band Comp // Melbourne // Final,,14:00,Musicland Melbourne,"1359 Sydney Rd, Fawkner VIC 3060, Australia",https://www.facebook.com/events/858666056479424/,-37.6916774,144.9585701581541
BAND COMPETITION - Good Things Festival Band Comp // Melbourne // Final,,18:45,The Night Cat,"137-141 Johnston St, Fitzroy VIC 3065, Australia",https://www.facebook.com/events/446910421374355/,-37.7982971,144.978128
BAND COMPETITION - Good Things Festival Band Comp // Melbourne // Final,,14:30,Mamma Chen's,"42A Albert St, Footscray VIC 3011, Australia",https://www.facebook.com/events/3411549142311275/,-37.8047552,144.89727240000002
BAND COMPETITION - Good Things Festival Band Comp // Melbourne // Final,,14:00,arcobar heatherton,"8 Arco Ln, Heatherton VIC 3202, Australia",https://www.facebook.com/events/1986174348562490/,-37.94673685,145.07837928457485
BAND COMPETITION - Good Things Festival Band Comp // Melbourne // Final,,18:00,Ragtime Tavern,"206 Tyler St, Preston VIC 3072, Australia",https://www.facebook.com/events/732212515419065/,-37.7310367,145.0142411
BAND COMPETITION - Good Things Festival Band Comp // Melbourne // Final,,13:30,Kindred Bandroom,"3 Harris St, Footscray VIC 3011, Australia",https://www.facebook.com/events/1175465936892121/,-37.8119001,144.9008247
BAND COMPETITION - Good Things Festival Band Comp // Melbourne // Final,,14:00,The Toff,"2f/252 Swanston St, Melbourne VIC 3000, Australia",https://www.facebook.com/events/1551662998824848/,-37.80660325,144.9628141258931
BAND COMPETITION - Good Things Festival Band Comp // Melbourne // Final,,12:00,Altona Sports Club,"11 Altona Rd, Altona VIC 3018, Australia",https://www.facebook.com/events/1123642109547218/,-37.85754867,144.85121805353086
BAND COMPETITION - Good Things Festival Band Comp // Melbourne // Final,,12:45,Fortress Melbourne,"Shop 25/23 Caledonian Ln, Melbourne VIC 3000, Australia",https://www.facebook.com/events/919605919560820/,-37.8120357,144.9642299
BAND COMPETITION - Good Things Festival Band Comp // Melbourne // Final,,19:30,Good Things Festival,"448 Epsom Rd, Flemington VIC 3031, Australia",https://www.facebook.com/events/1225869852004681/,-37.78925135,144.9127712588256
BAND COMPETITION - Good Things Festival Band Comp // Melbourne // Final,,09:00,CERES Environment Park,"Stewart St & Roberts St East, Brunswick VIC 3056, Australia",https://www.facebook.com/events/1638940793635815/,-37.765454,144.9831564
BAND COMPETITION - Good Things Festival Band Comp // Melbourne // Final,,16:00,Palace Cinemas,"1 Champ St, Coburg VIC 3058, Australia",https://www.facebook.com/events/1083169380166981/,-37.736826,144.968318
BAND COMPETITION - Good Things Festival Band Comp // Melbourne // Final,,15:00,Punters Club,"376 Brunswick St, Fitzroy VIC 3065, Australia",https://www.facebook.com/events/2338349969876972/,-37.7960561,144.9790327
BAND COMPETITION - Good Things Festival Band Comp // Melbourne // Final,,20:00,Northcote Social Club,"301 High St, Northcote VIC 3070, Australia",https://www.facebook.com/events/571789725522311/,-37.771471,144.998414
BAND COMPETITION - Good Things Festival Band Comp // Melbourne // Final,,13:00,Northcote Social Club,"301 High St, Northcote VIC 3070, Australia",https://www.facebook.com/events/2932385930235820/,-37.771471,144.998414
BAND COMPETITION - Good Things Festival Band Comp // Melbourne // Final,,18:30,Fortress Melbourne,"Shop 25/23 Caledonian Ln, Melbourne VIC 3000, Australia",https://www.facebook.com/events/2160734360954610/,-37.8120357,144.9642299
BAND COMPETITION - Good Things Festival Band Comp // Melbourne // Final,,19:00,Northcote Social Club,"301 High St, Northcote VIC 3070, Australia",https://www.facebook.com/events/461738856322243/,-37.771471,144.998414
BAND COMPETITION - Good Things Festival Band Comp // Melbourne // Final,,20:00,The Old Bar,"74-76 Johnston St, Fitzroy VIC 3065, Australia",https://www.facebook.com/events/1102936667886372/,-37.79833,144.97711
BAND COMPETITION - Good Things Festival Band Comp // Melbourne // Final,,18:00,Section 8,"27-29 Tattersalls Ln, Melbourne VIC 3000, Australia",https://www.facebook.com/events/1804239166982408/,-37.8117457,144.965405
BAND COMPETITION - Good Things Festival Band Comp // Melbourne // Final,,17:00,The Gaming Arena,"123 Bakers Rd, Coburg North VIC 3058, Australia",https://www.facebook.com/events/1541838383370198/,-37.72715826,144.96115535488718
BAND COMPETITION - Good Things Festival Band Comp // Melbourne // Final,,19:00,Lido Cinemas,"675 Glenferrie Rd, Hawthorn VIC 3122, Australia",https://www.facebook.com/events/995394008973998/,-37.8205529,145.0355738
BAND COMPETITION - Good Things Festival Band Comp // Melbourne // Final,,12:00,Arts Centre Melbourne,"100 St Kilda Rd, Southbank VIC 3004, Australia",https://www.facebook.com/events/473885795706627/,-37.8216405,144.9683143
BAND COMPETITION - Good Things Festival Band Comp // Melbourne // Final,,16:00,The Gaming Arena,"123 Bakers Rd, Coburg North VIC 3058, Australia",https://www.facebook.com/events/467533492828961/,-37.72715826,144.96115535488718
BAND COMPETITION - Good Things Festival Band Comp // Melbourne // Final,,18:00,Palais Theatre,"Lower Esplanade, St Kilda VIC 3182, Australia",https://www.facebook.com/events/1339065457079117/,-37.86708671,144.97599656199426
BAND COMPETITION - Good Things Festival Band Comp // Melbourne // Final,,00:00,Marvel Stadium,"740 Bourke St, Docklands VIC 3008, Australia",https://www.facebook.com/events/932951175412015/,-37.816529,144.94751697668812
BAND COMPETITION - Good Things Festival Band Comp // Melbourne // Final,,19:00,Good Things Festival,"448 Epsom Rd, Flemington VIC 3031, Australia",https://www.facebook.com/events/524410487135534/,-37.78925135,144.9127712588256
BAND COMPETITION - Good Things Festival Band Comp // Melbourne // Final,,19:00,Arts Centre Melbourne,"100 St Kilda Rd, Southbank VIC 3004, Australia",https://www.facebook.com/events/3779665475622037/,-37.8216405,144.9683143
BAND COMPETITION - Good Things Festival Band Comp // Melbourne // Final,,10:00,Altona Sports Club,"11 Altona Rd, Altona VIC 3018, Australia",https://www.facebook.com/events/1090964349481871/,-37.85754867,144.85121805353086
BAND COMPETITION - Good Things Festival Band Comp // Melbourne // Final,,13:00,Keilor Basketball Netball Stadium,"Stadium Dr, Keilor Park VIC 3042, Australia",https://www.facebook.com/events/314971211132118/,-37.71397544,144.85424970601656
BAND COMPETITION - Good Things Festival Band Comp // Melbourne // Final,,18:30,Kindred Bandroom,"3 Harris St, Footscray VIC 3011, Australia",https://www.facebook.com/events/8840628915980012/,-37.8119001,144.9008247
BAND COMPETITION - Good Things Festival Band Comp // Melbourne // Final,,18:50,Cinema Nova,"380 Lygon St, Carlton VIC 3053, Australia",https://www.facebook.com/events/1639594606937306/,-37.7978092,144.9680124
BAND COMPETITION - Good Things Festival Band Comp // Melbourne // Final,,20:00,The Last Chance,"238 Victoria St, Melbourne VIC 3000, Australia",https://www.facebook.com/events/2117098502038765/,-37.8059962,144.9585654
BAND COMPETITION - Good Things Festival Band Comp // Melbourne // Final,,19:30,Bad Decisions Bar,"46 Johnston St, Fitzroy VIC 3065, Australia",https://www.facebook.com/events/1119511592930893/,-37.798246,144.9762881
BAND COMPETITION - Good Things Festival Band Comp // Melbourne // Final,,23:00,Stay Gold,"133 Sydney Rd, Brunswick VIC 3056, Australia",https://www.facebook.com/events/543271131989367/,-37.7743469,144.9607404
BAND COMPETITION - Good Things Festival Band Comp // Melbourne // Final,,19:00,Wax Music Lounge,"250 Flinders St, Melbourne VIC 3000, Australia",https://www.facebook.com/events/1258076311797465/,-37.8176298,144.9661635
BAND COMPETITION - Good Things Festival Band Comp // Melbourne // Final,,22:00,New Guernica,"64 Smith St, Collingwood VIC 3066, Australia",https://www.facebook.com/events/925250086198839/,-37.80624775,144.98331211946754
BAND COMPETITION - Good Things Festival Band Comp // Melbourne // Final,,21:00,Stay Gold,"133 Sydney Rd, Brunswick VIC 3056, Australia",https://www.facebook.com/events/1503960333430229/,-37.7743469,144.9607404
BAND COMPETITION - Good Things Festival Band Comp // Melbourne // Final,,17:00,Revolver Upstairs,"Level 2/229 Chapel St, Prahran VIC 3181, Australia",https://www.facebook.com/events/1063247328881371/,-37.8505902,144.9933469
BAND COMPETITION - Good Things Festival Band Comp // Melbourne // Final,,22:00,EMO NEVER SLEEPS,"629 Bourke St, Melbourne VIC 3004, Australia",https://www.facebook.com/events/829633832582459/,-37.8167994,144.9552063
BAND COMPETITION - Good Things Festival Band Comp // Melbourne // Final,,18:30,Festival Hall,"300 Dudley St, West Melbourne VIC 3003, Australia",https://www.facebook.com/events/1496960170949894/,-37.8098193,144.9508057
BAND COMPETITION - Good Things Festival Band Comp // Melbourne // Final,,19:00,Cinema Nova,"380 Lygon St, Carlton VIC 3053, Australia",https://www.facebook.com/events/1235263991224504/,-37.7978092,144.9680124
BAND COMPETITION - Good Things Festival Band Comp // Melbourne // Final,,18:30,Cinema Nova,"380 Lygon St, Carlton VIC 3053, Australia",https://www.facebook.com/events/2333086470372309/,-37.7978092,144.9680124
BAND COMPETITION - Good Things Festival Band Comp // Melbourne // Final,,23:00,170 Russell,"170 Russell St, Melbourne VIC 3000, Australia",https://www.facebook.com/events/1444481526247205/,-37.8120109,144.9679369
Master Chef Paddle Extras ,,18:30,Brunswick Ballroom,"314 Sydney Rd, Brunswick VIC 3056, Australia",https://www.facebook.com/events/819422953234413/,-37.7704205,144.9617083
BAND COMPETITION - Good Things Festival Band Comp // Melbourne // Final,,19:30,Northcote Theatre,"216 High St, Northcote VIC 3070, Australia",https://www.facebook.com/events/399039979467353/,-37.7737068,144.9982706
BAND COMPETITION - Good Things Festival Band Comp // Melbourne // Final,,20:30,The Merri Creek Tavern,"111 High St, Northcote VIC 3070, Australia",https://www.facebook.com/events/1531114227545847/,-37.7794356,144.996838
BAND COMPETITION - Good Things Festival Band Comp // Melbourne // Final,,21:00,onesixone,"161 High St, Prahran VIC 3181, Australia",https://www.facebook.com/events/1153393592888483/,-37.85425256,145.0112666323418
BAND COMPETITION - Good Things Festival Band Comp // Melbourne // Final,,22:00,Laundry Bar,"50 Johnston St, Fitzroy VIC 3065, Australia",https://www.facebook.com/events/581757264551715/,-37.7983139,144.9764962
BAND COMPETITION - Good Things Festival Band Comp // Melbourne // Final,,23:00,The Night Cat,"137-141 Johnston St, Fitzroy VIC 3065, Australia",https://www.facebook.com/events/1329499038214513/,-37.7982971,144.978128
BAND COMPETITION - Good Things Festival Band Comp // Melbourne // Final,,19:00,Palais Theatre,"Lower Esplanade, St Kilda VIC 3182, Australia",https://www.facebook.com/events/1249715083066146/,-37.86708671,144.97599656199426
BAND COMPETITION - Good Things Festival Band Comp // Melbourne // Final,,19:00,Mr Boogie Man Bar,"160 Hoddle St, Abbotsford VIC 3067, Australia",https://www.facebook.com/events/1090536999482729/,-37.80245,144.99295304614787
BAND COMPETITION - Good Things Festival Band Comp // Melbourne // Final,,20:30,Laundry Bar,"50 Johnston St, Fitzroy VIC 3065, Australia",https://www.facebook.com/events/443824345427952/,-37.7983139,144.9764962
BAND COMPETITION - Good Things Festival Band Comp // Melbourne // Final,,19:00,Howler,"7-11 Dawson St, Brunswick VIC 3056, Australia",https://www.facebook.com/events/1926736231145832/,-37.7720304,144.9596527
BAND COMPETITION - Good Things Festival Band Comp // Melbourne // Final,,22:00,Sub Club Melbourne,"Flinders Ct, Melbourne VIC 3000, Australia",https://www.facebook.com/events/2431818613819782/,-37.81776587,144.96433104920948
BAND COMPETITION - Good Things Festival Band Comp // Melbourne // Final,,20:00,Cactus Room,"614 High St, Thornbury VIC 3071, Australia",https://www.facebook.com/events/1739497739930389/,-37.76125825,145.00041662186553
BAND COMPETITION - Good Things Festival Band Comp // Melbourne // Final,,13:30,The Workers Club,"51 Brunswick St, Fitzroy VIC 3065, Australia",https://www.facebook.com/events/542160445024593/,-37.8055776,144.9769450659087
BAND COMPETITION - Good Things Festival Band Comp // Melbourne // Final,,19:00,The Night Cat,"137-141 Johnston St, Fitzroy VIC 3065, Australia",https://www.facebook.com/events/437216939124877/,-37.7982971,144.978128
BAND COMPETITION - Good Things Festival Band Comp // Melbourne // Final,,20:30,Altona Sports Club,"11 Altona Rd, Altona VIC 3018, Australia",https://www.facebook.com/events/8866919326673387/,-37.85754867,144.85121805353086
BAND COMPETITION - Good Things Festival Band Comp // Melbourne // Final,,19:00,Ragtime Tavern,"206 Tyler St, Preston VIC 3072, Australia",https://www.facebook.com/events/576870491358087/,-37.7310367,145.0142411
BAND COMPETITION - Good Things Festival Band Comp // Melbourne // Final,,10:00,CERES Environment Park,"Stewart St & Roberts St East, Brunswick VIC 3056, Australia",https://www.facebook.com/events/1199450215085684/,-37.765454,144.9831564
BAND COMPETITION - Good Things Festival Band Comp // Melbourne // Final,,08:00,Kingston City Hall,"979-985 Nepean Hwy, Moorabbin VIC 3189, Australia",https://www.facebook.com/events/771688524974680/,-37.93372508,145.0352972005879
BAND COMPETITION - Good Things Festival Band Comp // Melbourne // Final,,20:00,THE CURTIN (John Curtin hotel),"29 Lygon St, Carlton VIC 3053, Australia",https://www.facebook.com/events/297884510062494/,-37.8061581,144.9657057
BAND COMPETITION - Good Things Festival Band Comp // Melbourne // Final,,15:30,MEMO Music Hall,"88 Acland St, St Kilda VIC 3182, Australia",https://www.facebook.com/events/1077738403774124/,-37.8671902,144.9786817
BAND COMPETITION - Good Things Festival Band Comp // Melbourne // Final,,14:00,Retreat Hotel,"Level 1/280 Sydney Rd, Brunswick VIC 3056, Australia",https://www.facebook.com/events/585286370841289/,-37.7711487,144.9615949
BAND COMPETITION - Good Things Festival Band Comp // Melbourne // Final,,10:30,CERES Environment Park,"Stewart St & Roberts St East, Brunswick VIC 3056, Australia",https://www.facebook.com/events/772758177611844/,-37.765454,144.9831564
BAND COMPETITION - Good Things Festival Band Comp // Melbourne // Final,,14:00,Bergy Bandroom,"64 Sydney Rd, Brunswick VIC 3056, Australia",https://www.facebook.com/events/1545485366327316/,-37.776327,144.9607158
BAND COMPETITION - Good Things Festival Band Comp // Melbourne // Final,,17:00,Kingston City Hall,"979-985 Nepean Hwy, Moorabbin VIC 3189, Australia",https://www.facebook.com/events/1259790941826118/,-37.93372508,145.0352972005879
BAND COMPETITION - Good Things Festival Band Comp // Melbourne // Final,,18:00,Paris Cat Jazz Club,"6 Goldie Pl, Melbourne VIC 3000, Australia",https://www.facebook.com/events/1744326796398144/,-37.8133262,144.96060714767358
BAND COMPETITION - Good Things Festival Band Comp // Melbourne // Final,,21:00,Revolver Upstairs,"Level 2/229 Chapel St, Prahran VIC 3181, Australia",https://www.facebook.com/events/1724506751461831/,-37.8505902,144.9933469
BAND COMPETITION - Good Things Festival Band Comp // Melbourne // Final,,16:00,The Old Bar,"74-76 Johnston St, Fitzroy VIC 3065, Australia",https://www.facebook.com/events/1233080594682590/,-37.79833,144.97711
BAND COMPETITION - Good Things Festival Band Comp // Melbourne // Final,,14:00,Way Out West Roots Music Club,"4 Market St, Newport VIC 3015, Australia",https://www.facebook.com/events/26559182147062741/,-37.8439028,144.8823845
BAND COMPETITION - Good Things Festival Band Comp // Melbourne // Final,,16:00,Bergy Bandroom,"64 Sydney Rd, Brunswick VIC 3056, Australia",https://www.facebook.com/events/578201221256142/,-37.776327,144.9607158
BAND COMPETITION - Good Things Festival Band Comp // Melbourne // Final,,14:30,Melbourne Public,"11 Dukes Walk, South Wharf VIC 3006, Australia",https://www.facebook.com/events/450388088082419/,-37.82429308,144.95070613387392
BAND COMPETITION - Good Things Festival Band Comp // Melbourne // Final,,11:00,Arts Centre Melbourne,"100 St Kilda Rd, Southbank VIC 3004, Australia",https://www.facebook.com/events/344932704872465/,-37.8216405,144.9683143
BAND COMPETITION - Good Things Festival Band Comp // Melbourne // Final,,19:00,Rod Laver Arena,"200 Batman Ave, Melbourne VIC 3004, Australia",https://www.facebook.com/events/825609872764703/,-37.8215688,144.9785875
BAND COMPETITION - Good Things Festival Band Comp // Melbourne // Final,,11:00,The Clocktower Centre,"750 Mt Alexander Rd, Moonee Ponds VIC 3039, Australia",https://www.facebook.com/events/968126904794102/,-37.7656716,144.9248037207342
BAND COMPETITION - Good Things Festival Band Comp // Melbourne // Final,,19:00,Festival Hall,"300 Dudley St, West Melbourne VIC 3003, Australia",https://www.facebook.com/events/443224371939943/,-37.8098193,144.9508057
BAND COMPETITION - Good Things Festival Band Comp // Melbourne // Final,,19:30,Arts Centre Melbourne,"100 St Kilda Rd, Southbank VIC 3004, Australia",https://www.facebook.com/events/719102477012730/,-37.8216405,144.9683143
BAND COMPETITION - Good Things Festival Band Comp // Melbourne // Final,,19:00,One2three Bar,"123 Queens Parade, Clifton Hill VIC 3068, Australia",https://www.facebook.com/events/889334350036207/,-37.7892833,144.9901391
BAND COMPETITION - Good Things Festival Band Comp // Melbourne // Final,,19:00,Murmur Piano Bar,"17 Warburton Ln, Melbourne VIC 3000, Australia",https://www.facebook.com/events/1269064844267980/,-37.8138247,144.9619345916501
BAND COMPETITION - Good Things Festival Band Comp // Melbourne // Final,,19:30,Fed Square,"Swanston St &, Flinders St, Melbourne VIC 3000, Australia",https://www.facebook.com/events/580378198236956/,-37.81767355,144.9667825800355
BAND COMPETITION - Good Things Festival Band Comp // Melbourne // Final,,17:00,One2three Bar,"123 Queens Parade, Clifton Hill VIC 3068, Australia",https://www.facebook.com/events/1633404017524109/,-37.7892833,144.9901391
BAND COMPETITION - Good Things Festival Band Comp // Melbourne // Final,,08:00,Cactus Room,"614 High St, Thornbury VIC 3071, Australia",https://www.facebook.com/events/1504513676928278/,-37.76125825,145.00041662186553
BAND COMPETITION - Good Things Festival Band Comp // Melbourne // Final,,19:30,Mantra Studio Kitchen and Bar,"10 Campbell St, Yarraville VIC 3013, Australia",https://www.facebook.com/events/1767594000445805/,-37.820684,144.8947691
Master Chef Paddle Extras ,,18:00,Festival Hall,"300 Dudley St, West Melbourne VIC 3003, Australia",https://www.facebook.com/events/2057102354735739/,-37.8098193,144.9508057
BAND COMPETITION - Good Things Festival Band Comp // Melbourne // Final,,10:00, RMIT University,"Building 16 336/348 Swanston St, Melbourne VIC 3000, Australia",https://www.facebook.com/events/464995586617974/,-37.8091922,144.9639727
BAND COMPETITION - Good Things Festival Band Comp // Melbourne // Final,,20:00,Mantra Studio Kitchen and Bar,"10 Campbell St, Yarraville VIC 3013, Australia",https://www.facebook.com/events/582500237655454/,-37.820684,144.8947691
BAND COMPETITION - Good Things Festival Band Comp // Melbourne // Final,,14:00,Victoria University Community Sports Stadium,"417 Barkly St, Footscray VIC 3011, Australia",https://www.facebook.com/events/1352155955794485/,-37.79902293,144.8929566901096
BAND COMPETITION - Good Things Festival Band Comp // Melbourne // Final,,20:00,The Thornbury Local,"635 High St, Thornbury VIC 3071, Australia",https://www.facebook.com/events/2097495117354005/,-37.76165125,144.99987967655426
BAND COMPETITION - Good Things Festival Band Comp // Melbourne // Final,,10:00,Fed Square,"Swanston St &, Flinders St, Melbourne VIC 3000, Australia",https://www.facebook.com/events/8255812904524887/,-37.81767355,144.9667825800355
BAND COMPETITION - Good Things Festival Band Comp // Melbourne // Final,,21:00,24 Moons,"2 Arthurton Rd, Northcote VIC 3070, Australia",https://www.facebook.com/events/2331006080585343/,-37.7691418,144.9982614
BAND COMPETITION - Good Things Festival Band Comp // Melbourne // Final,,19:30,Forum Melbourne,"154 Flinders St, Melbourne VIC 3000, Australia",https://www.facebook.com/events/1326177275419144/,-37.81644145,144.9693768124984
BAND COMPETITION - Good Things Festival Band Comp // Melbourne // Final,,14:00,Russian House Melbourne,"118 Greeves St, Fitzroy VIC 3065, Australia",https://www.facebook.com/events/402934646152959/,-37.79982794,144.97840274927256
BAND COMPETITION - Good Things Festival Band Comp // Melbourne // Final,,11:00,Russian House Melbourne,"118 Greeves St, Fitzroy VIC 3065, Australia",https://www.facebook.com/events/429406169569750/,-37.79982794,144.97840274927256
BAND COMPETITION - Good Things Festival Band Comp // Melbourne // Final,,19:00,Studio 52 / Empire Music Studios,"9 Northern Rd, Heidelberg West VIC 3081, Australia",https://www.facebook.com/events/963425278927163/,-37.72982527,145.0520267423926
BAND COMPETITION - Good Things Festival Band Comp // Melbourne // Final,,20:00,Oakleigh Carnegie RSL,"95/97 Drummond St, Oakleigh VIC 3166, Australia",https://www.facebook.com/events/536992059054981/,-37.8968576,145.08963741959553
BAND COMPETITION - Good Things Festival Band Comp // Melbourne // Final,,17:30,Thornbury Picture House,"802 High St, Thornbury VIC 3071, Australia",https://www.facebook.com/events/561079456520063/,-37.75393655,145.0017325
BAND COMPETITION - Good Things Festival Band Comp // Melbourne // Final,,16:30,The Gaming Arena,"123 Bakers Rd, Coburg North VIC 3058, Australia",https://www.facebook.com/events/529361729949752/,-37.72715826,144.96115535488718
BAND COMPETITION - Good Things Festival Band Comp // Melbourne // Final,,21:00,Paris Cat Jazz Club,"6 Goldie Pl, Melbourne VIC 3000, Australia",https://www.facebook.com/events/1662965077627158/,-37.8133262,144.96060714767358
BAND COMPETITION - Good Things Festival Band Comp // Melbourne // Final,,13:00,Howler,"7-11 Dawson St, Brunswick VIC 3056, Australia",https://www.facebook.com/events/2821725668004493/,-37.7720304,144.9596527
BAND COMPETITION - Good Things Festival Band Comp // Melbourne // Final,,20:00,Melbourne Convention and Exhibition Centre (MCEC),"1 Convention Centre Pl, South Wharf VIC 3006, Australia",https://www.facebook.com/events/1216428926390612/,-37.82521828,144.95086360317606
BAND COMPETITION - Good Things Festival Band Comp // Melbourne // Final,,15:30,Lulie Tavern,"225 Johnston St, Abbotsford VIC 3067, Australia",https://www.facebook.com/events/1497816807593958/,-37.8000264,144.9936498
BAND COMPETITION - Good Things Festival Band Comp // Melbourne // Final,,17:00,Bar 303,"303 High St, Northcote VIC 3070, Australia",https://www.facebook.com/events/1094027902250562/,-37.7713296,144.99828116650363
BAND COMPETITION - Good Things Festival Band Comp // Melbourne // Final,,13:00,Sunshine City Club,"24 Talmage St, Albion VIC 3020, Australia",https://www.facebook.com/events/2585079715009650/,-37.779028,144.8243730166129
BAND COMPETITION - Good Things Festival Band Comp // Melbourne // Final,,15:30,The Old Bar,"74-76 Johnston St, Fitzroy VIC 3065, Australia",https://www.facebook.com/events/1501363610582411/,-37.79833,144.97711
BAND COMPETITION - Good Things Festival Band Comp // Melbourne // Final,,14:00,Stonnington City Brass,"Rear, 1255 High St, Malvern VIC 3144, Australia",https://www.facebook.com/events/1685159045389992/,-37.856025,145.0318652
BAND COMPETITION - Good Things Festival Band Comp // Melbourne // Final,,18:00,Fed Square,"Swanston St &, Flinders St, Melbourne VIC 3000, Australia",https://www.facebook.com/events/1234405450947147/,-37.81767355,144.9667825800355
BAND COMPETITION - Good Things Festival Band Comp // Melbourne // Final,,18:00,Arts Centre Melbourne,"100 St Kilda Rd, Southbank VIC 3004, Australia",https://www.facebook.com/events/473972392257808/,-37.8216405,144.9683143
BAND COMPETITION - Good Things Festival Band Comp // Melbourne // Final,,20:00,Mr Boogie Man Bar,"160 Hoddle St, Abbotsford VIC 3067, Australia",https://www.facebook.com/events/560463340264029/,-37.80245,144.99295304614787
BAND COMPETITION - Good Things Festival Band Comp // Melbourne // Final,,19:30,Max Watts,"125 Swanston St, Melbourne VIC 3000, Australia",https://www.facebook.com/events/1114079473421967/,-37.8147557,144.9659879
BAND COMPETITION - Good Things Festival Band Comp // Melbourne // Final,,22:00,24 Moons,"2 Arthurton Rd, Northcote VIC 3070, Australia",https://www.facebook.com/events/2106295986431474/,-37.7691418,144.9982614
BAND COMPETITION - Good Things Festival Band Comp // Melbourne // Final,,17:00,onesixone,"161 High St, Prahran VIC 3181, Australia",https://www.facebook.com/events/932768668671860/,-37.85425256,145.0112666323418
BAND COMPETITION - Good Things Festival Band Comp // Melbourne // Final,,19:30,Lona St Kilda,"Unit 64/66 Acland St, St Kilda VIC 3182, Australia",https://www.facebook.com/events/3827186064186775/,-37.86668052,144.978209
BAND COMPETITION - Good Things Festival Band Comp // Melbourne // Final,,12:00,Circus Bar,"199 Commercial Rd, South Yarra VIC 3141, Australia",https://www.facebook.com/events/874262478021239/,-37.84659833,144.99210205798175
BAND COMPETITION - Good Things Festival Band Comp // Melbourne // Final,,19:05,Forum Melbourne,"154 Flinders St, Melbourne VIC 3000, Australia",https://www.facebook.com/events/1050478159591938/,-37.81644145,144.9693768124984
BAND COMPETITION - Good Things Festival Band Comp // Melbourne // Final,,16:00,Russian House Melbourne,"118 Greeves St, Fitzroy VIC 3065, Australia",https://www.facebook.com/events/501496195811935/,-37.79982794,144.97840274927256
BAND COMPETITION - Good Things Festival Band Comp // Melbourne // Final,,12:00,Taxi Kitchen,"Taxi Kitchen, Transport Hotel, Level 1 Federation Square, Melbourne VIC 3000, Australia",https://www.facebook.com/events/470112345908446/,-37.81820779,144.9683928
BAND COMPETITION - Good Things Festival Band Comp // Melbourne // Final,,12:30,Stamford Plaza Melbourne,"111 Little Collins St, Melbourne VIC 3000, Australia",https://www.facebook.com/events/3900567380181919/,-37.81359225,144.9700614178762
BAND COMPETITION - Good Things Festival Band Comp // Melbourne // Final,,08:30,Stamford Plaza Melbourne,"111 Little Collins St, Melbourne VIC 3000, Australia",https://www.facebook.com/events/3695916687292783/,-37.81359225,144.9700614178762
BAND COMPETITION - Good Things Festival Band Comp // Melbourne // Final,,20:30,Bar Open,"317 Brunswick St, Fitzroy VIC 3065, Australia",https://www.facebook.com/events/523578753996319/,-37.79773,144.978425
BAND COMPETITION - Good Things Festival Band Comp // Melbourne // Final,,20:00,One2three Bar,"123 Queens Parade, Clifton Hill VIC 3068, Australia",https://www.facebook.com/events/1048191586995241/,-37.7892833,144.9901391
BAND COMPETITION - Good Things Festival Band Comp // Melbourne // Final,,19:00,The Old Bar,"74-76 Johnston St, Fitzroy VIC 3065, Australia",https://www.facebook.com/events/1011124097454591/,-37.79833,144.97711
BAND COMPETITION - Good Things Festival Band Comp // Melbourne // Final,,19:00,Harbour Kitchen,"Shop1/800 Bourke St, Docklands VIC 3008, Australia",https://www.facebook.com/events/880477334054142/,-37.8187162,144.9452672
BAND COMPETITION - Good Things Festival Band Comp // Melbourne // Final,,18:00,Stamford Plaza Melbourne,"111 Little Collins St, Melbourne VIC 3000, Australia",https://www.facebook.com/events/460401196531971/,-37.81359225,144.9700614178762
BAND COMPETITION - Good Things Festival Band Comp // Melbourne // Final,,19:00,Carnegie Hall,"60 Rosstown Rd, Carnegie VIC 3163, Australia",https://www.facebook.com/events/1047481486819074/,-37.8864262,145.05686284914034
BAND COMPETITION - Good Things Festival Band Comp // Melbourne // Final,,19:00,Melrose Events,"2 Carrick Dr, Tullamarine VIC 3043, Australia",https://www.facebook.com/events/1089946612117986/,-37.70264118,144.8829547289411
BAND COMPETITION - Good Things Festival Band Comp // Melbourne // Final,,19:30,Taxi Kitchen,"Taxi Kitchen, Transport Hotel, Level 1 Federation Square, Melbourne VIC 3000, Australia",https://www.facebook.com/events/1955292528268444/,-37.81820779,144.9683928
BAND COMPETITION - Good Things Festival Band Comp // Melbourne // Final,,21:30,Stamford Plaza Melbourne,"111 Little Collins St, Melbourne VIC 3000, Australia",https://www.facebook.com/events/1055170402816968/,-37.81359225,144.9700614178762
BAND COMPETITION - Good Things Festival Band Comp // Melbourne // Final,,12:00,Transport Hotel,"Transport Hotel, Ground Level Federation Square, Melbourne VIC 3000, Australia",https://www.facebook.com/events/385011001048047/,-37.81835059,144.9683925
BAND COMPETITION - Good Things Festival Band Comp // Melbourne // Final,,19:30,Transport Hotel,"Transport Hotel, Ground Level Federation Square, Melbourne VIC 3000, Australia",https://www.facebook.com/events/1966041560515299/,-37.81835059,144.9683925
BAND COMPETITION - Good Things Festival Band Comp // Melbourne // Final,,21:00,Club Retro,"383 Lonsdale St, Melbourne VIC 3000, Australia",https://www.facebook.com/events/1305342990634690/,-37.81183528,144.9635791947368
BAND COMPETITION - Good Things Festival Band Comp // Melbourne // Final,,20:00,EMO NEVER SLEEPS,"629 Bourke St, Melbourne VIC 3004, Australia",https://www.facebook.com/events/1892210754579999/,-37.8167994,144.9552063
BAND COMPETITION - Good Things Festival Band Comp // Melbourne // Final,,00:00,Festival Hall,"300 Dudley St, West Melbourne VIC 3003, Australia",https://www.facebook.com/events/896820248708081/,-37.8098193,144.9508057
BAND COMPETITION - Good Things Festival Band Comp // Melbourne // Final,,19:30,Paris Cat Jazz Club,"6 Goldie Pl, Melbourne VIC 3000, Australia",https://www.facebook.com/events/918127910185251/,-37.8133262,144.96060714767358
BAND COMPETITION - Good Things Festival Band Comp // Melbourne // Final,,19:30,Melbourne Recital Centre,"31 Sturt St, Southbank VIC 3006, Australia",https://www.facebook.com/events/2477068575834143/,-37.82408485,144.96758763141432
BAND COMPETITION - Good Things Festival Band Comp // Melbourne // Final,,20:00,Northcote Theatre,"216 High St, Northcote VIC 3070, Australia",https://www.facebook.com/events/3866748593568961/,-37.7737068,144.9982706
BAND COMPETITION - Good Things Festival Band Comp // Melbourne // Final,,15:00,Temperance Hotel,"426 Chapel St, South Yarra VIC 3141, Australia",https://www.facebook.com/events/476113771540134/,-37.84306185,144.99489592695178
BAND COMPETITION - Good Things Festival Band Comp // Melbourne // Final,,20:00,Festival Hall,"300 Dudley St, West Melbourne VIC 3003, Australia",https://www.facebook.com/events/3773086809629510/,-37.8098193,144.9508057
BAND COMPETITION - Good Things Festival Band Comp // Melbourne // Final,,20:00,170 Russell,"170 Russell St, Melbourne VIC 3000, Australia",https://www.facebook.com/events/975953531218310/,-37.8120109,144.9679369
BAND COMPETITION - Good Things Festival Band Comp // Melbourne // Final,,09:30,Melbourne Recital Centre,"31 Sturt St, Southbank VIC 3006, Australia",https://www.facebook.com/events/3575074122786133/,-37.82408485,144.96758763141432
BAND COMPETITION - Good Things Festival Band Comp // Melbourne // Final,,10:30,Melbourne Recital Centre,"31 Sturt St, Southbank VIC 3006, Australia",https://www.facebook.com/events/868972442057756/,-37.82408485,144.96758763141432
BAND COMPETITION - Good Things Festival Band Comp // Melbourne // Final,,19:30,Festival Hall,"300 Dudley St, West Melbourne VIC 3003, Australia",https://www.facebook.com/events/1276774176572619/,-37.8098193,144.9508057
Master Chef Paddle Extras ,,19:00,170 Russell,"170 Russell St, Melbourne VIC 3000, Australia",https://www.facebook.com/events/853786726543518/,-37.8120109,144.9679369
BAND COMPETITION - Good Things Festival Band Comp // Melbourne // Final,,19:30,170 Russell,"170 Russell St, Melbourne VIC 3000, Australia",https://www.facebook.com/events/1220043875653446/,-37.8120109,144.9679369
BAND COMPETITION - Good Things Festival Band Comp // Melbourne // Final,,20:00,The Thornbury Theatre,"859 High St, Thornbury VIC 3071, Australia",https://www.facebook.com/events/1197972961278342/,-37.754662,145.0011167
BAND COMPETITION - Good Things Festival Band Comp // Melbourne // Final,,18:15,170 Russell,"170 Russell St, Melbourne VIC 3000, Australia",https://www.facebook.com/events/1054140219544876/,-37.8120109,144.9679369
BAND COMPETITION - Good Things Festival Band Comp // Melbourne // Final,,21:00,Bourke Street Courtyard,"629 Bourke St, Melbourne VIC 3004, Australia",https://www.facebook.com/events/801690638663037/,-37.8167994,144.9552063
BAND COMPETITION - Good Things Festival Band Comp // Melbourne // Final,,22:00,La Di Da,"577 Little Bourke St, Melbourne VIC 3000, Australia",https://www.facebook.com/events/896958235663149/,-37.8155252,144.9556294
BAND COMPETITION - Good Things Festival Band Comp // Melbourne // Final,,18:30,Paris Cat Jazz Club,"6 Goldie Pl, Melbourne VIC 3000, Australia",https://www.facebook.com/events/924839595785766/,-37.8133262,144.96060714767358
BAND COMPETITION - Good Things Festival Band Comp // Melbourne // Final,,21:00,170 Russell,"170 Russell St, Melbourne VIC 3000, Australia",https://www.facebook.com/events/944660744157449/,-37.8120109,144.9679369
BAND COMPETITION - Good Things Festival Band Comp // Melbourne // Final,,19:30,The Flying Saucer Club,"979-985 Nepean Hwy, Moorabbin VIC 3189, Australia",https://www.facebook.com/events/1206888597048281/,-37.9369432,145.0373674
BAND COMPETITION - Good Things Festival Band Comp // Melbourne // Final,,16:00,The Merri Creek Tavern,"111 High St, Northcote VIC 3070, Australia",https://www.facebook.com/events/619076600449088/,-37.7794356,144.996838
BAND COMPETITION - Good Things Festival Band Comp // Melbourne // Final,,18:00,Melbourne Convention and Exhibition Centre (MCEC),"1 Convention Centre Pl, South Wharf VIC 3006, Australia",https://www.facebook.com/events/1238902004087964/,-37.82521828,144.95086360317606
BAND COMPETITION - Good Things Festival Band Comp // Melbourne // Final,,20:00,The Flying Saucer Club,"979-985 Nepean Hwy, Moorabbin VIC 3189, Australia",https://www.facebook.com/events/1018478273378081/,-37.9369432,145.0373674
BAND COMPETITION - Good Things Festival Band Comp // Melbourne // Final,,20:00,Prince Bandroom,"29 Fitzroy St, St Kilda VIC 3182, Australia",https://www.facebook.com/events/1738744823645529/,-37.85747233,144.98140261298386
BAND COMPETITION - Good Things Festival Band Comp // Melbourne // Final,,18:30,The Flying Saucer Club,"979-985 Nepean Hwy, Moorabbin VIC 3189, Australia",https://www.facebook.com/events/519773777548154/,-37.9369432,145.0373674
BAND COMPETITION - Good Things Festival Band Comp // Melbourne // Final,,13:30,Rod Laver Arena,"200 Batman Ave, Melbourne VIC 3004, Australia",https://www.facebook.com/events/827132342603232/,-37.8215688,144.9785875
BAND COMPETITION - Good Things Festival Band Comp // Melbourne // Final,,15:30,The Flying Saucer Club,"979-985 Nepean Hwy, Moorabbin VIC 3189, Australia",https://www.facebook.com/events/2826689570827925/,-37.9369432,145.0373674
BAND COMPETITION - Good Things Festival Band Comp // Melbourne // Final,,20:00,Chasers Nightclub,"386 Chapel St, South Yarra VIC 3141, Australia",https://www.facebook.com/events/622959113111539/,-37.8459118,144.9945123
BAND COMPETITION - Good Things Festival Band Comp // Melbourne // Final,,00:00,Secret Garden Bar,"7/60 Fitzroy St, St Kilda VIC 3182, Australia",https://www.facebook.com/events/947303075675901/,-37.85747233,144.98140261298386
BAND COMPETITION - Good Things Festival Band Comp // Melbourne // Final,,00:00,The Timber Yard,"351 Plummer St, Port Melbourne VIC 3207, Australia",https://www.facebook.com/events/413686071784823/,-37.8326711,144.92121264355478
BAND COMPETITION - Good Things Festival Band Comp // Melbourne // Final,,00:00,Fed Square,"Swanston St &, Flinders St, Melbourne VIC 3000, Australia",https://www.facebook.com/events/559373906716445/,-37.81767355,144.9667825800355
BAND COMPETITION - Good Things Festival Band Comp // Melbourne // Final,,00:00,Chapel Off Chapel,"12 Little Chapel St, Prahran VIC 3181, Australia",https://www.facebook.com/events/898033135764550/,-37.84832452,144.99496955222065
BAND COMPETITION - Good Things Festival Band Comp // Melbourne // Final,,00:00,Mr Boogie Man Bar,"160 Hoddle St, Abbotsford VIC 3067, Australia",https://www.facebook.com/events/605369958585056/,-37.80245,144.99295304614787
BAND COMPETITION - Good Things Festival Band Comp // Melbourne // Final,,00:00,Northcote Theatre,"216 High St, Northcote VIC 3070, Australia",https://www.facebook.com/events/446176237990719/,-37.7737068,144.9982706
