Event_Title,Date,Time,Venue,Address,url,Latitude,Longitude,Category
Papuan Jungle Sound System Launch Party,2025-05-31,14:00,Kindred Bandroom,"3 Harris St, Footscray VIC 3011, Australia",https://www.facebook.com/events/882403257362938/,-37.8119001,144.9008247,Music
RE-UNITED,2025-05-31,18:00,The Railway Hotel- Windsor,"29 Chapel Street Windsor, VIC 3181",https://www.eventbrite.com.au/e/re-united-tickets-1292089678009?aff=ebdssbdestsearch,-37.8566744,144.9922172,Music
Butt Hole,2025-05-31,20:30,The Butterfly Club,"5 Carson Place Melbourne, VIC 3000",https://www.eventbrite.co.uk/e/butt-hole-tickets-952511015087?aff=ebdssbdestsearch,-37.8154472,144.9652725,Theatre
Camp Parliament for Girls Melbourne 2025,2025-05-31,08:00,120 Collins St,"120 Collins Street Melbourne, VIC 3000",https://www.eventbrite.com/e/camp-parliament-for-girls-melbourne-2025-tickets-1366478968379?aff=ebdssbdestsearch,-37.8138656,144.9695281,Talks/Workshops
Smokin’ Meats & Droppin Beats: The revival of Hype,2025-05-31,19:00,185 Acland St,"185 Acland Street St Kilda, VIC 3182",https://www.eventbrite.com.au/e/smokin-meats-droppin-beats-the-revival-of-hype-tickets-1379195564059?aff=ebdssbdestsearch,-37.8695632,144.980341,Music
Richmond Royalty ft. Richardson & Roach LIVE!,2025-05-31,18:30,South Rovers Football Club,"100 Coulstock Street Warrnambool, VIC 3280",https://www.eventbrite.com.au/e/richmond-royalty-ft-richardson-roach-live-tickets-1285489316149?aff=ebdssbdestsearch,-38.3812116,142.4946289,Sport
Melody,2025-05-31,07:00,Serbian Orthodox Church of St Sava,"226 Diamond Creek Road #21 Greensborough, VIC 3088",https://www.eventbrite.com/e/melody-tickets-1304966432729?aff=ebdssbdestsearch,-37.6839502,145.1200856,Music
Eat The Beat : Home Of The Underground,2025-05-31,22:00,New Guernica,"64 Smith Street Collingwood, VIC 3066",https://www.eventbrite.com.au/e/eat-the-beat-home-of-the-underground-tickets-1356064057099?aff=ebdssbdestsearch,-37.8062529,144.9832565,Music
ReWine Bottling Party,2025-05-31,14:00,ReWine,"522 Lygon Street Brunswick East, VIC 3057",https://www.eventbrite.com.au/e/rewine-bottling-party-tickets-1270049886399?aff=ebdssbdestsearch,-37.7623902,144.9736184,Social/Dating
Dubai Property Investment Event in Melbourne .,2025-05-31,14:00,level 52/45 Clarke St,"45 Clarke Street #level 52 Southbank, VIC 3006",https://www.eventbrite.com.au/e/dubai-property-investment-event-in-melbourne-tickets-1354316239329?aff=ebdssbdestsearch,-37.8268879,144.9593745,Business/Networking
Healing Murmurs Circle｜重回直觉的河流 Reconnecting with Intuition | May | St Kilda,2025-05-31,14:00,st kilda,"st kilda Melbourne, VIC 3182",https://www.eventbrite.com.au/e/healing-murmurs-circle-reconnecting-with-intuition-may-st-kilda-tickets-1365365036579?aff=ebdssbdestsearch,-37.864,144.982,Talks/Workshops
Bachata ConeXion 'Saturdays',2025-05-31,20:00,497 Queensberry St,"497 Queensberry Street North Melbourne, VIC 3051",https://www.eventbrite.com.au/e/bachata-conexion-saturdays-tickets-1371874075289?aff=ebdssbdestsearch,-37.8034012,144.9507163,Social/Dating
Aura Collage Workshop by Alula Fox at PSYCHIC & WELLNESS FESTIVAL,2025-05-31,12:30,Seaworks Maritime Precinct,"82 Nelson Place #82 Williamstown, VIC 3016",https://www.eventbrite.com/e/aura-collage-workshop-by-alula-fox-at-psychic-wellness-festival-tickets-1370581067869?aff=ebdssbdestsearch,-37.863536,144.9065415,Talks/Workshops
Workshop : Herbal Alchemy with Magic Elixirs,2025-05-31,11:00,Rubix Warehouse,"36 Phoenix Street Brunswick, VIC 3056",https://www.eventbrite.com.au/e/workshop-herbal-alchemy-with-magic-elixirs-tickets-1374067897069?aff=ebdssbdestsearch,-37.7696975,144.9575115,Talks/Workshops
Private Hand Building Workshop with Glaze and Firing,2025-05-31,11:30,"Heer Pottery - unit 3/29-31 Clarice Rd, Box Hill South VIC","29-31 Clarice Road #unit 3 Box Hill South, VIC 3128",https://www.eventbrite.com.au/e/private-hand-building-workshop-with-glaze-and-firing-tickets-1059231723599?aff=ebdssbdestsearch,-37.8333911,145.1339829,Art
OSAAT 5000,2025-05-31,18:00,Duncan Mackinnon Reserve Athletics Track,"819-821 North Road Murrumbeena, VIC 3163",https://www.eventbrite.com/e/osaat-5000-tickets-1369890592639?aff=ebdssbdestsearch,-37.9066595,145.0645,Sport
YoCo beauty website launch party,2025-05-31,19:00,Kindred Cameras,"454 Docklands Drive Docklands, VIC 3008",https://www.eventbrite.com.au/e/yoco-beauty-website-launch-party-tickets-1331460798089?aff=ebdssbdestsearch,-37.8146061,144.937793,Business/Networking
Animaga Maid cafe popup event,2025-05-31,12:00,Mercure Welcome Melbourne,"265 Little Bourke Street Melbourne, VIC 3000",https://www.eventbrite.com.au/e/animaga-maid-cafe-popup-event-tickets-1343907245749?aff=ebdssbdestsearch,-37.81281999999999,144.9647544,Social/Dating
LONDON CLUB - BOILER ROOM ( AFROBEATS -RNB - HIPHOP - AMAPIANO - UK HIPHOP),2025-05-31,22:00,60 King St,"60 King Street Melbourne, VIC 3000",https://www.eventbrite.com/e/london-club-boiler-room-afrobeats-rnb-hiphop-amapiano-uk-hiphop-tickets-1365185650029?aff=ebdssbdestsearch,-37.8188863,144.9571605,Music
**MEN SOLD OUT** Speed Dating | Melbourne Saturday Night | Ages 27-49,2025-05-31,19:00,The Metropolitan Hotel,"265 William Street Melbourne, VIC 3000",https://www.eventbrite.com/e/men-sold-out-speed-dating-melbourne-saturday-night-ages-27-49-tickets-1281355100599?aff=ebdssbdestsearch,-37.812902,144.9566615,Social/Dating
Break Stuff,2025-05-31,19:00,Stay Gold,"133 Sydney Road Brunswick, VIC 3056",https://www.eventbrite.com.au/e/break-stuff-tickets-1333611039519?aff=ebdssbdestsearch,-37.77435880000001,144.9606103,Music
Detox Your Home - Aberfeldie,2025-05-31,09:00,Moonee Valley Transfer Station,"188 Holmes Road Aberfeldie, VIC 3040",https://www.eventbrite.com.au/e/detox-your-home-aberfeldie-registration-1081430681279?aff=ebdssbdestsearch,-37.7644352,144.9020954,Talks/Workshops
Root to Rise – Vinyasa Yoga at Flagstaff  Gardens ( Spanish Class),2025-05-31,11:00,Flagstaff Gardens,"309-311 William Street West Melbourne, VIC 3003Mostrar mapa",https://www.eventbrite.com.au/e/entradas-root-to-rise-vinyasa-yoga-at-flagstaff-gardens-spanish-class-1323318303669?aff=ebdssbdestsearch,-37.81170669999999,144.9561169,Talks/Workshops
Dark Mother Lilith: Exploring Origins & Practice,2025-05-31,12:00,Hail Lilith,"Maddern Square Footscray, VIC 3011",https://www.eventbrite.com.au/e/dark-mother-lilith-exploring-origins-practice-tickets-1341412694479?aff=ebdssbdestsearch,-37.80039800000001,144.900268,Error
**MEN SOLD OUT** Speed Dating | Melbourne | Ages 27-49 | SpeedMelbourne,2025-05-31,19:00,The Metropolitan Hotel,"265 William Street Melbourne, VIC 3000",https://www.eventbrite.com/e/men-sold-out-speed-dating-melbourne-ages-27-49-speedmelbourne-tickets-1280784042549?aff=ebdssbdestsearch,-37.812902,144.9566615,Social/Dating
BROOKLYN SATURDAYS - RNB HIPHOP THROWBACKS PARTY LATIN,2025-05-31,21:00,The Black Rabbit,"85 Queen Street Melbourne, VIC 3000",https://www.eventbrite.com/e/brooklyn-saturdays-rnb-hiphop-throwbacks-party-latin-tickets-932351106257?aff=ebdssbdestsearch,-37.81636779999999,144.9611486,Music
High Cheese at Rippon Lea Estate  presented by Showtime Event Group.,2025-05-31,11:00,Rippon Lea Estate,"192 Hotham Street Elsternwick, VIC 3185",https://www.eventbrite.com.au/e/high-cheese-at-rippon-lea-estate-presented-by-showtime-event-group-tickets-1054614904569?aff=ebdssbdestsearch,-37.8798368,144.9987066,Social/Dating
Dried Flower Vase Workshop by Alula Fox at  BOHO LUXE MARKET,2025-05-31,12:00,Seaworks Maritime Precinct,"82 Nelson Place #82 Williamstown, VIC 3016",https://www.eventbrite.com/e/dried-flower-vase-workshop-by-alula-fox-at-boho-luxe-market-tickets-1381519324489?aff=ebdssbdestsearch,-37.863536,144.9065415,Art
Stay & Play,2025-05-31,10:00,Richmond Library Meeting Room (Level 2),"L2, 415 Church Street Richmond, VIC 3121",https://www.eventbrite.com.au/e/stay-play-tickets-1134282562679?aff=ebdssbdestsearch,-37.8252586,144.9982151,Social/Dating
Crystal Aura Bracelet & Diffuser Workshop by Alula Fox BOHO LUXE MARKET,2025-05-31,11:30,Seaworks Maritime Precinct,"82 Nelson Place #82 Williamstown, VIC 3016",https://www.eventbrite.com/e/crystal-aura-bracelet-diffuser-workshop-by-alula-fox-boho-luxe-market-tickets-1127502543459?aff=ebdssbdestsearch,-37.863536,144.9065415,Talks/Workshops
"HOMEBASS feat. Sk4nk, Able8 / Raptorhandz & Elkemist",2025-05-31,20:30,Bar 303,"303 High Street Northcote, VIC 3070",https://www.eventbrite.com.au/e/homebass-feat-sk4nk-able8-raptorhandz-elkemist-tickets-1355964790189?aff=ebdssbdestsearch,-37.7713256,144.9982378,Music
Private Wheel Throwing Workshop with Kiln Firing,2025-05-31,10:30,"Heer Pottery - unit 3/29-31 Clarice Rd, Box Hill South VIC","29-31 Clarice Road #unit 3 Box Hill South, VIC 3128",https://www.eventbrite.com.au/e/private-wheel-throwing-workshop-with-kiln-firing-tickets-1057774515049?aff=ebdssbdestsearch,-37.8333911,145.1339829,Talks/Workshops
Sound Healing - Vibro Acoustic Sound Bath with Romy,2025-05-31,18:30,Private Studio in St Kilda East (see email for address),"Alma Road St Kilda East, VIC 3183",https://www.eventbrite.com.au/e/sound-healing-vibro-acoustic-sound-bath-with-romy-tickets-1347849898329?aff=ebdssbdestsearch,-37.8626178,145.0005983,Talks/Workshops
turbo422 > 31.05,2025-05-31,22:00,turbo422,"422 Little Collins Street Melbourne, VIC 3000",https://www.eventbrite.com.au/e/turbo422-3105-tickets-1341463225619?aff=ebdssbdestsearch,-37.8160523,144.9603782,Music
**MEN SOLD OUT** Melbourne | Speed Dating | Ages 27-49 | SpeedAustralia,2025-05-31,19:00,The Metropolitan Hotel,"265 William Street Melbourne, VIC 3000",https://www.eventbrite.com/e/men-sold-out-melbourne-speed-dating-ages-27-49-speedaustralia-tickets-1281242413549?aff=ebdssbdestsearch,-37.812902,144.9566615,Social/Dating
FLOWFEST @ CIRCUS | SAT 31 MAY,2025-05-31,16:00,Circus Bar,"199 Commercial Road South Yarra, VIC 3141",https://www.eventbrite.com/e/flowfest-circus-sat-31-may-tickets-1340559803459?aff=ebdssbdestsearch,-37.8465589,144.993086,Music
George Bass Coastal Walk - Moderate 15km,2025-05-31,09:30,Shelley Beach Carpark Kilcunda,"4""E Beach Road #1452814 Beaumaris, VIC 3193",https://www.eventbrite.com.au/e/george-bass-coastal-walk-moderate-15km-tickets-1340575851459?aff=ebdssbdestsearch,-37.9890678,145.0451194,Sport
Speed Dating | Melbourne Saturday  Night | Ages 27-49 | SpeedMelbourne,2025-05-31,19:00,The Metropolitan Hotel,"265 William Street Melbourne, VIC 3000",https://www.eventbrite.com/e/speed-dating-melbourne-saturday-night-ages-27-49-speedmelbourne-tickets-1280784042549?aff=ebdssbdestsearch,-37.812902,144.9566615,Social/Dating
Bollywood Beatz - Party Under The Stars,2025-05-31,19:30,EziStreat,"275 Macaulay Road North Melbourne, VIC 3051",https://www.eventbrite.com.au/e/bollywood-beatz-party-under-the-stars-tickets-1323250049519?aff=ebdssbdestsearch,-37.795462,144.9376532,Music
Sideshow Soirée,2025-05-31,19:00,She'll Space,"8 McIver Street Brunswick, VIC 3056",https://www.eventbrite.com.au/e/sideshow-soiree-tickets-1312589122399?aff=ebdssbdestsearch,-37.768709,144.963746,Social/Dating
GTC End of Season Party 2025,2025-05-31,06:30,Sir Henry Barkly Hotel,"92 Burgundy Street Heidelberg, VIC 3084",https://www.eventbrite.com/e/gtc-end-of-season-party-2025-tickets-1353189930509?aff=ebdssbdestsearch,-37.7561904,145.067387,Social/Dating
Aura Numerology Workshop at Psychic & Wellbeing Festival,2025-05-31,11:00,Seaworks Maritime Precinct,"82 Nelson Place #82 Williamstown, VIC 3016",https://www.eventbrite.com/e/aura-numerology-workshop-at-psychic-wellbeing-festival-tickets-1128229377439?aff=ebdssbdestsearch,-37.863536,144.9065415,Talks/Workshops
HEX FIGHT SERIES 35 - The Home of Australian MMA,2025-05-31,04:30,Melbourne Pavillion,"135-157 Racecourse Road Kensington, VIC 3031",https://www.eventbrite.com.au/e/hex-fight-series-35-the-home-of-australian-mma-tickets-1270076666499?aff=ebdssbdestsearch,-37.7891081,144.9364233,Sport
Baby Safe Program:  Baby First Aid/Baby Basic Life Support Small Group 2025,2025-05-31,13:30,Prahran High School,"138 High Street Windsor, VIC 3181",https://www.eventbrite.com.au/e/baby-safe-program-baby-first-aidbaby-basic-life-support-small-group-2025-tickets-1095760853209?aff=ebdssbdestsearch,-37.8517332,144.9913415,Talks/Workshops
"Goldsocks Thunderball EP Launch live at Cherry Bar, SAT May 31st",2025-05-31,20:00,"Cherry Bar, Little Collins Street, Melbourne VIC, Australia","68 Little Collins Street Melbourne, VIC 3000",https://www.eventbrite.com.au/e/goldsocks-thunderball-ep-launch-live-at-cherry-bar-sat-may-31st-tickets-1336138148169?aff=ebdssbdestsearch,-37.8129293,144.9714986,Music
‍ Unleashed x Breath: Nervous System Reset & Emotional Release Breathwork,2025-05-31,10:00,Artful Yoga Gallery,"1 Vale Street St Kilda, VIC 3182",https://www.eventbrite.com/e/unleashed-x-breath-nervous-system-reset-emotional-release-breathwork-tickets-1334856183779?aff=ebdssbdestsearch,-37.8661713,144.9817611,Talks/Workshops
Murder Mystery Experience - Melbourne,2025-05-31,08:00,179 La Trobe St,"179 La Trobe Street Melbourne, VIC 3000",https://www.eventbrite.com/e/murder-mystery-experience-melbourne-tickets-1137771718839?aff=ebdssbdestsearch,-37.809415,144.9652062,Games
"Bottomless Cocktails at Top Yard, Melb CBD",2025-05-31,18:00,Top Yard Rooftop,"Geddes Lane Melbourne, VIC 3000",https://www.eventbrite.com.au/e/bottomless-cocktails-at-top-yard-melb-cbd-tickets-859288333537?aff=ebdssbdestsearch,-37.8191519,144.9574746,Social/Dating
FEMME PLAY [ungrateful slut],2025-05-31,17:30,The Butterfly Club,"5 Carson Place Melbourne, VIC 3000",https://www.eventbrite.co.uk/e/femme-play-ungrateful-slut-tickets-1246831048229?aff=ebdssbdestsearch,-37.8154472,144.9652725,Theatre
The Oz Escape: A Wicked Glitch in Melbourne,2025-05-31,10:00,Melbourne,"Melbourne Melbourne, VIC TBA",https://www.eventbrite.com/e/the-oz-escape-a-wicked-glitch-in-melbourne-tickets-1127108855929?aff=ebdssbdestsearch,-37.8136276,144.9630576,Games
Adult Beginner Tap,2025-05-31,10:00,Dance Factory,"225 Swan Street Richmond, VIC 3121",https://www.eventbrite.com.au/e/adult-beginner-tap-tickets-1317170224599?aff=ebdssbdestsearch,-37.8257587,144.999827,Art
Boho Flower Crown Workshop by Alula Fox at Psychic & Wellbeing Festival,2025-05-31,11:00,Seaworks Maritime Precinct,"82 Nelson Place #82 Williamstown, VIC 3016",https://www.eventbrite.com/e/boho-flower-crown-workshop-by-alula-fox-at-psychic-wellbeing-festival-tickets-1127555943179?aff=ebdssbdestsearch,-37.863536,144.9065415,Talks/Workshops
INDIVISIBLE CONFERENCE 2025,2025-05-31,09:30,5 St Columbs Street,"5 St Columbs Street, Hawthorn Hawthorn, VIC 3122",https://www.eventbrite.com.au/e/indivisible-conference-2025-tickets-917226327637?aff=ebdssbdestsearch,-37.8234863,145.0394759,Talks/Workshops
Burlesque Bingo,2025-05-31,16:00,Speakeasy Theatre,"522 Flinders Street Melbourne, VIC 3000",https://www.eventbrite.com.au/e/burlesque-bingo-tickets-1112184165779?aff=ebdssbdestsearch,-37.8203505,144.956935,Theatre
BFD25,2025-05-31,07:00,Pullman Melbourne On The Park,"192 Wellington Parade East Melbourne, VIC 3002",https://www.eventbrite.com.au/e/bfd25-tickets-910196952587?aff=ebdssbdestsearch,-37.8158404,144.9833174,Business/Networking
Adventurous Scavenger Hunt - Soar Through Scenic St. Kilda,2025-05-31,08:00,18 Lower Esplanade,"18 Lower Esplanade St Kilda, VIC 3182",https://www.eventbrite.com/e/adventurous-scavenger-hunt-soar-through-scenic-st-kilda-tickets-1078014192469?aff=ebdssbdestsearch,-37.8678073,144.9771998,Games
Saturday Kids’ Bootcamp in Bundoora,2025-05-31,09:30,Genesis Health + Fitness Bundoora,"24 Scholar Drive Bundoora, VIC 3083",https://www.eventbrite.com.au/e/saturday-kids-bootcamp-in-bundoora-tickets-1150304715369?aff=ebdssbdestsearch,-37.6827562,145.0733925,Sport
Xclusive  The Show | By MenXclusive Melbourne 31 MAY,2025-05-31,19:00,Platform One,"375 Flinders Street Melbourne, VIC 3000",https://www.eventbrite.com.au/e/xclusive-the-show-by-menxclusive-melbourne-31-may-tickets-1202913439479?aff=ebdssbdestsearch,-37.8192278,144.9622577,Theatre
FLOWFEST @ CIRCUS | SAT 31 MAY | BOILER ROOM,2025-05-31,16:00,Circus Bar,"199 Commercial Road South Yarra, VIC 3141",https://www.eventbrite.com/e/flowfest-circus-sat-31-may-boiler-room-tickets-1340559803459?aff=ebdssbdestsearch,-37.8465589,144.993086,Music
Fur Blossom the 'She Said Sun' Tour w/Erica Avenue + Skiptons,2025-05-31,19:30,280 Sydney Rd,"280 Sydney Road Brunswick, VIC 3056",https://www.eventbrite.com.au/e/fur-blossom-the-she-said-sun-tour-werica-avenue-skiptons-tickets-1334861920939?aff=ebdssbdestsearch,-37.7711488,144.9616353,Music
Flex & Flirt: Speed Dating at the Gym- Melbourne Singles- Ages 26-42,2025-05-31,13:00,Melbourne Calisthenics,"12 Lothian Street North Melbourne, VIC 3051",https://www.eventbrite.com.au/e/flex-flirt-speed-dating-at-the-gym-melbourne-singles-ages-26-42-tickets-1316021528819?aff=ebdssbdestsearch,-37.8036918,144.9446,Social/Dating
Blooms & Buzz - Floral Workshop,2025-05-31,12:00,7a/91 Moreland St,"91 Moreland Street #7a Footscray, VIC 3011",https://www.eventbrite.com.au/e/blooms-buzz-floral-workshop-tickets-1261996338019?aff=ebdssbdestsearch,-37.8085329,144.9046758,Art
Acro/Cheer Classes for 6-12 Year Olds,2025-05-31,10:15,Dance Factory,"225 Swan Street Richmond, VIC 3121",https://www.eventbrite.com.au/e/acrocheer-classes-for-6-12-year-olds-tickets-1321985206339?aff=ebdssbdestsearch,-37.8257587,144.999827,Sport
90s Throwback Festival with Obdurate + GoldenEye,2025-05-31,14:00,The Graveyard Bar,"942 Sydney Road Coburg North, VIC 3058",https://www.eventbrite.com.au/e/90s-throwback-festival-with-obdurate-goldeneye-tickets-1345007426419?aff=ebdssbdestsearch,-37.7236554,144.9638725,Music
Over 50's Beginner Jazz,2025-05-31,11:00,Dance Factory,"225 Swan Street Richmond, VIC 3121",https://www.eventbrite.com.au/e/over-50s-beginner-jazz-tickets-1298816116969?aff=ebdssbdestsearch,-37.8257587,144.999827,Theatre
Adult Beginner Jazz,2025-05-31,13:00,Dance Factory,"225 Swan Street Richmond, VIC 3121",https://www.eventbrite.com.au/e/adult-beginner-jazz-tickets-1317185149239?aff=ebdssbdestsearch,-37.8257587,144.999827,Theatre
2025 VIC Hear For You Life Goals & Skills Blast  Program,2025-05-31,09:30,Ross House Association,"251 Flinders Lane #247 Melbourne, VIC 3000",https://www.eventbrite.com.au/e/2025-vic-hear-for-you-life-goals-skills-blast-program-tickets-1261847272159?aff=ebdssbdestsearch,-37.81687549999999,144.9661088,Talks/Workshops
Metartworld - VR Theme Park Unlimited Pass,2025-05-31,10:00,155 Boundary St,"155 Boundary Street Port Melbourne, VIC 3207",https://www.eventbrite.com.au/e/metartworld-vr-theme-park-unlimited-pass-tickets-1080197312239?aff=ebdssbdestsearch,-37.8266323,144.9408894,Games
Wonderful women’s pilates,2025-05-31,12:15,18 Patrick St,"18 Patrick Street Campbellfield, VIC 3044",https://www.eventbrite.com.au/e/wonderful-womens-pilates-tickets-1236532525069?aff=ebdssbdestsearch,-37.6697126,144.9722713,Sport
Wangzai Badminton Club ABC Social Events (All levels welcomed),2025-05-31,16:00,Abbotsford Badminton Club | ABC Badminton Club | Badminton Club Near | Best Badminton Club,"18 Flockhart Street Abbotsford, VIC 3067",https://www.eventbrite.com/e/wangzai-badminton-club-abc-social-events-all-levels-welcomed-tickets-1351344731469?aff=ebdssbdestsearch,-37.8094849,145.0077443,Sport
Women’s guided journeying + drumming circle,2025-05-31,16:00,Wild Grace Studio,"4a Canterbury Rd Toorak, VIC 3142",https://www.eventbrite.com.au/e/womens-guided-journeying-drumming-circle-tickets-1284884095919?aff=ebdssbdestsearch,-37.84860159999999,145.0094229,Talks/Workshops
Melbourne | Speed Dating | Saturday Event | Ages 27-49 | SpeedAustralia,2025-05-31,19:00,The Metropolitan Hotel,"265 William Street Melbourne, VIC 3000",https://www.eventbrite.com/e/melbourne-speed-dating-saturday-event-ages-27-49-speedaustralia-tickets-1281242413549?aff=ebdssbdestsearch,-37.812902,144.9566615,Social/Dating
Dillinja & Craze - Melbourne,2025-05-31,20:00,Howler,"7-11 Dawson Street Brunswick, VIC 3056",https://www.eventbrite.com.au/e/dillinja-craze-melbourne-tickets-1329243185149?aff=ebdssbdestsearch,-37.771511,144.959539,Music
That kid kearve dirty money aroma Melbourne,2025-05-31,19:00,Laundry Bar,"50 Johnston Street Fitzroy, VIC 3065",https://www.eventbrite.com.au/e/that-kid-kearve-dirty-money-aroma-melbourne-tickets-1256139018619?aff=ebdssbdestsearch,-37.79831,144.976368,Music
"Michael Bublé Tribute Show | Live at Amphora, Docklands",2025-05-31,17:00,Amphora,"740 Bourke Street #Level 1 Docklands, VIC 3008",https://www.eventbrite.com.au/e/michael-buble-tribute-show-live-at-amphora-docklands-tickets-1252624165599?aff=ebdssbdestsearch,-37.8165422,144.9463855,Music
Adult Beginner Lyrical,2025-05-31,12:00,Dance Factory,"225 Swan Street Richmond, VIC 3121",https://www.eventbrite.com.au/e/adult-beginner-lyrical-tickets-1317177105179?aff=ebdssbdestsearch,-37.8257587,144.999827,Art
The forgotten red diamond of Melbourne Quest Experience,2025-05-31,11:00,295 Flinders St,"295 Flinders Street Melbourne, VIC 3000",https://www.eventbrite.com/e/the-forgotten-red-diamond-of-melbourne-quest-experience-tickets-1142208850419?aff=ebdssbdestsearch,-37.8177685,144.9671908,Games
"Women's Dance Classes: Tango, Conditioning, and Salsa",2025-05-31,15:30,I.AM.DANCE,"Kerr Street Fitzroy, VIC 3065",https://www.eventbrite.com.au/e/womens-dance-classes-tango-conditioning-and-salsa-tickets-1353065999829?aff=ebdssbdestsearch,-37.7968685,144.9798521,Sport
Glow Up After 40: Makeup Masterclass in Docklands,2025-05-31,15:00,39 Caravel Ln,"39 Caravel Lane Docklands, VIC 3008",https://www.eventbrite.com.au/e/glow-up-after-40-makeup-masterclass-in-docklands-tickets-1333547900669?aff=ebdssbdestsearch,-37.8147511,144.9407389,Talks/Workshops
Gnocchi Masterclass with Chef Dario of Mamma's Boy Trattoria,2025-05-31,11:00,Mamma's Boy Trattoria,"10 Tripovich Street #6 Brunswick, VIC 3056",https://www.eventbrite.com.au/e/gnocchi-masterclass-with-chef-dario-of-mammas-boy-trattoria-tickets-1309409833059?aff=ebdssbdestsearch,-37.76623730000001,144.9617429,Talks/Workshops
Love and Information,2025-05-31,19:30,Theatre Works,"Saint Leonards Avenue St Kilda, VIC 3182",https://www.eventbrite.com.au/e/love-and-information-tickets-1110861158629?aff=ebdssbdestsearch,-37.8638328,144.9768976,Theatre
The Masks We Wear-Shadow Workshop- Creative Cirlce,2025-05-31,10:30,Cheltenham Community Centre,"8 Chesterville Road Cheltenham, VIC 3192",https://www.eventbrite.com.au/e/the-masks-we-wear-shadow-workshop-creative-cirlce-tickets-1325304263729?aff=ebdssbdestsearch,-37.9623015,145.0566002,Talks/Workshops
Crystal Bloom Sage Workshop by Alula Fox at Psychic & Wellbeing Festival,2025-05-31,12:00,Seaworks Maritime Precinct,"82 Nelson Place #82 Williamstown, VIC 3016",https://www.eventbrite.com/e/crystal-bloom-sage-workshop-by-alula-fox-at-psychic-wellbeing-festival-tickets-1323210561409?aff=ebdssbdestsearch,-37.863536,144.9065415,Talks/Workshops
Pellowah Healing Technique© Practitioner Training Workshop,2025-05-31,10:00,Rugby Road,"Rugby Road Hughesdale, VIC 3166",https://www.eventbrite.com.au/e/pellowah-healing-technique-practitioner-training-tickets-1314206229209?aff=ebdssbdestsearch,-37.8939162,145.0859551,Talks/Workshops
Aura Collage Workshop by Curate U at Psychic & Wellbeing Festival,2025-05-31,11:00,Seaworks Maritime Precinct,"82 Nelson Place #82 Williamstown, VIC 3016",https://www.eventbrite.com.au/e/aura-collage-workshop-by-curate-u-at-psychic-wellbeing-festival-tickets-1127225143749?aff=ebdssbdestsearch,-37.863536,144.9065415,Talks/Workshops
Perspective,2025-05-31,19:30,Alcaston House,"2 Collins Street Melbourne, VIC 3000",https://www.eventbrite.com/e/perspective-tickets-1353036611929?aff=ebdssbdestsearch,-37.8130666,144.9735962,Music
Yang to Yin: An Immersive Practice,2025-05-31,16:00,At One Studio,"127 Buckley Street #L1 Essendon, VIC 3040",https://www.eventbrite.com/e/yang-to-yin-an-immersive-practice-tickets-1326117857209?aff=ebdssbdestsearch,-37.7570386,144.9154857,Talks/Workshops
How To Hold A Sign,2025-05-31,19:00,The Butterfly Club,"5 Carson Place Melbourne, VIC 3000",https://www.eventbrite.co.uk/e/how-to-hold-a-sign-tickets-1119452666059?aff=ebdssbdestsearch,-37.8154472,144.9652725,Theatre
Goddesses Unleashed,2025-05-31,20:30,The Butterfly Club,"5 Carson Place Melbourne, VIC 3000",https://www.eventbrite.co.uk/e/goddesses-unleashed-tickets-1224240499289?aff=ebdssbdestsearch,-37.8154472,144.9652725,Theatre
Melbourne Murder Mystery: Solve the case!,2025-05-31,11:00,FLINDERS STREET STATION,"Flinders Street Melbourne, VIC 3000",https://www.eventbrite.com/e/melbourne-murder-mystery-solve-the-case-tickets-1328437575549?aff=ebdssbdestsearch,-37.8185815,144.9637799,Games
‍ x Breath: Nervous System Reset & Emotional Release Breathwork,2025-05-31,10:00,Artful Yoga Gallery,"1 Vale Street St Kilda, VIC 3182",https://www.eventbrite.com/e/x-breath-nervous-system-reset-emotional-release-breathwork-tickets-1334856183779?aff=ebdssbdestsearch,-37.8661713,144.9817611,Talks/Workshops
LEVELS MELBOURNE 2025,2025-05-31,21:00,Brown Alley,"585 Lonsdale Street Melbourne, VIC 3000",https://www.eventbrite.com.au/e/levels-melbourne-2025-tickets-792933293827?aff=ebdssbdestsearch,-37.8145646,144.9551429,Music
Hip Hop/Jazz Classes for 6-12 Year Olds,2025-05-31,09:30,Dance Factory,"225 Swan Street Richmond, VIC 3121",https://www.eventbrite.com.au/e/hip-hopjazz-classes-for-6-12-year-olds-tickets-1321983039859?aff=ebdssbdestsearch,-37.8257587,144.999827,Theatre
Cabaret Ridiculous,2025-05-31,17:00,Speakeasy Theatre,"522 Flinders Street Melbourne, VIC 3000",https://www.eventbrite.com.au/e/cabaret-ridiculous-tickets-1114249944579?aff=ebdssbdestsearch,-37.8203505,144.956935,Theatre
Melbourne International Comedy Festival Roadshow,2025-05-31,19:30,Melbourne International Comedy Festival,Melbourne,https://www.facebook.com/events/2011224872685653/,-37.8136,144.9631,Comedy
TASTE OF IRELAND ,2025-05-31,00:00,Inkerman Hotel,"375 Inkerman St, St Kilda East VIC 3183, Australia",https://www.facebook.com/events/494748156796361/,-37.866444,144.99799715146656,Unknown
Melbourne Bar Crawl | #1 Saturday Night Out,2025-05-31,00:00,On The Rocks Bar Crawl Melbourne,"The Joint, 35 Elizabeth St, Melbourne VIC 3000, Australia",https://www.facebook.com/events/1358139498520971/?event_time_id=1358139558520965,-37.8172989,144.9643996,Social/Dating
Romance: A Fontaines D.C. Appreciation Night - Melbourne,2025-05-31,23:00,Stay Gold,"133 Sydney Rd, Brunswick VIC 3056, Australia",https://www.facebook.com/events/1154226909790555/,-37.7743469,144.9607404,Music
11 Years Of Sub Club Melbourne (Night 2),2025-05-31,00:00,Sub Club Melbourne,"Flinders Ct, Melbourne VIC 3000, Australia",https://www.facebook.com/events/1941681613312955/,-37.81776587,144.96433104920948,Music
Beltin' Elton,2025-05-31,00:00,Ragtime Tavern,"206 Tyler St, Preston VIC 3072, Australia",https://www.facebook.com/events/575549375578081/?event_time_id=575549392244746,-37.7310367,145.0142411,Music
"HOMEBASS feat. SK4NK, ABLE8/RAPTORHANDZ & ELKEMIST",2025-05-31,00:00,Bar 303,"303 High St, Northcote VIC 3070, Australia",https://www.facebook.com/events/1042550054412789/,-37.7713296,144.99828116650363,Music
RnB Saturdays - Free Entry,2025-05-31,22:00,Laundry Bar,"50 Johnston St, Fitzroy VIC 3065, Australia",https://www.facebook.com/events/1755106022060641/,-37.7983139,144.9764962,Music
The Seduceaphones @ Bar Oussou!,2025-05-31,00:00,Bar Oussou,"653 Sydney Rd, Brunswick VIC 3056, Australia",https://www.facebook.com/events/1788638895026948/,-37.7618155,144.9628753,Music
Matinée Memories: A NIGHT AT THE OPERA,2025-05-31,13:00,Palace Cinemas,"1 Champ St, Coburg VIC 3058, Australia",https://www.facebook.com/events/1764262414470884/,-37.736826,144.968318,Cinema
RADIOSUCCESSI 100% ITALIAN SWING,2025-05-31,18:00,Paris Cat Jazz Club,"6 Goldie Pl, Melbourne VIC 3000, Australia",https://www.facebook.com/events/1694157148645848/,-37.8133262,144.96060714767358,Music
That kid kearve Melbourne tour- laundry bar,2025-05-31,19:00,Laundry Bar,"50 Johnston St, Fitzroy VIC 3065, Australia",https://www.facebook.com/events/596860506507117/,-37.7983139,144.9764962,Music
Break Stuff ,2025-05-31,19:00,Stay Gold,"133 Sydney Rd, Brunswick VIC 3056, Australia",https://www.facebook.com/events/698059772674855/,-37.7743469,144.9607404,Music
Daniel Merriweather | Live at Punters Club,2025-05-31,22:00,Punters Club,"376 Brunswick St, Fitzroy VIC 3065, Australia",https://www.facebook.com/events/1856178181988787/,-37.7960561,144.9790327,Music
RINK'N'BEATS ,2025-05-31,20:00,Olympic Ice Skating Centre,"1080 Centre Rd, Oakleigh South VIC 3167, Australia",https://www.facebook.com/events/1228008148739195/,-37.92643995,145.0937797727106,Music
DEAD // T.B.X // Jalang,2025-05-31,00:00,Mamma Chen's,"42A Albert St, Footscray VIC 3011, Australia",https://www.facebook.com/events/595383316228308/,-37.8047552,144.89727240000002,Music
Orphix // The Roy Boys // Keyo Rose's Flying Circuis,2025-05-31,00:00,Mamma Chen's,"42A Albert St, Footscray VIC 3011, Australia",https://www.facebook.com/events/721816713754372/,-37.8047552,144.89727240000002,Music
[SOLD OUT] Cloud Control - Bliss Release 15th Anniversary Tour - Melbourne,2025-05-31,19:00,Northcote Theatre,"216 High St, Northcote VIC 3070, Australia",https://www.facebook.com/events/4123333824620140/,-37.7737068,144.9982706,Music
GOLDMINDS - We're Back Baby,2025-05-31,21:00,Lulie Tavern,"225 Johnston St, Abbotsford VIC 3067, Australia",https://www.facebook.com/events/1204995361318640/,-37.8000264,144.9936498,Music
Sweetie & Friends,2025-05-31,00:00,Punters Club,"376 Brunswick St, Fitzroy VIC 3065, Australia",https://www.facebook.com/events/961113802863013/,-37.7960561,144.9790327,Music
Soul Chisel @ Oakleigh Music Hall,2025-05-31,20:30,Oakleigh Carnegie RSL,"95/97 Drummond St, Oakleigh VIC 3166, Australia",https://www.facebook.com/events/1804238090116816/,-37.8968576,145.08963741959553,Music
The Townies MUSIC at CERES,2025-05-31,00:00,CERES Environment Park,"Stewart St & Roberts St East, Brunswick VIC 3056, Australia",https://www.facebook.com/events/1034221275326507/,-37.765454,144.9831564,Music
Rock-Q,2025-05-31,00:00,Altona Sports Club,"11 Altona Rd, Altona VIC 3018, Australia",https://www.facebook.com/events/693195183868731/,-37.85754867,144.85121805353086,Music
Barry Sunset | Punters DJ sessions,2025-05-31,23:59,Punters Club,"376 Brunswick St, Fitzroy VIC 3065, Australia",https://www.facebook.com/events/1257805279094614/,-37.7960561,144.9790327,Music
Craze & Dillinja - Melbourne,2025-05-31,00:00,Howler,"7-11 Dawson St, Brunswick VIC 3056, Australia",https://www.facebook.com/events/2121650544929176/,-37.7720304,144.9596527,Music
Powerslave (IRON MAIDEN) with Through The Never (METALLICA),2025-05-31,00:00,Musicland Melbourne,"1359 Sydney Rd, Fawkner VIC 3060, Australia",https://www.facebook.com/events/1002321518525821/,-37.6916774,144.9585701581541,Music
Workshop : Herbal Alchemy with Magic Elixirs,2025-05-31,11:00,Rubix Warehouse,"36 Phoenix St, Brunswick VIC 3056, Australia",https://www.facebook.com/events/1045454147026736/,-37.7698629,144.95727340490248,Talks/Workshops
Diary of a Wimpy Kid: The Hot Mess Show,2025-05-31,00:00,The Wheeler Centre,"176 Little Lonsdale St, Melbourne VIC 3000, Australia",https://www.facebook.com/events/992493439660366/,-37.8101765,144.9652219,Theatre
SANNY VELOO 'Warning Signs' Single Launch Show,2025-05-31,19:30,Bergy Bandroom,"64 Sydney Rd, Brunswick VIC 3056, Australia",https://www.facebook.com/events/636110752665231/,-37.776327,144.9607158,
 3:30 Pick Up & Yard Duty at Lucky 13,2025-05-31,20:00,Lucky 13 Garage,"8 Cochranes Rd, Moorabbin VIC 3189, Australia",https://www.facebook.com/events/676475034792012/,-37.94349189,145.07036236060654,Music
Dread Pirate Records presents...FREE GIG ALERT! FUNKATROID & ELECTRODUB EXPERIMENT,2025-05-31,19:30,Mr Boogie Man Bar,"160 Hoddle St, Abbotsford VIC 3067, Australia",https://www.facebook.com/events/692922989977368/,-37.80245,144.99295304614787,Music
"Kofi Stone at The Night Cat, Melbourne 18+",2025-05-31,19:00,The Night Cat,"137-141 Johnston St, Fitzroy VIC 3065, Australia",https://www.facebook.com/events/371761402675861/,-37.7982971,144.978128,Music
CASH BACKMAN AT MANTRA STUDIO SATURDAY 31 MAY FROM 3.00PM,2025-05-31,00:00,Mantra Studio Kitchen and Bar,"10 Campbell St, Yarraville VIC 3013, Australia",https://www.facebook.com/events/1452622549052902/,-37.820684,144.8947691,Music
"RICEWINE Uncut Single Launch | With O Honey, Soft Porn & OjiAji Live in Melbourne May 31 2025",2025-05-31,20:00,THE CURTIN (John Curtin hotel),"29 Lygon St, Carlton VIC 3053, Australia",https://www.facebook.com/events/502091549535618/,-37.8061581,144.9657057,Music
"Love Action Presents ""The Showdown"" feat CASIM VS GRACEY VS FRIZZY MCGUIRE  Love Action Presents ""Th",2025-05-31,23:00,The Night Cat,"137-141 Johnston St, Fitzroy VIC 3065, Australia",https://www.facebook.com/events/689320633805976/,-37.7982971,144.978128,Music
Scott Pilgrim vs. The World (Film Screening),2025-05-31,19:30,Northcote Social Club,"301 High St, Northcote VIC 3070, Australia",https://www.facebook.com/events/1232186271625777/,-37.771471,144.998414,Cinema
GRAND WAZOO – SOUL With a Capital S | MEMO Music Hall,2025-05-31,19:00,MEMO Music Hall,"88 Acland St, St Kilda VIC 3182, Australia",https://www.facebook.com/events/1332483734448230/,-37.8671902,144.9786817,Music
Eden Burns B2B Chrsitopher Tubbs ALL NIGHT LONG,2025-05-31,00:00,24 Moons,"2 Arthurton Rd, Northcote VIC 3070, Australia",https://www.facebook.com/events/670569209013047/,-37.7691418,144.9982614,Music
Eat The Beat : Home Of The Underground,2025-05-31,00:00,New Guernica,"64 Smith St, Collingwood VIC 3066, Australia",https://www.facebook.com/events/2107955183048162/,-37.80624775,144.98331211946754,Music
Amaya Laucirica with Nathan Hollywood,2025-05-31,20:30,The Merri Creek Tavern,"111 High St, Northcote VIC 3070, Australia",https://www.facebook.com/events/1202822111552959/,-37.7794356,144.996838,Music
THE ART OF TANGO,2025-05-31,00:00,Melbourne Recital Centre,"31 Sturt St, Southbank VIC 3006, Australia",https://www.facebook.com/events/1937531990112683/,-37.82408485,144.96758763141432,Music
'HOUSE OF WAX' VINYL FAIR,2025-05-31,12:00,Northcote Social Club,"301 High St, Northcote VIC 3070, Australia",https://www.facebook.com/events/631241106584391/,-37.771471,144.998414,Music
"(Sat, May 31) WE MAVERICKS (George Lane Matinee Sessions)",2025-05-31,00:00,George Lane St Kilda,"1 George Ln, St Kilda VIC 3182, Australia",https://www.facebook.com/events/2061427647699983/,-37.85997305,144.9780306,Music
"(Sat, May 31) WAZ E JAMES BAND (Feat. Andrew Pendlebury - The Sports)",2025-05-31,00:00,George Lane St Kilda,"1 George Ln, St Kilda VIC 3182, Australia",https://www.facebook.com/events/4012407452345447/,-37.85997305,144.9780306,Music
(SOLD OUT) The NEIL DIAMOND Story featuring JASON TAYLOR | Dinner & Show,2025-05-31,00:00,arcobar heatherton,"8 Arco Ln, Heatherton VIC 3202, Australia",https://www.facebook.com/events/934828195453542/,-37.94673685,145.07837928457485,Music
Body Maintenance - Zipper - Romansy @ The Last Chance ,2025-05-31,20:00,The Last Chance,"238 Victoria St, Melbourne VIC 3000, Australia",https://www.facebook.com/events/2097468210664970/,-37.8059962,144.9585654,Music
Deep South Brass 8 @ Bar Oussou,2025-05-31,19:00,Bar Oussou,"653 Sydney Rd, Brunswick VIC 3056, Australia",https://www.facebook.com/events/4021488591501601/,-37.7618155,144.9628753,Music
BALLROOM BARNDANCE: AN AFTERNOON OF SQUARE DANCE AND TWO STEPPIN’,2025-05-31,00:00,Brunswick Ballroom,"314 Sydney Rd, Brunswick VIC 3056, Australia",https://www.facebook.com/events/1380883343269640/,-37.7704205,144.9617083,Music
Fleetwood Max,2025-05-31,18:00,Bird's Basement,"11 Singers Ln, Melbourne VIC 3000, Australia",https://www.facebook.com/events/1468623354098062/,-37.81114416,144.95680390283175,Music
Sunset Carvery Cruise,2025-06-01,16:30,131 Harbour Esplanade,"131 Harbour Esplanade Docklands, VIC 3008",https://www.eventbrite.com/e/sunset-carvery-cruise-tickets-1115154259409?aff=ebdssbdestsearch,-37.8168491,144.9452291,Social/Dating
Sound Healing - Om with Rom - Sound Bath with Romy,2025-06-01,18:00,Private Studio in St Kilda East (see email for address),"Alma Road St Kilda East, VIC 3183",https://www.eventbrite.com.au/e/sound-healing-om-with-rom-sound-bath-with-romy-tickets-1348036105279?aff=ebdssbdestsearch,-37.8626178,145.0005983,Talks/Workshops
Umana Technique© Practitioner Training Workshop,2025-06-01,10:00,Rugby Road,"Rugby Road Hughesdale, VIC 3166",https://www.eventbrite.com.au/e/umana-technique-practitioner-training-workshop-tickets-1314224403569?aff=ebdssbdestsearch,-37.8939162,145.0859551,Talks/Workshops
Asian LGBT+ Social Night DJ+KARAOKE+KPOP (enter by 8pm) NON-ASIAN WELCOME,2025-06-01,18:00,215 Queen's Bar,"215 Queen Street Melbourne, VIC 3000",https://www.eventbrite.com.au/e/asian-lgbt-social-night-djkaraokekpop-enter-by-8pm-non-asian-welcome-tickets-1232670874769?aff=ebdssbdestsearch,-37.8137882,144.9598785,Social/Dating
How to: Record a good quality 'home demo' workshop (garageband edition),2025-06-01,13:00,1 Palmerston Grove,"1 Palmerston Grove Oakleigh, VIC 3166",https://www.eventbrite.com/e/how-to-record-a-good-quality-home-demo-workshop-garageband-edition-tickets-1323208816189?aff=ebdssbdestsearch,-37.8986938,145.0907576,Talks/Workshops
Paint and Sip: Watercolour Botanical and Florals,2025-06-01,13:45,Paint for Fun,"252 Graham Street #Unit 1 Port Melbourne, VIC 3207",https://www.eventbrite.com.au/e/paint-and-sip-watercolour-botanical-and-florals-tickets-1270085372539?aff=ebdssbdestsearch,-37.8386895,144.9385483,Art
Paint n Sip in Melbourne | Midnight Glow,2025-06-01,14:00,Ladder Art Space,"4/81 Denmark St Kew, VIC 3101",https://www.eventbrite.com.au/e/paint-n-sip-in-melbourne-midnight-glow-tickets-130845647855?aff=ebdssbdestsearch,-37.8089958,145.0285779,Art
Beginners Kokedama Making Workshop,2025-06-01,09:00,be-ras creatives art cafe,"838 Collins Street #shop 6 Docklands, VIC 3008",https://www.eventbrite.com.au/e/beginners-kokedama-making-workshop-tickets-1232440545849?aff=ebdssbdestsearch,-37.8213428,144.9451296,Talks/Workshops
Pottery Wheel Experience - Sunday's - Melbourne,2025-06-01,14:00,"Urth Clay Studio - Melbourne, Strathmore","68B Bulla Road Strathmore, VIC 3041",https://www.eventbrite.com.au/e/pottery-wheel-experience-sundays-melbourne-tickets-826503784067?aff=ebdssbdestsearch,-37.7376746,144.9064462,Art
SUNDAY - Fitzroy Market (May and June 2025),2025-06-01,10:00,Fitzroy Mills Market,"75 Rose Street Fitzroy, VIC 3065",https://www.eventbrite.com.au/e/sunday-fitzroy-market-may-and-june-2025-tickets-1298688344799?aff=ebdssbdestsearch,-37.7956693,144.9779514,Unknown
POOF DOOF Drag Brunch at The Espy - Every Sunday,2025-06-01,12:00,Hotel Esplanade,"11 The Esplanade St Kilda, VIC 3182",https://www.eventbrite.com.au/e/poof-doof-drag-brunch-at-the-espy-every-sunday-tickets-1319647143129?aff=ebdssbdestsearch,-37.8641604,144.9730092,Social/Dating
Sunday Singles Melbourne - Australia's Funniest Singles Event,2025-06-01,16:00,The Comic's Lounge,"26 Errol Street #1 North Melbourne, VIC 3051",https://www.eventbrite.com.au/e/sunday-singles-melbourne-australias-funniest-singles-event-tickets-1310994432639?aff=ebdssbdestsearch,-37.8045082,144.9495239,Social/Dating
"Yin, Pin & Sound - Generous Love",2025-06-01,14:00,Sasana Yoga and Pilates,"462 Smith Street Collingwood, VIC 3066",https://www.eventbrite.com.au/e/yin-pin-sound-generous-love-tickets-1343405956379?aff=ebdssbdestsearch,-37.7948148,144.9853478,Talks/Workshops
Conscious Connection | Besties Who Bake (ages 25 -35),2025-06-01,14:00,Otao Kitchen Cooking School,"393 Victoria Street Abbotsford, VIC 3067",https://www.eventbrite.com.au/e/conscious-connection-besties-who-bake-ages-25-35-tickets-1341339605869?aff=ebdssbdestsearch,-37.810175,144.9987358,Social/Dating
Intro to Risograph Workshop with the Melbourne Art Book Fair,2025-06-01,14:00,Nicholas Building,"37 Swanston Street 5th Floor, Room 512 Melbourne, VIC 3000",https://www.eventbrite.com.au/e/intro-to-risograph-workshop-with-the-melbourne-art-book-fair-tickets-1277765814949?aff=ebdssbdestsearch,-37.8167028,144.9666895,Talks/Workshops
June 1st Caulfield Park | Social Tennis Mix Single/Double - For Singles,2025-06-01,16:00,Caulfield Park Tennis Centre,"280 Balaclava Road Caulfield North, VIC 3161",https://www.eventbrite.com.au/e/june-1st-caulfield-park-social-tennis-mix-singledouble-for-singles-tickets-1341473195439?aff=ebdssbdestsearch,-37.8719411,145.0297196,Social/Dating
8Foot Felix Residency at The Lomond,2025-06-01,17:00,The Lomond Hotel,"225 Nicholson Street Brunswick East, VIC 3057",https://www.eventbrite.com.au/e/8foot-felix-residency-at-the-lomond-tickets-1326148127749?aff=ebdssbdestsearch,-37.7670861,144.9800057,Music
Road To HEX 4,2025-06-01,11:00,Melbourne Pavillion,"135-157 Racecourse Road Kensington, VIC 3031",https://www.eventbrite.com.au/e/road-to-hex-4-tickets-1270067910309?aff=ebdssbdestsearch,-37.7891081,144.9364233,Sport
Emerge: The Creative Journey of Artists,2025-06-01,14:00,ACMI Cinemas - Cinema 1,"Federation Square Flinders Street Melbourne, VIC 3000",https://www.eventbrite.com.au/e/emerge-the-creative-journey-of-artists-tickets-1334814669609?aff=ebdssbdestsearch,-37.8179789,144.9690576,Art
"K-POP Bar Night K-POP DJs, RANDOM DANCE, GAMES, KARAOKE and FREE FOOD",2025-06-01,18:00,215 Queen's Restaurant and Bar,"215 Queen Street Melbourne, VIC 3000",https://www.eventbrite.com.au/e/k-pop-bar-night-k-pop-djs-random-dance-games-karaoke-and-free-food-tickets-845228149147?aff=ebdssbdestsearch,-37.8137882,144.9598785,Music
Duldig Studio Clay Workshop Series: Home is Where the Heart is,2025-06-01,14:00,Duldig Studio Museum & Sculpture Garden,"92 Burke Road East Malvern, VIC 3145",https://www.eventbrite.com.au/e/duldig-studio-clay-workshop-series-home-is-where-the-heart-is-tickets-1317066032959?aff=ebdssbdestsearch,-37.8689721,145.0498034,Art
候场喜剧6月1日星期日开放麦,2025-06-01,14:00,"Club Voltaire, Raglan Street, 北墨爾本 維多利亞省澳洲","14 Raglan Street #1st Floor North Melbourne, VIC 3051",https://www.eventbrite.com/e/61-tickets-1380182656479?aff=ebdssbdestsearch,-37.8042574,144.9501433,Comedy
Conscious Connection | Pasta Party (ages 20-40),2025-06-01,09:00,Otao Kitchen Cooking School,"393 Victoria Street Abbotsford, VIC 3067",https://www.eventbrite.com.au/e/conscious-connection-pasta-party-ages-20-40-tickets-1333765892689?aff=ebdssbdestsearch,-37.810175,144.9987358,Social/Dating
Soul Sunday Day Retreat - In an Art Gallery,2025-06-01,12:00,Artful Yoga Gallery,"1 Vale Street St Kilda, VIC 3182",https://www.eventbrite.com.au/e/soul-sunday-day-retreat-in-an-art-gallery-tickets-1371955047479?aff=ebdssbdestsearch,-37.8661713,144.9817611,Talks/Workshops
ONE PIECE - OP-11 Pre-Release - Gameology BRUNSWICK - 01/06/2025,2025-06-01,11:30,Gameology Brunswick,"36 Hope Street Brunswick, VIC 3056",https://www.eventbrite.com.au/e/one-piece-op-11-pre-release-gameology-brunswick-01062025-tickets-1323339858139?aff=ebdssbdestsearch,-37.7636924,144.9595539,Games
Gene Swinstead Memorial Luncheon,2025-06-01,11:30,The London Tavern Hotel,"238 Lennox Street Richmond, VIC 3121",https://www.eventbrite.com.au/e/gene-swinstead-memorial-luncheon-tickets-1320716642029?aff=ebdssbdestsearch,-37.8221569,144.993691,Social/Dating
"Feel Good Flows Sundays - St Kilda Sea Baths Rooftop, 9.30am",2025-06-01,09:30,St Kilda Sea Baths Roof Top,"18 Jacka Boulevard #10 St Kilda, VIC 3182",https://www.eventbrite.com.au/e/feel-good-flows-sundays-st-kilda-sea-baths-rooftop-930am-tickets-370940231217?aff=ebdssbdestsearch,-37.8653807,144.9720257,Talks/Workshops
Introductory Sommelier Certificate MELBOURNE 2025,2025-06-01,07:00,DoubleTree by Hilton Hotel Melbourne - Flinders Street,"270 Flinders Street Melbourne, VIC 3000",https://www.eventbrite.com.au/e/introductory-sommelier-certificate-melbourne-2025-registration-1068704115779?aff=ebdssbdestsearch,-37.8178608,144.9654542,Talks/Workshops
INTRO TO GROOV3: Sundays in Richmond,2025-06-01,10:30,FOREVER DANCE,"432 Church Street #Unit 2, Level 1 Richmond, VIC 3121",https://www.eventbrite.com.au/e/intro-to-groov3-sundays-in-richmond-tickets-1306172339629?aff=ebdssbdestsearch,-37.8251497,144.9976952,Sport
Prenatal Yoga and Meditation Autumn Sessions,2025-06-01,17:00,Elwood + St Kilda Neighbourhood Learning Centre (ESNLC),"87 Tennyson Street Elwood, VIC 3184",https://www.eventbrite.com/e/prenatal-yoga-and-meditation-autumn-sessions-tickets-1316904941129?aff=ebdssbdestsearch,-37.8800441,144.9895395,Talks/Workshops
Sunday Singles Melbourne - Hosted by Professional Comedians,2025-06-01,16:00,The Comic's Lounge,"26 Errol Street #1 North Melbourne, VIC 3051",https://www.eventbrite.com.au/e/sunday-singles-melbourne-hosted-by-professional-comedians-tickets-1310994432639?aff=ebdssbdestsearch,-37.8045082,144.9495239,Social/Dating
Villa Alba Museum 1st June Open Day,2025-06-01,13:00,Villa Alba Museum,"44 Walmer Street Kew, VIC 3101",https://www.eventbrite.com.au/e/villa-alba-museum-1st-june-open-day-tickets-1270125763349?aff=ebdssbdestsearch,-37.8051441,145.0112191,Art
Winter Wine Market at The Vincent Wine Shop,2025-06-01,14:00,The Vincent Wine Shop,"111 Victoria Avenue Albert Park, VIC 3206",https://www.eventbrite.com/e/winter-wine-market-at-the-vincent-wine-shop-tickets-1315942452299?aff=ebdssbdestsearch,-37.8450308,144.9508355,Social/Dating
"First Aid Training for the Body, Mind and Spirit",2025-06-01,09:00,231 Mt Alexander Rd,"231 Mount Alexander Road Ascot Vale, VIC 3032",https://www.eventbrite.com.au/e/first-aid-training-for-the-body-mind-and-spirit-tickets-1361325203329?aff=ebdssbdestsearch,-37.7793195,144.9302165,Talks/Workshops
Emerge: The Creative Journey of Visual Artists,2025-06-01,14:00,ACMI Cinemas - Cinema 1,"Federation Square Flinders Street Melbourne, VIC 3000",https://www.eventbrite.com.au/e/emerge-the-creative-journey-of-visual-artists-tickets-1334814669609?aff=ebdssbdestsearch,-37.8179789,144.9690576,Cinema
K-POP Random Play Dance with FREE PIZZA and afterparty!,2025-06-01,18:00,215 Queen's Restaurant and Bar,"215 Queen Street Melbourne, VIC 3000",https://www.eventbrite.com.au/e/k-pop-random-play-dance-with-free-pizza-and-afterparty-tickets-1054730389989?aff=ebdssbdestsearch,-37.8137882,144.9598785,Music
Yoga for Tight Bodies,2025-06-01,11:00,Ashtanga Yoga Centre of Melbourne,"110-112 Argyle Street #Level 1 Fitzroy, VIC 3065",https://www.eventbrite.com.au/e/yoga-for-tight-bodies-tickets-1203694224829?aff=ebdssbdestsearch,-37.7977228,144.9791885,Talks/Workshops
Alison Moyet,2025-06-01,12:00,Plenary,"1 Convention Centre Pl, South Wharf VIC 3006, Australia",https://premier.ticketek.com.au/shows/show.aspx?sh=ALISONMO25,-37.8256376,144.9512239,
"""Understanding A Spiritual Life & How to Live It""",2025-06-01,09:30,SWell Centre,"2 Minona Street Hawthorn, VIC 3122",https://www.eventbrite.com.au/e/understanding-a-spiritual-life-how-to-live-it-tickets-1339393354579?aff=ebdssbdestsearch,-37.824233,145.0415796,Talks/Workshops
Garden Party High Tea at Gardens House,2025-06-01,10:30,Gardens House,"Birdwood Avenue Melbourne, VIC 3004",https://www.eventbrite.com.au/e/garden-party-high-tea-at-gardens-house-tickets-1329227698829?aff=ebdssbdestsearch,-37.8311108,144.9767163,Social/Dating
Planners' School Level 1 (Melbourne)  2 - 3 June 2025,2025-06-02,08:00,"The Langham, Melbourne","1 Southgate Avenue Southbank, VIC 3006",https://www.eventbrite.com.au/e/planners-school-level-1-melbourne-2-3-june-2025-tickets-1115891584769?aff=ebdssbdestsearch,-37.8206727,144.9656581,Talks/Workshops
Gain Freedom by Changing your Mindset (Metaphysics Class),2025-06-02,19:00,Northcote,"47 Salisbury Grove Northcote, VIC 3070",https://www.eventbrite.com.au/e/gain-freedom-by-changing-your-mindset-metaphysics-class-tickets-438763642867?aff=ebdssbdestsearch,-37.7639871,145.0024459,Talks/Workshops
Standard Mental Health First Aid,2025-06-02,10:00,Springvale Library,"5 Hillcrest Grove Springvale, VIC 3171",https://www.eventbrite.com.au/e/standard-mental-health-first-aid-tickets-1292110620649?aff=ebdssbdestsearch,-37.9567756,145.1518249,Talks/Workshops
Advanced Fermentation Masterclass with Caitlin Koether,2025-06-02,18:00,Little Molli,"66 Nicholson Street Abbotsford, VIC 3067",https://www.eventbrite.com/e/advanced-fermentation-masterclass-with-caitlin-koether-tickets-1343434010289?aff=ebdssbdestsearch,-37.8069067,144.9966637,Talks/Workshops
Lubrication School Level 1 (Melbourne) 2 - 4 June 2025,2025-06-02,08:00,"The Langham, Melbourne","1 Southgate Avenue Southbank, VIC 3006",https://www.eventbrite.com.au/e/lubrication-school-level-1-melbourne-2-4-june-2025-tickets-1116048995589?aff=ebdssbdestsearch,-37.8206727,144.9656581,Talks/Workshops
Challenges for Couples and Families in Modern Society,2025-06-02,09:00,Deakin Downtown,"727 Collins Street #tower 2 level 12 Melbourne, VIC 3008",https://www.eventbrite.com.au/e/challenges-for-couples-and-families-in-modern-society-tickets-1324656064949?aff=ebdssbdestsearch,-37.8206847,144.949995,Talks/Workshops
Switch,2025-06-02,19:00,The Butterfly Club,"5 Carson Place Melbourne, VIC 3000",https://www.eventbrite.co.uk/e/switch-tickets-1278773248209?aff=ebdssbdestsearch,-37.8154472,144.9652725,Theatre
Instaworthy Blondes MELBOURNE featuring Ozge Durmus & Christina Coope,2025-06-02,09:30,Salon Baby Hair,"Rear 423 Brunswick Street Fitzroy, VIC 3065",https://www.eventbrite.com.au/e/instaworthy-blondes-melbourne-featuring-ozge-durmus-christina-coope-tickets-1106829941149?aff=ebdssbdestsearch,-37.7943429,144.9790463,Talks/Workshops
Adult Inter/Advanced Lyrical,2025-06-02,11:30,Dance Factory,"225 Swan Street Richmond, VIC 3121",https://www.eventbrite.com.au/e/adult-interadvanced-lyrical-tickets-1316048479429?aff=ebdssbdestsearch,-37.8257587,144.999827,Talks/Workshops
7th Floor PLAYground,2025-06-02,18:30,Theatre Works,"14 Acland Street St Kilda, VIC 3182",https://www.eventbrite.com.au/e/7th-floor-playground-tickets-1366468497059?aff=ebdssbdestsearch,-37.8639513,144.9758262,Theatre
Sound Bath & iRest Yoga Nidra Emersion,2025-06-02,06:30,Castlefield Community Centre,"505 Bluff Road Hampton, VIC 3188",https://www.eventbrite.com.au/e/sound-bath-irest-yoga-nidra-emersion-tickets-1336196442529?aff=ebdssbdestsearch,-37.9329002,145.0244454,Talks/Workshops
Life drawing - Unassigned Gallery,2025-06-02,19:00,55 Edward St,"55 Edward Street Brunswick, VIC 3056",https://www.eventbrite.com/e/life-drawing-unassigned-gallery-tickets-1288074257779?aff=ebdssbdestsearch,-37.7738491,144.9631088,Art
Beyonce - Deja Vu (4 week dance course),2025-06-02,06:45,Dance World Studios,"295 Bank Street South Melbourne, VIC 3205",https://www.eventbrite.com.au/e/beyonce-deja-vu-4-week-dance-course-tickets-1373981488619?aff=ebdssbdestsearch,-37.8362059,144.9552333,Talks/Workshops
Adult Beginner Ballet,2025-06-02,13:00,Dance Factory,"225 Swan Street Richmond, VIC 3121",https://www.eventbrite.com.au/e/adult-beginner-ballet-tickets-1316066172349?aff=ebdssbdestsearch,-37.8257587,144.999827,Talks/Workshops
"Seen The Film- Haileybury, Brighton.  Film + discussion with Lael Stone",2025-06-02,19:00,"Haileybury, Brighton","120 South Road Brighton East, VIC 3188",https://www.eventbrite.com.au/e/seen-the-film-haileybury-brighton-film-discussion-with-lael-stone-tickets-1354466498759?aff=ebdssbdestsearch,-37.9313168,145.0067959,Cinema
Feel Good Flows - Monday Nights in Middle Park,2025-06-02,17:30,104 Canterbury Rd,"104 Canterbury Road Middle Park, VIC 3206",https://www.eventbrite.com.au/e/feel-good-flows-monday-nights-in-middle-park-tickets-644741758957?aff=ebdssbdestsearch,-37.8501007,144.9651687,Talks/Workshops
MBT Basic Training for BPD (3-days),2025-06-02,09:00,Spectrum,"110 Church Street Richmond, VIC 3121",https://www.eventbrite.com.au/e/mbt-basic-training-for-bpd-3-days-tickets-1105953640109?aff=ebdssbdestsearch,-37.8142371,144.9995624,Talks/Workshops
Adult Beginner/Inter Lyrical,2025-06-02,11:30,Dance Factory,"225 Swan Street Richmond, VIC 3121",https://www.eventbrite.com.au/e/adult-beginnerinter-lyrical-tickets-1316054828419?aff=ebdssbdestsearch,-37.8257587,144.999827,Talks/Workshops
SKIN LONGEVITY: Guide To Slow Ageing (Melbourne),2025-06-02,09:00,Salon Space,"68 Mollison Street #Level 1 Abbotsford, VIC 3067",https://www.eventbrite.com.au/e/skin-longevity-guide-to-slow-ageing-melbourne-tickets-1254113279579?aff=ebdssbdestsearch,-37.8073024,144.9985504,Talks/Workshops
Winter Fun for Kids in the Williamstown Library,2025-06-02,10:30,Williamstown Library,"104 Ferguson Street Williamstown, VIC 3016",https://www.eventbrite.com.au/e/winter-fun-for-kids-in-the-williamstown-library-tickets-1307583761229?aff=ebdssbdestsearch,-37.85832,144.8961172,Art
Espresso Yourself,2025-06-02,13:00,Miss Lucy,"133 Central Road Nunawading, VIC 3131",https://www.eventbrite.com.au/e/espresso-yourself-tickets-1323177673039?aff=ebdssbdestsearch,-37.8240234,145.1662571,Art
Monday Night Breathwork Class with Analu,2025-06-02,18:00,252 St Kilda Rd,"252 Saint Kilda Road St Kilda, VIC 3182",https://www.eventbrite.com.au/e/monday-night-breathwork-class-with-analu-tickets-1139178416309?aff=ebdssbdestsearch,-37.8633344,144.9858169,Talks/Workshops
Adult Inter/Advanced Ballet,2025-06-02,13:00,Dance Factory,"225 Swan Street Richmond, VIC 3121",https://www.eventbrite.com.au/e/adult-interadvanced-ballet-tickets-1316062220529?aff=ebdssbdestsearch,-37.8257587,144.999827,Talks/Workshops
Adult Drama Classes,2025-06-02,15:00,Dance Factory,"225 Swan Street Richmond, VIC 3121",https://www.eventbrite.com.au/e/adult-drama-classes-tickets-1316070124169?aff=ebdssbdestsearch,-37.8257587,144.999827,Theatre
Unlocking AI: Fundamentals for Newcomers,2025-06-02,13:30,Holden Street Neighbourhood House,"128 Holden Street Fitzroy North, VIC 3068",https://www.eventbrite.com.au/e/unlocking-ai-fundamentals-for-newcomers-registration-1258906847269?aff=ebdssbdestsearch,-37.7801608,144.9845632,Talks/Workshops
CIRCADIAN RHYTHMS,2025-06-02,00:00,Wax Music Lounge,"250 Flinders St, Melbourne VIC 3000, Australia",https://www.facebook.com/events/584862551173325/?event_time_id=584862691173311,-37.8176298,144.9661635,Music
Morning Melodies 2025 Season,2025-06-02,00:00,Arts Centre Melbourne,"100 St Kilda Rd, Southbank VIC 3004, Australia",https://www.facebook.com/events/527914670197100/,-37.8216405,144.9683143,Music
QUAD B RESIDENCY @ BAR OUSSOU,2025-06-02,00:00,Bar Oussou,"653 Sydney Rd, Brunswick VIC 3056, Australia",https://www.facebook.com/events/1025503812650480/,-37.7618155,144.9628753,Music
Emily Ulman (solo) and Alec Ilyine (BEL) live at MCT,2025-06-02,00:00,The Merri Creek Tavern,"111 High St, Northcote VIC 3070, Australia",https://www.facebook.com/events/998769128660374/,-37.7794356,144.996838,Music
Killer Pool Comp - Mondays,2025-06-02,00:00,Inkerman Hotel,"375 Inkerman St, St Kilda East VIC 3183, Australia",https://www.facebook.com/events/1038406204674063/,-37.866444,144.99799715146656,Games
"‘Social Sanctuary’ with Snowy, Beefheart & McQuinn + Za Noon",2025-06-02,19:00,Northcote Social Club,"301 High St, Northcote VIC 3070, Australia",https://www.facebook.com/events/708100768412939/,-37.771471,144.998414,Music
JAZZPARTY MONDAY NIGHTS IN MAY/JUNE AT LULIE TAVERN,2025-06-02,00:00,Lulie Tavern,"225 Johnston St, Abbotsford VIC 3067, Australia",https://www.facebook.com/events/976995041217920/,-37.8000264,144.9936498,Music
The Penny Black Comedy Night,2025-06-02,18:00,The Penny Black,"420 Sydney Rd, Brunswick VIC 3056, Australia",https://www.facebook.com/events/1355368939053588/,-37.7679775,144.9621651,Comedy
Tavern Trivia - FREE Gaming & Pop Culture Trivia,2025-06-02,00:00,Fortress Melbourne,"Shop 25/23 Caledonian Ln, Melbourne VIC 3000, Australia",https://www.facebook.com/events/584700344451993/,-37.8120357,144.9642299,Games
MORBID MONDAYS AT OLD BAR - JUNE 2ND - THE WORLD AT A GLANCE / WHELVE / BLUT UND LÄRM - FREE ENTRY ,2025-06-02,20:00,The Old Bar,"74-76 Johnston St, Fitzroy VIC 3065, Australia",https://www.facebook.com/events/1225924318378741/,-37.79833,144.97711,Music
Stephen Hough,2025-06-02,19:30,Melbourne Recital Centre,"31 Sturt St, Southbank VIC 3006, Australia",https://www.facebook.com/events/581087808164057/,-37.82408485,144.96758763141432,Music
Launch Your Own Successful AI App | AI Startup | Workshop 2025,2025-06-03,13:00,Regus Office,"Melbourne Regus Office Melbourne, VIC",https://www.eventbrite.com/e/launch-your-own-successful-ai-app-ai-startup-workshop-2025-tickets-892931420917?aff=ebdssbdestsearch,-37.8107359,144.966442,Talks/Workshops
"St. Kilda VIC - NDIS Lunch & Learn: Collaborate, Connect & Grow",2025-06-03,12:00,Stokehouse St Kilda,"30 Jacka Boulevard St Kilda, VIC 3182",https://www.eventbrite.com.au/e/st-kilda-vic-ndis-lunch-learn-collaborate-connect-grow-tickets-1118437951019?aff=ebdssbdestsearch,-37.8676648,144.9744057,Business/Networking
Weekly MTG Commander at The Gaming Arena,2025-06-03,00:00,The Gaming Arena,"123 Bakers Rd, Coburg North VIC 3058, Australia",https://www.facebook.com/events/1541838383370198/,-37.72715826,144.96115535488718,Games
Yarra Banks Jam @ Bar 303,2025-06-03,00:00,Bar 303,"303 High St, Northcote VIC 3070, Australia",https://www.facebook.com/events/589465910770603/,-37.7713296,144.99828116650363,Music
 Mabo Day Concert 2025 ,2025-06-03,00:00,Fed Square,"Swanston St &, Flinders St, Melbourne VIC 3000, Australia",https://www.facebook.com/events/1725391424721212/,-37.81767355,144.9667825800355,Music
Meet Cute: A Celebration of Romantic Comedies,2025-06-03,00:00,Lido Cinemas,"675 Glenferrie Rd, Hawthorn VIC 3122, Australia",https://www.facebook.com/events/652154180558242/?event_time_id=652154203891573,-37.8205529,145.0355738,Cinema
BRAZLOMBIA,2025-06-03,00:00,Wax Music Lounge,"250 Flinders St, Melbourne VIC 3000, Australia",https://www.facebook.com/events/585678634285012/?event_time_id=585678664285009,-37.8176298,144.9661635,Music
Gay-ming with Pride at The Gaming Arena!,2025-06-03,00:00,The Gaming Arena,"123 Bakers Rd, Coburg North VIC 3058, Australia",https://www.facebook.com/events/467533492828961/,-37.72715826,144.96115535488718,Games
Spoken Word @ Bar Oussou!,2025-06-03,00:00,Bar Oussou,"653 Sydney Rd, Brunswick VIC 3056, Australia",https://www.facebook.com/events/807715171482397/,-37.7618155,144.9628753,Talks/Workshops
Tix at 12,2025-06-03,00:00,Arts Centre Melbourne,"100 St Kilda Rd, Southbank VIC 3004, Australia",https://www.facebook.com/events/473885795706627/,-37.8216405,144.9683143,Theatre
Cash Prize POOL COMP,2025-06-03,00:00,Inkerman Hotel,"375 Inkerman St, St Kilda East VIC 3183, Australia",https://www.facebook.com/events/1056315672649917/,-37.866444,144.99799715146656,Games
Samson and Delilah,2025-06-03,19:30,Palais Theatre,"Lower Esplanade, St Kilda VIC 3182, Australia",https://www.facebook.com/events/1343548193460192/,-37.86708671,144.97599656199426,Cinema
Generative AI for Society and Workplace | Melbourne,2025-06-03,15:00,Melbourne,"Online Event Melbourne, VIC 3000",https://www.eventbrite.com.au/e/generative-ai-for-society-and-workplace-melbourne-tickets-1147867816539?aff=ebdssbdestsearch,-37.8279601,144.9683224,Talks/Workshops
Comedy at Jambo!,2025-06-03,19:00,Jambo Bar & Cafe,"195 Barkly Street Footscray, VIC 3011",https://www.eventbrite.com.au/e/comedy-at-jambo-tickets-623426745177?aff=ebdssbdestsearch,-37.7997437,144.8977187,Comedy
Certified Sommelier Certificate Examination MELBOURNE 2025,2025-06-03,07:00,DoubleTree by Hilton Hotel Melbourne - Flinders Street,"270 Flinders Street Melbourne, VIC 3000",https://www.eventbrite.com.au/e/certified-sommelier-certificate-examination-melbourne-2025-registration-1068821657349?aff=ebdssbdestsearch,-37.8178608,144.9654542,Talks/Workshops
Floral Drawing Sessions,2025-06-03,11:30,Caelene Nee Glen,"143 Martin Street Brighton, VIC 3186",https://www.eventbrite.com.au/e/floral-drawing-sessions-tickets-1313384290769?aff=ebdssbdestsearch,-37.8971051,145.0033783,Art
Tuesday Language Exchange at Diesel bar,2025-06-03,18:00,Diesel Bar & Eatery,"202 Little Lonsdale Street Melbourne, VIC 3000",https://www.eventbrite.com.au/e/tuesday-language-exchange-at-diesel-bar-tickets-1270326423529?aff=ebdssbdestsearch,-37.8106704,144.9633799,Social/Dating
DF Mobile & DF3 Infusions (Melbourne),2025-06-03,09:00,Salon Space,"68 Mollison Street #Level 1 Abbotsford, VIC 3067",https://www.eventbrite.com.au/e/df-mobile-df3-infusions-melbourne-tickets-1254199086229?aff=ebdssbdestsearch,-37.8073024,144.9985504,Talks/Workshops
Networking Event (VIC) Industry 4.0 Update,2025-06-03,18:00,The Mission to Seafarers Victoria,"717 Flinders Street Docklands, VIC 3005",https://www.eventbrite.com.au/e/networking-event-vic-industry-40-update-tickets-1316081086959?aff=ebdssbdestsearch,-37.8225172,144.951249,Business/Networking
Fresh Networking Melbourne CBD  -  Guest Registration,2025-06-03,07:30,Krimper Cafe,"20 Guildford Lane Melbourne, VIC 3000",https://www.eventbrite.com.au/e/fresh-networking-melbourne-cbd-guest-registration-tickets-105049435690?aff=ebdssbdestsearch,-37.8111993,144.9601337,Business/Networking
Winter Tuesday Art Playgroup in Newport,2025-06-03,10:00,Newport Gardens Early Years Centre (Community Room),"51 Maddox Road Newport, VIC 3015",https://www.eventbrite.com.au/e/winter-tuesday-art-playgroup-in-newport-tickets-1305710648699?aff=ebdssbdestsearch,-37.8456592,144.8677992,Art
Introduction to Visual Arts,2025-06-03,12:45,Holden Street Neighbourhood House,"128 Holden Street Fitzroy North, VIC 3068",https://www.eventbrite.com.au/e/introduction-to-visual-arts-tickets-1260234237529?aff=ebdssbdestsearch,-37.7801608,144.9845632,Art
Adult Beginner/Inter Commercial Jazz,2025-06-03,10:30,Dance Factory,"225 Swan Street Richmond, VIC 3121",https://www.eventbrite.com.au/e/adult-beginnerinter-commercial-jazz-tickets-1317069944659?aff=ebdssbdestsearch,-37.8257587,144.999827,Talks/Workshops
[English x Japanese Language Exchange] 【英語×日本語の言語交換】,2025-06-03,18:00,Diesel Bar & Eatery,"202 Little Lonsdale Street Melbourne, VIC 3000",https://www.eventbrite.com.au/e/english-x-japanese-language-exchange-tickets-1257681652679?aff=ebdssbdestsearch,-37.8106704,144.9633799,Social/Dating
Yoga & Art in an Art Gallery,2025-06-03,18:00,Artful Yoga Gallery,"1 Vale Street St Kilda, VIC 3182",https://www.eventbrite.com.au/e/yoga-art-in-an-art-gallery-tickets-1329332512329?aff=ebdssbdestsearch,-37.8661713,144.9817611,Art
Sacred Divine Light Meditation Circle,2025-06-03,19:00,Vyve Meditation Centre,"266 Bolton Street #1A Eltham, VIC 3095",https://www.eventbrite.com.au/e/sacred-divine-light-meditation-circle-tickets-1340102615999?aff=ebdssbdestsearch,-37.720178,145.138187,Talks/Workshops
Wine Tasting at ReWine (Brunswick East),2025-06-03,06:30,"ReWine, Lygon Street, Brunswick VIC, Australia","522 Lygon Street Brunswick, VIC 3056",https://www.eventbrite.com.au/e/wine-tasting-at-rewine-brunswick-east-tickets-1238480170529?aff=ebdssbdestsearch,-37.7623902,144.9736184,Social/Dating
Fresh Networking Balwyn  -  Guest Registration,2025-06-03,07:30,Stranger Coffeehouse & Kitchen,"208 Whitehorse Road Balwyn, VIC 3103",https://www.eventbrite.com.au/e/fresh-networking-balwyn-guest-registration-tickets-1088342865809?aff=ebdssbdestsearch,-37.8129294,145.0799533,Business/Networking
"Breathwork Journeys For Life, Career & Leadership, with Mike McGregor",2025-06-03,19:00,14 Church St,"14 Church Street Hawthorn, VIC 3122",https://www.eventbrite.com.au/e/breathwork-journeys-for-life-career-leadership-with-mike-mcgregor-tickets-1274917365159?aff=ebdssbdestsearch,-37.8136111,145.0226109,Talks/Workshops
Maribyrnong River Evening Walk - Easy 6km - Welcome Tennille!,2025-06-03,18:30,Anglers Tavern,"2 Anglers Way Maribyrnong, VIC 3032",https://www.eventbrite.com.au/e/maribyrnong-river-evening-walk-easy-6km-welcome-tennille-tickets-1373979171689?aff=ebdssbdestsearch,-37.7690157,144.9014911,Sport
Spanish Amigos Language Exchange [English x Spanish],2025-06-03,18:00,Diesel Bar & Eatery,"202 Little Lonsdale Street Melbourne, VIC 3000",https://www.eventbrite.com.au/e/spanish-amigos-language-exchange-english-x-spanish-tickets-1257678322719?aff=ebdssbdestsearch,-37.8106704,144.9633799,Social/Dating
Beginners Contemporary Dance (8 week course),2025-06-03,06:30,Transit Dance Studio,"64 Dawson Street Brunswick, VIC 3056",https://www.eventbrite.com.au/e/beginners-contemporary-dance-8-week-course-tickets-1365209050019?aff=ebdssbdestsearch,-37.7701752,144.9559255,Theatre
Ben Sorensen's Trivia Experience,2025-06-03,19:00,Hofbräuhaus Melbourne,"18-28 Market Lane Melbourne, VIC 3000",https://www.eventbrite.com.au/e/ben-sorensens-trivia-experience-registration-1225783093229?aff=ebdssbdestsearch,-37.8116657,144.9692918,Games
Bachata Corazon Tuesday Class & Social,2025-06-03,18:15,The Space Dance & Arts Centre,"318 Chapel Street Prahran, VIC 3181",https://www.eventbrite.com.au/e/bachata-corazon-tuesday-nights-tickets-1134271920849?aff=ebdssbdestsearch,-37.8476748,144.9942004,Social/Dating
"Forró Dance Classes - Term 2, 2025",2025-06-03,06:45,Errol's,"69/71 Errol Street North Melbourne, VIC 3051",https://www.eventbrite.com.au/e/forro-dance-classes-term-2-2025-registration-1325072781359?aff=ebdssbdestsearch,-37.8035381,144.9493366,Talks/Workshops
Women's Singing Circle Thornbury (Mums and Bubs welcome!),2025-06-03,11:00,678 High St,"678 High Street Thornbury, VIC 3071",https://www.eventbrite.com.au/e/womens-singing-circle-thornbury-mums-and-bubs-welcome-tickets-1322719974049?aff=ebdssbdestsearch,-37.7589291,145.0008132,Music
Weekly Cuban Dance Class (Tuesday),2025-06-03,19:00,277-283 Queensberry St,"277-283 Queensberry Street Melbourne, VIC 3000",https://www.eventbrite.com/e/weekly-cuban-dance-class-tuesday-tickets-1322790926269?aff=ebdssbdestsearch,-37.80426569999999,144.9592835,Music
Over 50's Beginner Ballet,2025-06-03,11:30,Dance Factory,"225 Swan Street Richmond, VIC 3121",https://www.eventbrite.com.au/e/over-50s-beginner-ballet-tickets-1298814080879?aff=ebdssbdestsearch,-37.8257587,144.999827,Talks/Workshops
TACO TUEDAYS,2025-06-03,00:00,Inkerman Hotel,"375 Inkerman St, St Kilda East VIC 3183, Australia",https://www.facebook.com/events/1570429663626220/,-37.866444,144.99799715146656,Unknown
Open Mic Night ,2025-06-04,00:00,Bergy Bandroom,"64 Sydney Rd, Brunswick VIC 3056, Australia",https://www.facebook.com/events/1811293616367922/,-37.776327,144.9607158,
Hector's Wednesdays in June,2025-06-04,00:00,Bar 303,"303 High St, Northcote VIC 3070, Australia",https://www.facebook.com/events/1261832572174477/,-37.7713296,144.99828116650363,Music
Open Mic & Jam @ BAR OUSSOU! ,2025-06-04,00:00,Bar Oussou,"653 Sydney Rd, Brunswick VIC 3056, Australia",https://www.facebook.com/events/530685326228412/,-37.7618155,144.9628753,Music
Piano Club #14,2025-06-04,16:00,Ragtime Tavern,"206 Tyler St, Preston VIC 3072, Australia",https://www.facebook.com/events/573276125822343/,-37.7310367,145.0142411,Music
The Melbourne Moth StorySLAM: HOSPITALITY,2025-06-04,19:30,Howler,"7-11 Dawson St, Brunswick VIC 3056, Australia",https://www.facebook.com/events/676638955351377/,-37.7720304,144.9596527,Talks/Workshops
POLLY AND THE POCKETS & SMOOTH BRAINS ,2025-06-04,19:00,The Last Chance,"238 Victoria St, Melbourne VIC 3000, Australia",https://www.facebook.com/events/993138422987628/,-37.8059962,144.9585654,Music
Hannah Cameron and Clio Renner MCT June Residency,2025-06-04,00:00,The Merri Creek Tavern,"111 High St, Northcote VIC 3070, Australia",https://www.facebook.com/events/654248037615713/,-37.7794356,144.996838,Music
OCEAN with David Attenborough: Q&A Screening,2025-06-04,18:40,Cinema Nova,"380 Lygon St, Carlton VIC 3053, Australia",https://www.facebook.com/events/2052684965254709/,-37.7978092,144.9680124,Talks/Workshops
RISING : NIGHT TRADE,2025-06-04,00:00,Max Watts,"125 Swanston St, Melbourne VIC 3000, Australia",https://www.facebook.com/events/695723369478392/,-37.8147557,144.9659879,Art
Board Game Social: Developer Night,2025-06-04,00:00,Fortress Melbourne,"Shop 25/23 Caledonian Ln, Melbourne VIC 3000, Australia",https://www.facebook.com/events/1320553089049387/,-37.8120357,144.9642299,Games
Age of Sigmar - Casual battles at The Arena ,2025-06-04,00:00,The Gaming Arena,"123 Bakers Rd, Coburg North VIC 3058, Australia",https://www.facebook.com/events/1361807911861091/,-37.72715826,144.96115535488718,Games
The Harmonix Experience,2025-06-04,21:00,Bird's Basement,"11 Singers Ln, Melbourne VIC 3000, Australia",https://www.facebook.com/events/1408534220282996/,-37.81114416,144.95680390283175,Music
Trivia Night,2025-06-04,00:00,Inkerman Hotel,"375 Inkerman St, St Kilda East VIC 3183, Australia",https://www.facebook.com/events/2779506008881959/,-37.866444,144.99799715146656,Games
MELLOWDÍAS THUMP,2025-06-04,00:00,Wax Music Lounge,"250 Flinders St, Melbourne VIC 3000, Australia",https://www.facebook.com/events/1124371722195700/,-37.8176298,144.9661635,Music
Board Game Social,2025-06-04,00:00,Fortress Melbourne,"Shop 25/23 Caledonian Ln, Melbourne VIC 3000, Australia",https://www.facebook.com/events/2385724768449287/,-37.8120357,144.9642299,Social/Dating
Fresh Networking Moorabbin - Guest Registration,2025-06-04,07:30,arcobar heatherton,"8 Arco Lane Heatherton, VIC 3202",https://www.eventbrite.com.au/e/fresh-networking-moorabbin-guest-registration-tickets-104922327506?aff=ebdssbdestsearch,-37.9474077,145.0804634,Business/Networking
Living with Intention. Lead from SELF,2025-06-04,06:30,TreeHaus Williamstown Lucia Room,"95 Ferguson Street Williamstown, VIC 3016",https://www.eventbrite.com.au/e/living-with-intention-lead-from-self-tickets-1344967346539?aff=ebdssbdestsearch,-37.859053,144.896702,Talks/Workshops
"No Lights No Lycra- We Dance in The Dark- Wednesdays, LOEV, Moorabbin",2025-06-04,06:45,LOEV,"77 Keys Road Moorabbin, VIC 3189",https://www.eventbrite.com.au/e/no-lights-no-lycra-we-dance-in-the-dark-wednesdays-loev-moorabbin-tickets-1349433675449?aff=ebdssbdestsearch,-37.9484271,145.067727,Music
Adult Intermediate Lyrical,2025-06-04,07:30,Dance Factory,"225 Swan Street Richmond, VIC 3121",https://www.eventbrite.com.au/e/adult-intermediate-lyrical-tickets-1261793220489?aff=ebdssbdestsearch,-37.8257587,144.999827,Art
ISAP Day & Certification Event - VIC,2025-06-04,08:30,Ventia,"169 Cremorne Street #167 Cremorne, VIC 3121",https://www.eventbrite.com.au/e/isap-day-certification-event-vic-tickets-1333458232469?aff=ebdssbdestsearch,-37.8307801,144.9903329,Business/Networking
CBD: Business Owners meetup. Monthly,2025-06-04,18:00,Ross House Association,"251 Flinders Lane #247 Melbourne, VIC 3000",https://www.eventbrite.com.au/e/cbd-business-owners-meetup-monthly-tickets-1290886027859?aff=ebdssbdestsearch,-37.81687549999999,144.9661088,Business/Networking
Over 50s Jazz Classes,2025-06-04,11:30,Dance Factory,"Melbourne VIC, Australia 225 Swan St Richmond Melbourne, VIC",https://www.eventbrite.com.au/e/over-50s-jazz-classes-tickets-933177808947?aff=ebdssbdestsearch,-37.8257587,144.999827,Sport
Yoga with Live music,2025-06-04,16:00,329 Dorcas St,"329 Dorcas Street South Melbourne, VIC 3205",https://www.eventbrite.com.au/e/yoga-with-live-music-tickets-1333817487009?aff=ebdssbdestsearch,-37.8345015,144.9563132,Music
Maton Guitars factory Tour,2025-06-04,10:00,6 Clarice Rd,"6 Clarice Road Box Hill South, VIC 3128",https://www.eventbrite.com.au/e/maton-guitars-factory-tour-tickets-1280363364289?aff=ebdssbdestsearch,-37.8356982,145.1335762,Talks/Workshops
Building your Feedback Fitness - Virtual Learning Bite 2025,2025-06-04,12:00,Melbourne,"Melbourne Melbourne, VIC 3000",https://www.eventbrite.com.au/e/building-your-feedback-fitness-virtual-learning-bite-2025-tickets-1082700328829?aff=ebdssbdestsearch,-37.8152065,144.963937,Talks/Workshops
✨ Tango Wednesdays ✨,2025-06-04,19:00,1 Pitt St,"1 Pitt Street Brunswick, VIC 3056",https://www.eventbrite.com.au/e/tango-wednesdays-tickets-1351259165539?aff=ebdssbdestsearch,-37.7711984,144.9711714,Social/Dating
Over 50's Beginner Tap,2025-06-04,12:30,Dance Factory,"225 Swan Street Richmond, VIC 3121",https://www.eventbrite.com.au/e/over-50s-beginner-tap-tickets-1298810369779?aff=ebdssbdestsearch,-37.8257587,144.999827,Theatre
Adult Beginner/Inter Contemporary,2025-06-04,11:30,Dance Factory,"225 Swan Street Richmond, VIC 3121",https://www.eventbrite.com.au/e/adult-beginnerinter-contemporary-tickets-1317139643129?aff=ebdssbdestsearch,-37.8257587,144.999827,Theatre
Adult Beginner/Inter Broadway Jazz,2025-06-04,10:30,Dance Factory,"225 Swan Street Richmond, VIC 3121",https://www.eventbrite.com.au/e/adult-beginnerinter-broadway-jazz-tickets-1317133324229?aff=ebdssbdestsearch,-37.8257587,144.999827,Theatre
Bachata ConeXion 'Wednesdays',2025-06-04,18:30,160 Lygon St,"160 Lygon Street Carlton, VIC 3053",https://www.eventbrite.com.au/e/bachata-conexion-wednesdays-tickets-945471108537?aff=ebdssbdestsearch,-37.8034383,144.9667231,Social/Dating
Cuban Wednesdays - Social Dancing,2025-06-04,22:00,277-283 Queensberry St,"277-283 Queensberry Street Melbourne, VIC 3000",https://www.eventbrite.com/e/cuban-wednesdays-social-dancing-tickets-1342786152529?aff=ebdssbdestsearch,-37.80426569999999,144.9592835,Music
Adult Intermediate Jazz,2025-06-04,06:30,Dance Factory,"225 Swan Street Richmond, VIC 3121",https://www.eventbrite.com.au/e/adult-intermediate-jazz-tickets-1118403578209?aff=ebdssbdestsearch,-37.8257587,144.999827,Theatre
ACBC Vic | Business Frontiers - Tourism,2025-06-04,16:00,level 5/121 Exhibition St,"121 Exhibition Street #level 5 Melbourne, VIC 3000",https://www.eventbrite.com.au/e/acbc-vic-business-frontiers-tourism-tickets-1326111859269?aff=ebdssbdestsearch,-37.8126466,144.9703748,Business/Networking
Pride in the Classroom ~ Presented by MSA Queer & META,2025-06-04,18:00,(G16) Woodside Building for Technology and Design,"20 Exhibition Walk Clayton, VIC 3168",https://www.eventbrite.com.au/e/pride-in-the-classroom-presented-by-msa-queer-meta-tickets-1349266445259?aff=ebdssbdestsearch,-37.9095358,145.1352086,Talks/Workshops
BNI Yarra Business Partners Breakfast & Networking Event,2025-06-04,06:45,Au79,"29 Nicholson Street #27 Abbotsford, VIC 3067",https://www.eventbrite.com.au/e/bni-yarra-business-partners-breakfast-networking-event-tickets-1095930340149?aff=ebdssbdestsearch,-37.808833,144.995982,Business/Networking
June Luncheon,2025-06-04,12:00,Graduate House,"220 Leicester St Carlton, VIC 3053",https://www.eventbrite.com.au/e/june-luncheon-tickets-1347295911339?aff=ebdssbdestsearch,-37.8007198,144.9613547,Talks/Workshops
Asset Management School (Melbourne) 4 - 5 June 2025,2025-06-04,08:00,"The Langham, Melbourne","1 Southgate Avenue Southbank, VIC 3006",https://www.eventbrite.com.au/e/asset-management-school-melbourne-4-5-june-2025-tickets-1116057410759?aff=ebdssbdestsearch,-37.8206727,144.9656581,Talks/Workshops
Melbourne CBD Speed Dating for ages 30-46 by Cheeky Events Australia,2025-06-04,19:00,Hophaus Bar,"3 Southgate Avenue Southbank Melbourne, VIC 3006",https://www.eventbrite.com.au/e/melbourne-cbd-speed-dating-for-ages-30-46-by-cheeky-events-australia-tickets-1334818170079?aff=ebdssbdestsearch,-37.820556,144.965833,Social/Dating
DBSC - Ultimate Battle 2025 Vol.2 - Gameology CLAYTON SOUTH - 04/06/25,2025-06-04,06:30,Gameology,"12 Eileen Road Clayton South, VIC 3169",https://www.eventbrite.com.au/e/dbsc-ultimate-battle-2025-vol2-gameology-clayton-south-040625-tickets-1333625191849?aff=ebdssbdestsearch,-37.9512104,145.1347381,Games
Inner Child Connection & Healing Ceremony,2025-06-04,18:30,"Oracle of Crystals, 228 Glenferrie Road, Malvern VIC, Australia","228 Glenferrie Road Malvern, VIC 3144",https://www.eventbrite.com.au/e/inner-child-connection-healing-ceremony-tickets-1352976381779?aff=ebdssbdestsearch,-37.8585334,145.0292064,Talks/Workshops
Port Melbourne Surf Club to Sandridge Lookout Sunrise Walk w/DAN - Easy 5km,2025-06-04,06:00,Port Melbourne Life Saving Club,"38 Beaconsfield Parade Port Melbourne, VIC 3207",https://www.eventbrite.com.au/e/port-melbourne-surf-club-to-sandridge-lookout-sunrise-walk-wdan-easy-5km-tickets-1376205300099?aff=ebdssbdestsearch,-37.8450696,144.9421546,Sport
"Nathan Broad & Sam Lalor LIVE at Union Hotel, Ascot Vale!",2025-06-04,19:00,Union Hotel,"252 Union Road Ascot Vale, VIC 3032",https://www.eventbrite.com.au/e/nathan-broad-sam-lalor-live-at-union-hotel-ascot-vale-tickets-1333677999799?aff=ebdssbdestsearch,-37.7719746,144.9163728,Sport
"Melb Event | An evening of innovators, sustainability, fashion & beauty",2025-06-04,17:30,Runway Room Armadale,"1166 High Street Armadale, VIC 3143",https://www.eventbrite.com.au/e/melb-event-an-evening-of-innovators-sustainability-fashion-beauty-tickets-1323210832219?aff=ebdssbdestsearch,-37.8562977,145.0261447,Business/Networking
Coping skills toolkit,2025-06-04,09:30,Orygen Colonial  Foundation Innovation Centre,"35 Poplar Road Parkville, VIC 3052",https://www.eventbrite.com.au/e/coping-skills-toolkit-tickets-1108923051699?aff=ebdssbdestsearch,-37.7801959,144.9478953,Talks/Workshops
Discover Your Core Values & Unlock True Career Clarity,2025-06-04,18:00,Inspire9,"41 Stewart Street Level1 @Inspire9 Richmond, Melbourne, VIC 3121",https://www.eventbrite.com.au/e/discover-your-core-values-unlock-true-career-clarity-tickets-1334781299799?aff=ebdssbdestsearch,-37.8239498,144.9911608,Talks/Workshops
Fresh Networking Coburg - Guest Registration,2025-06-04,07:30,The Boot Factory,"19 Pentridge Boulevard #1 Coburg, VIC 3058",https://www.eventbrite.com.au/e/fresh-networking-coburg-guest-registration-tickets-105057008340?aff=ebdssbdestsearch,-37.7376447,144.9691569,Business/Networking
Kingston Business Leaders Breakfast,2025-06-04,07:30,34A Bignell Rd,"34A Bignell Road Moorabbin, VIC 3189",https://www.eventbrite.com.au/e/kingston-business-leaders-breakfast-tickets-1333563918579?aff=ebdssbdestsearch,-37.9387033,145.0687627,Business/Networking
Drawing Straws presents Cabaret of Curiosities,2025-06-04,07:30,The Butterfly Club,"5 Carson Place Melbourne, VIC 3000",https://www.eventbrite.com.au/e/drawing-straws-presents-cabaret-of-curiosities-tickets-978196129957?aff=ebdssbdestsearch,-37.8154472,144.9652725,Art
2025 State Library School Program,2025-06-04,10:00,State Library Victoria,"328 Swanston Street Melbourne, VIC 3000",https://www.eventbrite.com.au/e/2025-state-library-school-program-tickets-1081252839349?aff=ebdssbdestsearch,-37.8097472,144.9654858,Talks/Workshops
Queer Yoga,2025-06-05,05:45,Bridge Darebin - Preston,"218 High Street Preston, VIC 3072",https://www.eventbrite.com.au/e/queer-yoga-tickets-1352971025759?aff=ebdssbdestsearch,-37.744297,145.003275,Sport
Professional Mixer Networking Soirée,2025-06-05,17:00,Seaview Williamstown,"71 Morris Street Williamstown, VIC 3016",https://www.eventbrite.com.au/e/professional-mixer-networking-soiree-tickets-1379215593969?aff=ebdssbdestsearch,-37.8720496,144.9029789,Business/Networking
MIG Workshop: Managing batch effects in biological studies,2025-06-05,09:30,The Florey Institute of Neuroscience and Mental Health,"30 Royal Parade Parkville, VIC 3010",https://www.eventbrite.com/e/mig-workshop-managing-batch-effects-in-biological-studies-tickets-1309491717979?aff=ebdssbdestsearch,-37.7982843,144.9585746,Talks/Workshops
Paint and Sip in Melbourne: Italy's Blue Lemon Haven,2025-06-05,18:30,Ladder Art Space,"4/81 Denmark St Kew, VIC 3101",https://www.eventbrite.com.au/e/paint-and-sip-in-melbourne-italys-blue-lemon-haven-tickets-1206180802249?aff=ebdssbdestsearch,-37.8089958,145.0285779,Art
Joshua Batten & the Lablighters & Thursday Night Jam!,2025-06-05,00:00,Hume Blues Club Inc,"27 Ballantyne St, Thornbury VIC 3071, Australia",https://www.facebook.com/events/1875836206561619/,-37.7588241,144.9985126,Music
Fresh Networking Narre Warren - Guest Registration,2025-06-05,07:45,Butlers Kitchen,"55 Victor Crescent Narre Warren, VIC 3805",https://www.eventbrite.com.au/e/fresh-networking-narre-warren-guest-registration-tickets-105203995984?aff=ebdssbdestsearch,-38.02240949999999,145.3121143,Business/Networking
ATOM PL 2025: Practical Media 202 for Intermediates,2025-06-05,09:30,SAE Creative Media Institute Melbourne,"235 Normanby Road South Melbourne, VIC 3205",https://www.eventbrite.com.au/e/atom-pl-2025-practical-media-202-for-intermediates-tickets-1303700285649?aff=ebdssbdestsearch,-37.8298676,144.9480224,Talks/Workshops
Fresh Networking  South Melbourne - Guest Registration,2025-06-05,12:30,The Montague Hotel,"355 Park Street South Melbourne, VIC 3205",https://www.eventbrite.com.au/e/fresh-networking-south-melbourne-guest-registration-tickets-575146868767?aff=ebdssbdestsearch,-37.8376086,144.9540214,Business/Networking
Brava Women Brewing Connections Power Hour Epping - June 2025,2025-06-05,11:00,The Groove Train,"571-583 High Street #Unit #RE01 Epping, VIC 3076",https://www.eventbrite.com.au/e/brava-women-brewing-connections-power-hour-epping-july-2025-tickets-1323500137539?aff=ebdssbdestsearch,-37.6526278,145.0193902,Business/Networking
Lesbian Speed Dating | Melbourne Singles Event | Fancy a Go?,2025-06-05,19:00,The Metropolitan Hotel,"265 William Street Melbourne, VIC 3000",https://www.eventbrite.com/e/lesbian-speed-dating-melbourne-singles-event-fancy-a-go-tickets-1332683485179?aff=ebdssbdestsearch,-37.812902,144.9566615,Social/Dating
Process Events 001 – Melbourne,2025-06-05,18:30,Howler,"7-11 Dawson Street Brunswick, VIC 3056",https://www.eventbrite.co.uk/e/process-events-001-melbourne-tickets-1289340013689?aff=ebdssbdestsearch,-37.771511,144.959539,Talks/Workshops
The Jazz Alchemists with Chindamo and Wilde,2025-06-05,18:00,Bird's Basement,"11 Singers Ln, Melbourne VIC 3000, Australia",https://www.facebook.com/events/1407450710704037/,-37.81114416,144.95680390283175,Music
Copy of Daily Farm Entry,2025-06-05,10:00,18 St Heliers St,"18 Saint Heliers Street Abbotsford, VIC 3067",https://www.eventbrite.com/e/copy-of-daily-farm-entry-tickets-1339491357709?aff=ebdssbdestsearch,-37.8025941,145.0053244,Unknown
Breathwork and Meditation class,2025-06-05,09:30,Cypress Avenue,"Cypress Avenue Brooklyn, VIC 3012",https://www.eventbrite.com.au/e/breathwork-and-meditation-class-tickets-1323165346169?aff=ebdssbdestsearch,-37.8216107,144.843506,Talks/Workshops
Melbourne Lesbian Singles Night | MyCheekyGayDate | Lesbian Speed Dating,2025-06-05,19:00,The Metropolitan Hotel,"265 William Street Melbourne, VIC 3000",https://www.eventbrite.com/e/melbourne-lesbian-singles-night-mycheekygaydate-lesbian-speed-dating-tickets-1332572332719?aff=ebdssbdestsearch,-37.812902,144.9566615,Social/Dating
FAB - High Seas Pre-Release - Gameology BRUNSWICK - 05/06/2025,2025-06-05,06:30,Gameology Brunswick,"36 Hope Street Brunswick, VIC 3056",https://www.eventbrite.com.au/e/fab-high-seas-pre-release-gameology-brunswick-05062025-tickets-1347366733169?aff=ebdssbdestsearch,-37.7636924,144.9595539,Games
Creative Cafe,2025-06-05,10:00,Miss Lucy,"133 Central Road Nunawading, VIC 3131",https://www.eventbrite.com.au/e/creative-cafe-tickets-1323165245869?aff=ebdssbdestsearch,-37.8240234,145.1662571,Talks/Workshops
Mount Kimbie,2025-06-05,12:00,Forum Melbourne,"150 Flinders St, Melbourne VIC 3000, Australia",https://premier.ticketek.com.au/shows/show.aspx?sh=MOUNTK25,-37.8166268,144.9695761,
St Kilda Film Festival Presented by Mandala Wines,2025-06-05,19:30,Palais Theatre,"Lower Esplanade, St Kilda VIC 3182, Australia",https://www.facebook.com/events/2477158819304274/,-37.86708671,144.97599656199426,Cinema
Stone & Chalk Ecosystem Mixer: Startup Networking,2025-06-05,17:00,121 King St,"121 King Street Melbourne, VIC 3000",https://www.eventbrite.com.au/e/stone-chalk-ecosystem-mixer-startup-networking-registration-1380202716479?aff=ebdssbdestsearch,-37.8172589,144.9556848,Business/Networking
James Vincent McMorrow | Melbourne,2025-06-05,19:00,Northcote Theatre,"216 High St, Northcote VIC 3070, Australia",https://www.facebook.com/events/628444660067269/,-37.7737068,144.9982706,Music
RISING : JESSICA PRATT,2025-06-05,00:00,Melbourne Recital Centre,"31 Sturt St, Southbank VIC 3006, Australia",https://www.facebook.com/events/618070181073782/,-37.82408485,144.96758763141432,Music
Ezra Lee & Henri Herbert (Jim Jones Revue) Piano Boogie Mayhem Tour,2025-06-05,20:00,"Cherry Bar, Little Collins Street, Melbourne VIC, Australia","68 Little Collins Street Melbourne, VIC 3000",https://www.eventbrite.com.au/e/ezra-lee-henri-herbert-jim-jones-revue-piano-boogie-mayhem-tour-tickets-1319589219879?aff=ebdssbdestsearch,-37.8129293,144.9714986,Music
City Business Networking,2025-06-05,06:45,DoubleTree by Hilton Hotel Melbourne - Flinders Street,"270 Flinders Street Melbourne, VIC 3000",https://www.eventbrite.com.au/e/city-business-networking-tickets-627532916847?aff=ebdssbdestsearch,-37.8178608,144.9654542,Business/Networking
Western Bulldogs v Hawthorn,2025-06-05,19:30,Marvel Stadium,"740 Bourke St, Docklands VIC 3008, Australia",https://www.facebook.com/events/535257388923946/,-37.816529,144.94751697668812,Sport
nside Out LGBTQI+ Prisoner Solidarity Network Fundraiser w/ Erin Will Be Mad // Bitchcoin // VSB,2025-06-05,00:00,Mamma Chen's,"42A Albert St, Footscray VIC 3011, Australia",https://www.facebook.com/events/1088595113094725/,-37.8047552,144.89727240000002,Music
Western Bulldogs v Hawthorn - AFL Reserve,2025-06-05,19:30,Marvel Stadium,"740 Bourke St, Docklands VIC 3008, Australia",https://www.facebook.com/events/612006308116699/,-37.816529,144.94751697668812,Sport
Flow Motion ~ Late Night Jams,2025-06-05,19:00,Kindred Bandroom,"3 Harris St, Footscray VIC 3011, Australia",https://www.facebook.com/events/1307221184092642/,-37.8119001,144.9008247,Music
Dimensions of Incomprehensibilities: Connors/Speth/Green; Carbo; Barker/Margolis,2025-06-05,20:00,The Merri Creek Tavern,"111 High St, Northcote VIC 3070, Australia",https://www.facebook.com/events/1304883500575253/,-37.7794356,144.996838,Music
City LOVE Scavenger Hunt Date Night For Couples - Melbourne Vic Area,2025-06-05,13:00,**Recommended starting point or another city spot of your choice! (MUST USE PDF TICKETS-NO QR CODES),"33 Lincoln Square South Carlton, VIC 3053",https://www.eventbrite.com/e/city-love-scavenger-hunt-date-night-for-couples-melbourne-vic-area-tickets-910283571667?aff=ebdssbdestsearch,-37.8033885,144.9623452,Social/Dating
Mic & Mingle,2025-06-05,18:30,Punters Club,"376 Brunswick Street Fitzroy, VIC 3065",https://www.eventbrite.com/e/mic-mingle-tickets-1343267923519?aff=ebdssbdestsearch,-37.7961287,144.979114,Talks/Workshops
Combining Modalities In-Clinic for Improved Patient Outcomes,2025-06-05,18:30,Riversdale Golf Club,"200-280 Huntingdale Road Mount Waverley, VIC 3149",https://www.eventbrite.com/e/combining-modalities-in-clinic-for-improved-patient-outcomes-tickets-1309393534309?aff=ebdssbdestsearch,-37.8705206,145.1168926,Talks/Workshops
"Jimmy Smyth and Band w/ Mudbath, Minimum Wage",2025-06-05,19:00,280 Sydney Rd,"280 Sydney Road Brunswick, VIC 3056",https://www.eventbrite.com.au/e/jimmy-smyth-and-band-w-mudbath-minimum-wage-tickets-1351251261899?aff=ebdssbdestsearch,-37.7711488,144.9616353,Music
Bundoora Homestead History Tours,2025-06-05,11:30,Bundoora Homestead Art Centre,"7 Prospect Hill Drive Bundoora, VIC 3083",https://www.eventbrite.com.au/e/bundoora-homestead-history-tours-tickets-1200677581969?aff=ebdssbdestsearch,-37.7051404,145.0499516,Talks/Workshops
DRAW/ME/YOU,2025-06-05,19:00,221 High St,"221 High Street Preston, VIC 3072",https://www.eventbrite.com.au/e/drawmeyou-tickets-1349257658979?aff=ebdssbdestsearch,-37.74535590000001,145.0025696,Art
Peace Instead of Worry - Talk and Dinner-Urmila Edith Best,2025-06-05,18:15,Sandridge Community Centre,"1 Tucker Avenue Port Melbourne, VIC 3207",https://www.eventbrite.com.au/e/peace-instead-of-worry-talk-and-dinner-urmila-edith-best-tickets-1358013919189?aff=ebdssbdestsearch,-37.8366952,144.9305371,Talks/Workshops
ONE PIECE - OP-11 Pre-Release - Gameology CLAYTON SOUTH - 05/06/2025,2025-06-05,06:30,Gameology,"12 Eileen Road Clayton South, VIC 3169",https://www.eventbrite.com.au/e/one-piece-op-11-pre-release-gameology-clayton-south-05062025-tickets-1323316438089?aff=ebdssbdestsearch,-37.9512104,145.1347381,Games
MIC & MINGLE :: Podcast Networking Event ,2025-06-05,18:30,Punters Club,"376 Brunswick St, Fitzroy VIC 3065, Australia",https://www.facebook.com/events/1577976879545866/,-37.7960561,144.9790327,Business/Networking
Fresh Networking  Hawthorn - Guest Registration,2025-06-05,07:30,ZOOBIBI,"646 Burwood Road Hawthorn East, VIC 3123",https://www.eventbrite.com.au/e/fresh-networking-hawthorn-guest-registration-tickets-105198467448?aff=ebdssbdestsearch,-37.8243003,145.047055,Business/Networking
FAB - High Seas Pre-Release - Gameology CLAYTON SOUTH - 05/06/2025,2025-06-05,06:30,Gameology,"12 Eileen Road Clayton South, VIC 3169",https://www.eventbrite.com.au/e/fab-high-seas-pre-release-gameology-clayton-south-05062025-tickets-1343294984459?aff=ebdssbdestsearch,-37.9512104,145.1347381,Games
AI Adoption Stories - AI in Education: current and future,2025-06-05,18:00,Building 56 (Ronald R MacKay Building) - RMIT University,"115 Queensberry Street #Building 56 Carlton, VIC 3053",https://www.eventbrite.com.au/e/ai-adoption-stories-ai-in-education-current-and-future-tickets-1381168083919?aff=ebdssbdestsearch,-37.805118,144.965298,Talks/Workshops
Thank God You’re Queer,2025-06-05,07:30,Victorian Pride Centre,"79-81 Fitzroy Street St Kilda, VIC 3182",https://www.eventbrite.com.au/e/thank-god-youre-queer-tickets-1334872312019?aff=ebdssbdestsearch,-37.860684,144.976346,Comedy
BNI Innovation - Weekly Networking Breakfast,2025-06-05,06:45,Beachcomber Cafe,"18 Jacka Boulevard #10 St Kilda, VIC 3182",https://www.eventbrite.com.au/e/bni-innovation-weekly-networking-breakfast-tickets-576604699177?aff=ebdssbdestsearch,-37.8653807,144.9720257,Business/Networking
AOS VIC Dinner:  Dr. Jamie Foong – Specialist Prosthodontist.   2 Lectures:,2025-06-05,18:30,Royal South Yarra Lawn Tennis Club,"310 Williams Road North Toorak, VIC 3142",https://www.eventbrite.com/e/aos-vic-dinner-dr-jamie-foong-specialist-prosthodontist-2-lectures-tickets-1336241196389?aff=ebdssbdestsearch,-37.8352119,145.0061099,Talks/Workshops
Musical Theatre Classes for 6-12 Year Olds,2025-06-05,16:15,Dance Factory,"225 Swan Street Richmond, VIC 3121",https://www.eventbrite.com.au/e/musical-theatre-classes-for-6-12-year-olds-tickets-1321990702779?aff=ebdssbdestsearch,-37.8257587,144.999827,Theatre
Sound Bath Meditation in an Art Gallery,2025-06-05,18:00,Artful Yoga Gallery,"1 Vale Street St Kilda, VIC 3182",https://www.eventbrite.com.au/e/sound-bath-meditation-in-an-art-gallery-tickets-1301630294249?aff=ebdssbdestsearch,-37.8661713,144.9817611,Talks/Workshops
Thursday Art Playgroup in a Cafe,2025-06-05,10:00,Munch N Sip Cafe and Restaurant,"177 Ferguson Street Williamstown, VIC 3016",https://www.eventbrite.com.au/e/thursday-art-playgroup-in-a-cafe-tickets-1307571514599?aff=ebdssbdestsearch,-37.85813539999999,144.8901009,Art
Beautiful Sandringham Evening Clifftop Walk - Easy 5km,2025-06-05,18:20,Sandringham Band Rotunda,"Sandringham Band Rotunda Sandringham, VIC 3191",https://www.eventbrite.com.au/e/beautiful-sandringham-evening-clifftop-walk-easy-5km-tickets-1378461197549?aff=ebdssbdestsearch,-37.9513379,145.0026571,Sport
Baby Safe Program: Safe Sleeping Small Group Class 2025,2025-06-05,18:45,Prahran High School,"138 High Street Windsor, VIC 3181",https://www.eventbrite.com.au/e/baby-safe-program-safe-sleeping-small-group-class-2025-tickets-1095722799389?aff=ebdssbdestsearch,-37.8517332,144.9913415,Talks/Workshops
Ballet Classes for 6-12 Year Olds,2025-06-05,05:45,Dance Factory,"225 Swan Street Richmond, VIC 3121",https://www.eventbrite.com.au/e/ballet-classes-for-6-12-year-olds-tickets-1321994554299?aff=ebdssbdestsearch,-37.8257587,144.999827,Theatre
iPhone Photography for Social Media,2025-06-06,09:00,Studio on Hampton,"564 Hampton Street Hampton, VIC 3188",https://www.eventbrite.com.au/e/iphone-photography-for-social-media-tickets-1362633707099?aff=ebdssbdestsearch,-37.9318549,145.0038254,Talks/Workshops
WIDE-EYED-EVENTS OPENING NIGHT,2025-06-06,19:00,Welcome to Brunswick,"408 Sydney Road Brunswick, VIC 3056",https://www.eventbrite.com/e/wide-eyed-events-opening-night-tickets-1334785000869?aff=ebdssbdestsearch,-37.7684338,144.9621623,Social/Dating
LUX VIP MELB : Exquisite Fundraising Luncheon at Amphora,2025-06-06,10:00,Amphora,"740 Bourke Street #Level 1 Docklands, VIC 3008",https://www.eventbrite.com.au/e/lux-vip-melb-exquisite-fundraising-luncheon-at-amphora-tickets-1295249448969?aff=ebdssbdestsearch,-37.8165422,144.9463855,Business/Networking
[85% Sold] Melbourne’s 1st Rooftop K-Pop Party [Limited Spots due to Venue],2025-06-06,21:00,Top Yard Rooftop,"King Street #Rear 60 Melbourne, VIC 3000",https://www.eventbrite.com.au/e/85-sold-melbournes-1st-rooftop-k-pop-party-limited-spots-due-to-venue-tickets-1321963150369?aff=ebdssbdestsearch,-37.8149036,144.9549857,Music
Tropical F Storm,2025-06-06,12:00,Forum Melbourne,"150 Flinders St, Melbourne VIC 3000, Australia",https://premier.ticketek.com.au/shows/show.aspx?sh=TFSTORM25,-37.8166268,144.9695761,
Human Forest - A Devotional Touch Event.,2025-06-06,18:45,Centre of You,"Upstairs, 217 Chapel St Prahran Melbourne, VIC 3181",https://www.eventbrite.com.au/e/human-forest-a-devotional-touch-event-tickets-1352069780109?aff=ebdssbdestsearch,-37.8509316,144.9933031,Talks/Workshops
Uncommon West  6th June 2025,2025-06-06,12:00,Rococo Point Cook,"22-30 Wallace Avenue #Unit 123 Point Cook, VIC 3030",https://www.eventbrite.com.au/e/uncommon-west-6th-june-2025-tickets-1248201587549?aff=ebdssbdestsearch,-37.87259890000001,144.7452979,Social/Dating
Ian Chan - 'Tears' in My Sight Solo Concert Tour,2025-06-06,12:00,Plenary,"1 Convention Centre Pl, South Wharf VIC 3006, Australia",https://premier.ticketek.com.au/shows/show.aspx?sh=IANCHAN25,-37.8250487,144.9531531,
SONDA B'DAY: MELBOURNE,2025-06-06,21:00,The Emerson Rooftop Bar and Club,"141-145 Commercial Road South Yarra, VIC 3141",https://www.eventbrite.com.au/e/sonda-bday-melbourne-tickets-1347605096119?aff=ebdssbdestsearch,-37.8462997,144.9911964,Music
MTG - Final Fantasy Pre-Release - Gameology BRUNSWICK - 06/06/2025,2025-06-06,17:00,Gameology Brunswick,"36 Hope Street Brunswick, VIC 3056",https://www.eventbrite.com.au/e/mtg-final-fantasy-pre-release-gameology-brunswick-06062025-tickets-1347384506329?aff=ebdssbdestsearch,-37.7636924,144.9595539,Games
[70% Sold] Melbourne’s 1st Rooftop K-Pop Party! Fri 6th Jun 2025 ft Dj Mist,2025-06-06,21:00,Top Yard Rooftop,"King Street #Rear 60 Melbourne, VIC 3000",https://www.eventbrite.com.au/e/70-sold-melbournes-1st-rooftop-k-pop-party-fri-6th-jun-2025-ft-dj-mist-tickets-1321963150369?aff=ebdssbdestsearch,-37.8149036,144.9549857,Music
Sound Healing and Meditation Experience with Sophie,2025-06-06,19:00,"Oshun Yoga - Yoga Classes, Pilates and Meditation Reservoir","20 Gellibrand Crescent Reservoir, VIC 3072",https://www.eventbrite.com.au/e/sound-healing-and-meditation-experience-with-sophie-tickets-1362440609539?aff=ebdssbdestsearch,-37.7038553,145.0067149,Talks/Workshops
ELVIS! In Eltham - Anthony Petrucci's Elvis Show,2025-06-06,21:00,Missing Gorilla,"70 Commercial Place #1 Eltham, VIC 3095",https://www.eventbrite.com.au/e/elvis-in-eltham-anthony-petruccis-elvis-show-tickets-1118380278519?aff=ebdssbdestsearch,-37.7127434,145.1494258,Music
Smatch Game,2025-06-06,07:30,Victorian Pride Centre,"79-81 Fitzroy Street St Kilda, VIC 3182",https://www.eventbrite.com.au/e/smatch-game-tickets-1334874227749?aff=ebdssbdestsearch,-37.860684,144.976346,Comedy
Paint in the Dark© 18+ UV Light Disco Party,2025-06-06,19:00,Paint for Fun,"252 Graham Street #Unit 1 Port Melbourne, VIC 3207",https://www.eventbrite.com.au/e/paint-in-the-dark-18-uv-light-disco-party-tickets-1270087087669?aff=ebdssbdestsearch,-37.8386895,144.9385483,Art
BNI Business By The Beach  Weekly Networking,2025-06-06,06:45,Royal Brighton Yacht Club,"253 Esplanade Middle Brighton, VIC 3186",https://www.eventbrite.com.au/e/bni-business-by-the-beach-weekly-networking-tickets-884664684887?aff=ebdssbdestsearch,-37.9171926,144.9870773,Business/Networking
Stay Goth: Welcome The Winter,2025-06-06,23:00,Stay Gold,"133 Sydney Road Brunswick, VIC 3056",https://www.eventbrite.com.au/e/stay-goth-welcome-the-winter-tickets-1334817377709?aff=ebdssbdestsearch,-37.77435880000001,144.9606103,Music
BNI Horizon Networking,2025-06-06,06:45,Sandringham Yacht Club,"32 Jetty Road Sandringham, VIC 3191",https://www.eventbrite.com.au/e/bni-horizon-networking-tickets-1022460947217?aff=ebdssbdestsearch,-37.9458013,144.9958227,Business/Networking
Northcote Paint + Sip with Vanessa Maver x Gallery Unbound,2025-06-06,06:30,Gallery Unbound,"497 High Street Northcote, VIC 3070",https://www.eventbrite.com.au/e/northcote-paint-sip-with-vanessa-maver-x-gallery-unbound-tickets-1303847465869?aff=ebdssbdestsearch,-37.7655156,144.9990725,Art
Authentic Relating Games night,2025-06-06,19:00,AKA Studio Yoga,"130C Nicholson Street Brunswick East, VIC 3057",https://www.eventbrite.com.au/e/authentic-relating-games-night-tickets-633255352807?aff=ebdssbdestsearch,-37.767095,144.980478,Talks/Workshops
NEON 90s Club Retro,2025-06-06,21:00,Club Retro,"383 Lonsdale Street Melbourne, VIC 3000",https://www.eventbrite.com.au/e/neon-90s-club-retro-tickets-1307787520679?aff=ebdssbdestsearch,-37.8128025,144.9611855,Music
Working Holiday Singles Night,2025-06-06,19:00,Red Eye Bar,"17 Carlisle Street St Kilda, VIC 3182",https://www.eventbrite.com.au/e/working-holiday-singles-night-tickets-1363987967729?aff=ebdssbdestsearch,-37.8672306,144.9801502,Social/Dating
Fresh Networking Abbotsford - Guest Registration,2025-06-06,08:00,Au79,"29 Nicholson Street #27 Abbotsford, VIC 3067",https://www.eventbrite.com.au/e/fresh-networking-abbotsford-guest-registration-tickets-104932431728?aff=ebdssbdestsearch,-37.808833,144.995982,Business/Networking
BNI QUANTUM - In Person Networking Event,2025-06-06,06:45,SNA CAFE,"480 Saint Kilda Road Melbourne, VIC 3004",https://www.eventbrite.com.au/e/bni-quantum-in-person-networking-event-tickets-1040236233577?aff=ebdssbdestsearch,-37.8427264,144.9773176,Business/Networking
Mentor Walks Melbourne: Get guidance and grow your network,2025-06-06,07:10,"Under King Edward VII Monument (behind the floral clock), Queen Victoria Gardens","Saint Kilda Road Melbourne, VIC 3004",https://www.eventbrite.com.au/e/mentor-walks-melbourne-get-guidance-and-grow-your-network-tickets-1117659863739?aff=ebdssbdestsearch,-37.8371405,144.9756536,Business/Networking
"Bollywood Club Presents BROWN EVERYWHERE at Crown, Melbourne",2025-06-06,21:30,Crown Melbourne,"8 Whiteman Street Southbank, VIC 3006",https://www.eventbrite.com.au/e/bollywood-club-presents-brown-everywhere-at-crown-melbourne-tickets-1343690547599?aff=ebdssbdestsearch,-37.8226358,144.9587708,Music
Tantric Dance Essence,2025-06-06,06:30,99 Leinster Grove,"99 Leinster Grove Thornbury, VIC 3071",https://www.eventbrite.com.au/e/tantric-dance-essence-tickets-1380373045939?aff=ebdssbdestsearch,-37.7592432,144.9875222,Talks/Workshops
Street Art Laneway tour + Melbourne City Highlight,2025-06-06,19:00,Riverland Bar (Outside the bar by the Yarra River),"Federation Wharf Vaults 1-9 Melbourne, VIC 3000",https://www.eventbrite.com.au/e/street-art-laneway-tour-melbourne-city-highlight-tickets-1376265490129?aff=ebdssbdestsearch,-37.8188223,144.969793,Talks/Workshops
The Night Flower,2025-06-06,19:00,The Butterfly Club,"5 Carson Place Melbourne, VIC 3000",https://www.eventbrite.co.uk/e/the-night-flower-tickets-1218722384459?aff=ebdssbdestsearch,-37.8154472,144.9652725,Music
