Event_Title,Date,Time,Venue,Address,url,Latitude,Longitude
ùëπùíÜùíèùíÖùíäùíïùíäùíêùíè ùíëùíìùíÜùíî. ùë¥ùíÇùíïùíìùíäùíÇùíìùíå (ùë´ùë≤) + ùíêùíçùíÜùíîùíäùíÇ (ùëºùë≤),2025-04-25,21:00,24 Moons,"2 Arthurton Rd, Northcote VIC 3070, Australia",https://www.facebook.com/events/3127563927409107/,-37.7691418,144.9982614
RMIT Fashion Society's Mid-Semester Party @ KODAK,2025-04-25,22:00,Ovia Bar Melbourne,"345 Clarendon Street South Melbourne, VIC 3205",https://www.eventbrite.com.au/e/rmit-fashion-societys-mid-semester-party-kodak-tickets-1328183345139?aff=ebdssbdestsearch,-37.83531900000001,144.9619407
RIDDIM COURTYARD: ANZAC WEEKEND,2025-04-25,22:00,Bourke Street Courtyard,"629 Bourke Street Melbourne, VIC 3000",https://www.eventbrite.com.au/e/riddim-courtyard-anzac-weekend-tickets-1309267988799?aff=ebdssbdestsearch,-37.8168528,144.9552468
Shadow Work Weekend 25th -27th  April 2025,2025-04-25,14:00,544 Glen Huntly Rd,"544 Glen Huntly Road Elsternwick, VIC 3185",https://www.eventbrite.com.au/e/shadow-work-weekend-25th-27th-april-2025-tickets-1306605816169?aff=ebdssbdestsearch,-37.8859923,145.0124972
Paint and Sip in Melbourne: Red Poppy,2025-04-25,18:30,Ladder Art Space,"4/81 Denmark St Kew, VIC 3101",https://www.eventbrite.com.au/e/paint-and-sip-in-melbourne-red-poppy-tickets-1257000254599?aff=ebdssbdestsearch,-37.8089958,145.0285779
Anime Music Festival 2025,2025-04-25,19:00,Stay Gold,"133 Sydney Road Brunswick, VIC 3056",https://www.eventbrite.com.au/e/anime-music-festival-2025-tickets-1172665998569?aff=ebdssbdestsearch,-37.7743822,144.9606172
Tantric Dance Essence - launch event,2025-04-25,06:30,99 Leinster Grove,"99 Leinster Grove Thornbury, VIC 3071",https://www.eventbrite.com.au/e/tantric-dance-essence-launch-event-tickets-1311282965649?aff=ebdssbdestsearch,-37.7592432,144.9875222
GROND at the Retreat w/ Gecko + Favoured State + Dolls,2025-04-25,19:30,280 Sydney Rd,"280 Sydney Road Brunswick, VIC 3056",https://www.eventbrite.com.au/e/grond-at-the-retreat-w-gecko-favoured-state-dolls-tickets-1288961872659?aff=ebdssbdestsearch,-37.7711488,144.9616353
Final Fridays: Film + Music Industry Night Melbourne,2025-04-25,19:00,Inuman,"167 Exhibition Street Melbourne, VIC 3000",https://www.eventbrite.com/e/final-fridays-film-music-industry-night-melbourne-tickets-1306172309539?aff=ebdssbdestsearch,-37.8116801,144.9701812
Anzac Day Boat Party,2025-04-25,19:15,Lady Cutler Melbourne Showboat,"131 Harbour Esplanade Docklands, VIC 3008",https://www.eventbrite.com.au/e/anzac-day-boat-party-tickets-1298863147639?aff=ebdssbdestsearch,-37.81707129999999,144.9453813
"Bollywood Club presents - BOLLY AFRO at Crown, Melbourne",2025-04-25,21:30,Crown Melbourne,"8 Whiteman Street Southbank, VIC 3006",https://www.eventbrite.com.au/e/bollywood-club-presents-bolly-afro-at-crown-melbourne-tickets-1317070957689?aff=ebdssbdestsearch,-37.82343669999999,144.9580861
Frolic,2025-04-25,22:00,Inflation Entertainment Complex,"60 King Street Melbourne, VIC 3000",https://www.eventbrite.com.au/e/frolic-tickets-1257695905309?aff=ebdssbdestsearch,-37.8188863,144.9571605
"ANZAC DAY ~ LIBERATION: GONG BATH, YIN, CHAI+ COOKIES",2025-04-25,19:00,Green Monday Studios,"73 Grattan Street Carlton, VIC 3053",https://www.eventbrite.com/e/anzac-day-liberation-gong-bath-yin-chai-cookies-tickets-1264657046269?aff=ebdssbdestsearch,-37.8009462,144.9671792
Melbourne Avurudu Baila 2025,2025-04-25,21:30,Brown Alley,"585 Lonsdale Street Melbourne, VIC 3000",https://www.eventbrite.com/e/melbourne-avurudu-baila-2025-tickets-1257002882459?aff=ebdssbdestsearch,-37.8145646,144.9551429
Tee30Golf Dashing Dads Experience,2025-04-25,06:00,Oakleigh Golf Course,"2 Park Road Chadstone, VIC 3166",https://www.eventbrite.com.au/e/tee30golf-dashing-dads-experience-tickets-1316106121839?aff=ebdssbdestsearch,-37.8913837,145.0999988
District 1 ‚ï≥ ÂèÅ‰∫∫Ê∏∏Êàè,2025-04-25,22:30,District 1,"228A Malvern Road Prahran, VIC 3181",https://www.eventbrite.com.au/e/district-1-tickets-1306154536379?aff=ebdssbdestsearch,-37.8471331,144.9948088
"Melbourne Language Exchange | Make Friends, Learn Languages & Culture",2025-04-25,17:30,215 Queen's Restaurant and Bar Melbourne,"215 Queen Street Melbourne, VIC 3000",https://www.eventbrite.com.au/e/melbourne-language-exchange-make-friends-learn-languages-culture-tickets-1059091584439?aff=ebdssbdestsearch,-37.8137882,144.9598785
2025 ANZAC Day clash - Bombers V Pies,2025-04-25,14:00,Secret Garden Bar,"60 Fitzroy Street #7 St Kilda, VIC 3182",https://www.eventbrite.com.au/e/2025-anzac-day-clash-bombers-v-pies-tickets-1285382115509?aff=ebdssbdestsearch,-37.8592634,144.9773182
Tapas & Pintxos - Spanish Cooking Class,2025-04-25,07:30,La Fabrica Studio Hire,"91 Moreland Street #43 Footscray, VIC 3011",https://www.eventbrite.com.au/e/tapas-pintxos-spanish-cooking-class-tickets-1305730437889?aff=ebdssbdestsearch,-37.8080581,144.9045975
PRIVATE CELLAR: Clarendon Hills Dinner,2025-04-25,19:00,"Life's Too Short Bar, Tribeca Arcade, Victoria Parade, East Melbourne VIC, Australia","412 Victoria Parade #Shop 2 East Melbourne, VIC 3002",https://www.eventbrite.com.au/e/private-cellar-clarendon-hills-dinner-tickets-958617519807?aff=ebdssbdestsearch,-37.8096207,144.985273
Deborahafter50 Subscriber Meet & Greet,2025-04-25,15:00,Westfield Doncaster,"619 Doncaster Road Doncaster, VIC 3108",https://www.eventbrite.com.au/e/deborahafter50-subscriber-meet-greet-tickets-1287362147839?aff=ebdssbdestsearch,-37.7851115,145.1262028
Anzac Day Party,2025-04-25,20:00,El Giza Restaurant & Bar,"152-154 Lygon Street Carlton, VIC 3053",https://www.eventbrite.com.au/e/anzac-day-party-tickets-1301793662889?aff=ebdssbdestsearch,-37.80358210000001,144.9666964
To Dance with Grace,2025-04-25,19:30,75 Reid St Venue Hire,"75 Reid Street Fitzroy North, VIC 3068",https://www.eventbrite.com/e/to-dance-with-grace-tickets-1290993368919?aff=ebdssbdestsearch,-37.7853324,144.9807648
SKIP INTRO - over 28s,2025-04-25,20:00,Shoppingtown Hotel,"19 Williamsons Road Doncaster, VIC 3108",https://www.eventbrite.com.au/e/skip-intro-over-28s-tickets-1257400993219?aff=ebdssbdestsearch,-37.7851283,145.1227497
150 BPM PRES: 150% LIVE HARDWARE DAY PARTY @ MY AEON,2025-04-25,16:00,my aeon,"791 Sydney Road Brunswick, VIC 3056",https://www.eventbrite.com.au/e/150-bpm-pres-150-live-hardware-day-party-my-aeon-tickets-1302863151759?aff=ebdssbdestsearch,-37.7581868,144.9633301
Teenage Dream 2010's Pop Party! FRI APRIL 25,2025-04-25,21:00,Yah Yahs,"99 Smith Street Fitzroy, VIC 3065",https://www.eventbrite.com.au/e/teenage-dream-2010s-pop-party-fri-april-25-tickets-1326171728339?aff=ebdssbdestsearch,-37.8058635,144.9829641
Peg Sheg La Lo,2025-04-25,21:00,COCO MELBOURNE,"830 Plenty Road #SHOP 11 Reservoir, VIC 3073",https://www.eventbrite.com.au/e/peg-sheg-la-lo-tickets-1323527017939?aff=ebdssbdestsearch,-37.7256785,145.0267036
What happens when we... Experiments in Authentic Relating.,2025-04-25,06:30,Centre of You,"Upstairs, 217 Chapel St Prahran Melbourne, VIC 3181",https://www.eventbrite.com.au/e/what-happens-when-we-experiments-in-authentic-relating-tickets-1321937102459?aff=ebdssbdestsearch,-37.8509316,144.9933031
Accessible Parking - Melbourne Park,2025-04-25,12:00,Melbourne Park,"Melbourne Park Oval, 20 Olympic Blvd, Melbourne VIC 3004, Australia",https://premier.ticketek.com.au/shows/show.aspx?sh=MOPTPARK23,-37.82267,144.98005
B.I HYPE UP TOUR,2025-04-25,19:30,Festival Hall,"300 Dudley St, West Melbourne VIC 3003, Australia",https://www.facebook.com/events/1496960170949894/,-37.8098193,144.9508057
Rhythmic Ecstatic Dance: Rhythmic FUSION,2025-04-25,06:30,Summer Healing,"30-32 Sydney Road #1 Brunswick, VIC 3056",https://www.eventbrite.com.au/e/rhythmic-ecstatic-dance-rhythmic-fusion-tickets-1318477344229?aff=ebdssbdestsearch,-37.776965,144.960808
23 Red LIVE at Altona Sports Club - Anzac Day,2025-04-25,00:00,Altona Sports Club,"11 Altona Rd, Altona VIC 3018, Australia",https://www.facebook.com/events/2254109365044117/,-37.85754867,144.85121805353086
"Dennis Double EP Launch ""for imogen // love, dennis""",2025-04-25,19:00,THE CURTIN (John Curtin hotel),"29 Lygon St, Carlton VIC 3053, Australia",https://www.facebook.com/events/633235282974129/,-37.8061581,144.9657057
MEL - Mood Swing & Chevy Bass BLOCK PARTY ft. The Sponges (US) Wongo (QLD),2025-04-25,15:00,Howler,"7-11 Dawson St, Brunswick VIC 3056, Australia",https://www.facebook.com/events/561087297084746/,-37.7720304,144.9596527
Power House at Customs House - Anzac Day,2025-04-25,14:00,Customs House Hotel Williamstown,"161 Nelson Pl, Williamstown VIC 3016, Australia",https://www.facebook.com/events/530056589862719/,-37.8630972,144.904029
Anime Music Festival 2025,2025-04-25,19:00,Stay Gold,"133 Sydney Rd, Brunswick VIC 3056, Australia",https://www.facebook.com/events/519208600527965/,-37.7743469,144.9607404
I OH YOU PRESENTS | KENNEL DISTRICT VOL. 4 WITH THE BELAIR LIP BOMBS,2025-04-25,22:00,Punters Club,"376 Brunswick St, Fitzroy VIC 3065, Australia",https://www.facebook.com/events/1344296103485411/,-37.7960561,144.9790327
The Wedding Banquet: Advance Screening,2025-04-25,19:10,Cinema Nova,"380 Lygon St, Carlton VIC 3053, Australia",https://www.facebook.com/events/1120487393215236/,-37.7978092,144.9680124
Sin City Beer Garden Blow-out @ The Retreat w/ W.O.M.B.A.T & AC Saunders,2025-04-25,15:00,Retreat Hotel,"Level 1/280 Sydney Rd, Brunswick VIC 3056, Australia",https://www.facebook.com/events/1214393633726803/,-37.7711487,144.9615949
MANGO CLUB | 25.04.25 | ANZAC DAY WEEKEND,2025-04-25,00:00,Mango Club,"577 Little Bourke St Docklands VIC 3000, Australia",https://www.facebook.com/events/1202520071486447/,-37.81578222,144.95396129427266
ANZAC DAY AT THE CORNER,2025-04-25,12:00,The Corner Hotel,"57 Swan St, Richmond VIC 3121",https://www.facebook.com/events/1344639016689737/,-37.82464307,144.9926962
The Seben Brothers @ Bar Oussou,2025-04-25,22:00,Bar Oussou,"653 Sydney Rd, Brunswick VIC 3056, Australia",https://www.facebook.com/events/29149018161412153/,-37.7618155,144.9628753
Cult Classics at Lido,2025-04-25,00:00,Lido Cinemas,"675 Glenferrie Rd, Hawthorn VIC 3122, Australia",https://www.facebook.com/events/1004435021237025/,-37.8205529,145.0355738
Rippa Fridays! Beyblade X at The Gaming Arena,2025-04-25,00:00,The Gaming Arena,"123 Bakers Rd, Coburg North VIC 3058, Australia",https://www.facebook.com/events/1661164184474080/,-37.72715826,144.96115535488718
"(Sat, Apr 25) GYPSY LOVERS (EP Launch) + PENNY IKINGER'S MARBLES",2025-04-25,00:00,George Lane St Kilda,"1 George Ln, St Kilda VIC 3182, Australia",https://www.facebook.com/events/673670685223358/,-37.85997305,144.9780306
Melbourne: Death From Above 1979 w/ DZ Deathrays,2025-04-25,19:30,170 Russell,"170 Russell St, Melbourne VIC 3000, Australia",https://www.facebook.com/events/871405918474920/,-37.8120109,144.9679369
80's ZONE......DEBUT @ LI3G,2025-04-25,20:00,Lucky 13 Garage,"8 Cochranes Rd, Moorabbin VIC 3189, Australia",https://www.facebook.com/events/662644542915394/,-37.94349189,145.07036236060654
Brainrot Pop ,2025-04-25,23:00,Stay Gold,"133 Sydney Rd, Brunswick VIC 3056, Australia",https://www.facebook.com/events/1799888237410464/,-37.7743469,144.9607404
Cult Classics at Lido,2025-04-25,02:46,Lido Cinemas,"675 Glenferrie Rd, Hawthorn VIC 3122, Australia",https://www.facebook.com/events/1004435021237025/?event_time_id=1004435067903687,-37.8205529,145.0355738
StoryVille Fridays | Anzac Day Night | April 25th,2025-04-25,02:07,StoryVille,"185 Lonsdale St, Melbourne VIC 3000, Australia",https://www.facebook.com/events/2729130880608763/,-37.81117675,144.9668442406415
GROND - KINDNESS EP LAUNCH @ THE RETREAT,2025-04-25,19:30,Retreat Hotel,"Level 1/280 Sydney Rd, Brunswick VIC 3056, Australia",https://www.facebook.com/events/1172410993902475/,-37.7711487,144.9615949
Adam Hattaway + The Rayes at The Merri Creek Tav,2025-04-25,20:00,The Merri Creek Tavern,"111 High St, Northcote VIC 3070, Australia",https://www.facebook.com/events/9707030435986130/,-37.7794356,144.996838
R.E.M. BY STIPE | MELBOURNE,2025-04-25,00:00,Palladium at Crown,"Level 1 Crown Towers, Crown Melbourne, 8 Whiteman St, Southbank VIC 3006, Australia",https://www.facebook.com/events/935158252113785/,-37.822181,144.959875
Juno | Melbourne | The Pity Party Tour | with Jewel Owusu,2025-04-25,19:00,Bergy Bandroom,"64 Sydney Rd, Brunswick VIC 3056, Australia",https://www.facebook.com/events/651582167270557/,-37.776327,144.9607158
"The Audreys -  Ruin & Repair Album Tour 2025 | Brunswick, VIC.",2025-04-25,18:30,Brunswick Ballroom,"314 Sydney Rd, Brunswick VIC 3056, Australia",https://www.facebook.com/events/1632562460707758/,-37.7704205,144.9617083
"red orchestra vs patriotism - feat leonardo's robot, grups",2025-04-25,19:00,Mamma Chen's,"42A Albert St, Footscray VIC 3011, Australia",https://www.facebook.com/events/3509097962731986/,-37.8047552,144.89727240000002
H34VEN0N34RTH X HYDE PARK HI-FI PRESENT: OJC (US),2025-04-25,20:00,New Guernica,"64 Smith St, Collingwood VIC 3066, Australia",https://www.facebook.com/events/1010243550612671/,-37.80624775,144.98331211946754
JULIO AND THE STEVIES!,2025-04-25,19:30,Uptown Jazz Cafe,"1/177 Brunswick St, Fitzroy VIC 3065, Australia",https://www.facebook.com/events/643572788297440/,-37.79705404,144.97869049756974
Bitter Belief - Free Speech Tour - Melbourne,2025-04-25,19:30,Wax Music Lounge,"250 Flinders St, Melbourne VIC 3000, Australia",https://www.facebook.com/events/657630636629796/,-37.8176298,144.9661635
SLACK at The Third Day,2025-04-26,16:00,The Third Day,"290 Macaulay Road North Melbourne, VIC 3051",https://www.eventbrite.com.au/e/slack-at-the-third-day-tickets-1318365790569?aff=ebdssbdestsearch,-37.7946786,144.9367079
MSA Trips: Puffing Billy Day Trip,2025-04-26,10:30,Robert Blackwood Hall,"49 Scenic Boulevard Monash University, VIC 3800",https://www.eventbrite.com.au/e/msa-trips-puffing-billy-day-trip-tickets-1247714049309?aff=ebdssbdestsearch,-37.9127953,145.1352488
"Bollywood Senorita at Inflation Nightclub, Melbourne",2025-04-26,22:00,Inflation Entertainment Complex,"60 King Street Melbourne, VIC 3000",https://www.eventbrite.com.au/e/bollywood-senorita-at-inflation-nightclub-melbourne-tickets-1295499577109?aff=ebdssbdestsearch,-37.8188863,144.9571605
Paint  And Sip: Painting Partners | Melbourne Painting Class,2025-04-26,18:00,Paint for Fun,"252 Graham Street #Unit 1 Port Melbourne, VIC 3207",https://www.eventbrite.com.au/e/paint-and-sip-painting-partners-melbourne-painting-class-tickets-1204564186909?aff=ebdssbdestsearch,-37.8386895,144.9385483
Blooms & Buzz - Floral Workshop,2025-04-26,16:00,7a/91 Moreland St,"91 Moreland Street #7a Footscray, VIC 3011",https://www.eventbrite.com.au/e/blooms-buzz-floral-workshop-tickets-1261996338019?aff=ebdssbdestsearch,-37.8085329,144.9046758
SABOR & FLOW CRUISE PARTY - Salsa VS Reggaeton,2025-04-26,19:00,131 Harbour Esplanade,"131 Harbour Esplanade Docklands, VIC 3008",https://www.eventbrite.com.au/e/sabor-flow-cruise-party-salsa-vs-reggaeton-tickets-1307517974459?aff=ebdssbdestsearch,-37.81707129999999,144.9453813
AMARI GALA 2025,2025-04-26,17:00,Plaza Ballroom,"191 Collins Street Melbourne, VIC 3000",https://www.eventbrite.com.au/e/amari-gala-2025-tickets-1232458740269?aff=ebdssbdestsearch,-37.8154895,144.9675461
Sam Barber - Restless Mind Tour,2025-04-26,12:00,Forum Melbourne,"180 Flinders St, Melbourne VIC 3000, Australia",https://premier.ticketek.com.au/shows/show.aspx?sh=SBARB25,-37.816602,144.9694678
Samhain Ritual Circle with Tehani & Lady Bijou,2025-04-26,12:00,Moss Studios,"101 Evans Street Brunswick, VIC 3056",https://www.eventbrite.com.au/e/samhain-ritual-circle-with-tehani-lady-bijou-tickets-1296412457559?aff=ebdssbdestsearch,-37.77035559999999,144.9709215
Alternative '80s & '90s Party,2025-04-26,22:00,The Moser Room (Chasers),"386 Chapel Street South Yarra, VIC 3141",https://www.eventbrite.com.au/e/alternative-80s-90s-party-tickets-1277444293269?aff=ebdssbdestsearch,-37.8459028,144.9947039
BootyBasics Melbourne - 26th April 2025,2025-04-26,11:00,Pulse Studios,"281 Carlisle Street Balaclava, VIC 3183",https://www.eventbrite.com.au/e/bootybasics-melbourne-26th-april-2025-tickets-1306110845699?aff=ebdssbdestsearch,-37.869301,144.995964
Skywhales Across Australia: Mornington Peninsula launch,2025-04-26,05:30,Dallas Brooks Park,"85 Mornington-Tyabb Road Mornington, VIC 3931",https://www.eventbrite.com.au/e/skywhales-across-australia-mornington-peninsula-launch-tickets-1302637677359?aff=ebdssbdestsearch,-38.233154,145.0541611
Glow Up After 40: Makeup Masterclass in Docklands,2025-04-26,10:00,39 Caravel Ln,"39 Caravel Lane Docklands, VIC 3008",https://www.eventbrite.com.au/e/glow-up-after-40-makeup-masterclass-in-docklands-tickets-1307453942939?aff=ebdssbdestsearch,-37.8146097,144.9403956
Live Jazz at the VJC with Andy Baylor's Hometown Jazz band,2025-04-26,20:00,Clayton RSL,"171 Carinish Road Clayton, VIC 3168",https://www.eventbrite.com.au/e/live-jazz-at-the-vjc-with-andy-baylors-hometown-jazz-band-tickets-1278908703359?aff=ebdssbdestsearch,-37.9253129,145.1225275
Cabaret Ridiculous,2025-04-26,17:00,Speakeasy Theatre,"522 Flinders Street Melbourne, VIC 3000",https://www.eventbrite.com.au/e/cabaret-ridiculous-tickets-1114249944579?aff=ebdssbdestsearch,-37.82029199999999,144.9569223
"Nektar Records Pres. Luke Alessi (AU), Kellie Allen (ESP) & Artmann (NL)",2025-04-26,14:00,Bourke Street Courtyard,"629 Bourke Street Melbourne, VIC 3004",https://www.eventbrite.com.au/e/nektar-records-pres-luke-alessi-au-kellie-allen-esp-artmann-nl-tickets-1280405179359?aff=ebdssbdestsearch,-37.8168528,144.9552468
‚ÄúÂ•πÊòØ‰Ω†Êàë‚Äù-Â•≥ÊÄßÊãºÁõòÂ¢®Â∞îÊú¨,2025-04-26,19:30,Building 16 (Storey Hall) - RMIT University,"348 Swanston Street #Building 16 336 Melbourne, VIC 3000",https://www.eventbrite.com/e/1273369154419?aff=ebdssbdestsearch,-37.8091922,144.9639727
"ONE BE STUDIOS PRESENTS LAB RAT‚ÄôS ‚ÄòIN THE WALLS, WE WAIT‚Äô ALBUM LAUNCH",2025-04-26,17:00,The Graveyard Bar,"942 Sydney Road Coburg North, VIC 3058",https://www.eventbrite.com.au/e/one-be-studios-presents-lab-rats-in-the-walls-we-wait-album-launch-tickets-1277353932999?aff=ebdssbdestsearch,-37.7236554,144.9638725
Burlesque Bingo,2025-04-26,16:00,Speakeasy Theatre,"522 Flinders Street Melbourne, VIC 3000",https://www.eventbrite.com.au/e/burlesque-bingo-tickets-1112184165779?aff=ebdssbdestsearch,-37.82029199999999,144.9569223
MTG - Spring Flourishes Dragonstorm Draft - Gameology BRUNSWICK - 26/04,2025-04-26,11:30,Gameology Brunswick,"36 Hope Street Brunswick, VIC 3056",https://www.eventbrite.com.au/e/mtg-spring-flourishes-dragonstorm-draft-gameology-brunswick-2604-tickets-1268060706709?aff=ebdssbdestsearch,-37.7636924,144.9595539
Stay & Play,2025-04-26,10:00,Richmond Library Meeting Room (Level 2),"L2, 415 Church Street Richmond, VIC 3121",https://www.eventbrite.com.au/e/stay-play-tickets-1134282562679?aff=ebdssbdestsearch,-37.8252586,144.9982151
'Introduction into  Wines' Masterclass at Northside Wines,2025-04-26,15:00,Northside Wines,"543-545 High Street Northcote, VIC 3070",https://www.eventbrite.com.au/e/introduction-into-wines-masterclass-at-northside-wines-tickets-1206137502739?aff=ebdssbdestsearch,-37.764227,144.9994439
Jesse Lawrance and Band at The Lomond Hotel.,2025-04-26,17:00,The Lomond Hotel,"225 Nicholson Street Brunswick East, VIC 3057",https://www.eventbrite.com.au/e/jesse-lawrance-and-band-at-the-lomond-hotel-tickets-1309545488809?aff=ebdssbdestsearch,-37.7670861,144.9800057
Whiskey Dram  at The Lomond Hotel.,2025-04-26,21:00,The Lomond Hotel,"225 Nicholson Street Brunswick East, VIC 3057",https://www.eventbrite.com.au/e/whiskey-dram-at-the-lomond-hotel-tickets-1304943504149?aff=ebdssbdestsearch,-37.7670861,144.9800057
Eat The Beat pres. DICA [FR] ‚Äì Live Set,2025-04-26,22:00,New Guernica,"64 Smith Street Collingwood, VIC 3066",https://www.eventbrite.com.au/e/eat-the-beat-pres-dica-fr-live-set-tickets-1296323471399?aff=ebdssbdestsearch,-37.8062529,144.9832565
ASTRID #2,2025-04-26,14:00,Mamma Chen's,"42A Albert Street Footscray, VIC 3011",https://www.eventbrite.com.au/e/astrid-2-tickets-1263771587839?aff=ebdssbdestsearch,-37.8022765,144.8975518
"HOMEBASS feat. TAHL, THEMZY, CHUNGA",2025-04-26,20:30,Bar 303,"303 High Street Northcote, VIC 3070",https://www.eventbrite.com.au/e/homebass-feat-tahl-themzy-chunga-tickets-1314325917199?aff=ebdssbdestsearch,-37.7713256,144.9982378
Melbourne/Naarm Netrunner District Championship 2025,2025-04-26,10:00,Plenty of Games,"278 Collins Street #L1 Melbourne, VIC 3000",https://www.eventbrite.ca/e/melbournenaarm-netrunner-district-championship-2025-tickets-1227222709159?aff=ebdssbdestsearch,-37.8158089,144.9648431
SHADY NASTY - 'TREK' ALBUM TOUR | MELBOURNE,2025-04-26,19:30,280 Sydney Rd,"280 Sydney Road Brunswick, VIC 3056",https://www.eventbrite.com.au/e/shady-nasty-trek-album-tour-melbourne-tickets-1224325322999?aff=ebdssbdestsearch,-37.7711488,144.9616353
"People Eat Soul: Sound Healing, Theatre and Inquiry",2025-04-26,11:00,226 Kooyong Rd,"226 Kooyong Road Toorak, VIC 3142",https://www.eventbrite.com/e/people-eat-soul-sound-healing-theatre-and-inquiry-tickets-1269991120629?aff=ebdssbdestsearch,-37.8405019,145.0238136
Roccella Pizza Masterclass | Learn pizza secrets from the best | April 26,2025-04-26,11:00,Roccella,"158 Clarendon Street East Melbourne, VIC 3002",https://www.eventbrite.com.au/e/roccella-pizza-masterclass-learn-pizza-secrets-from-the-best-april-26-tickets-1145142304459?aff=ebdssbdestsearch,-37.8119868,144.9835065
Hike the Yarra with the Urban Hiking Club,2025-04-26,08:30,Studley Park Boathouse,"1 Boathouse Road Kew, VIC 3101",https://www.eventbrite.com.au/e/hike-the-yarra-with-the-urban-hiking-club-registration-1318215400749?aff=ebdssbdestsearch,-37.8012864,145.0074981
"Breakthrough Breathwork Event: Connection, Release and Community",2025-04-26,12:00,Yoga LYFE,"107 Canterbury Road Middle Park, VIC 3206",https://www.eventbrite.com.au/e/breakthrough-breathwork-event-connection-release-and-community-tickets-1264681218569?aff=ebdssbdestsearch,-37.8502046,144.9653467
Urban Cocktail Trail | Prahran (VIC),2025-04-26,13:00,Prahran,"Prahran Prahran, VIC 3181",https://www.eventbrite.com/e/urban-cocktail-trail-prahran-vic-tickets-1238287805159?aff=ebdssbdestsearch,-37.8495201,144.9899575
ReWine Bottling Party,2025-04-26,14:00,ReWine,"522 Lygon Street Brunswick East, VIC 3057",https://www.eventbrite.com.au/e/rewine-bottling-party-tickets-1270046436079?aff=ebdssbdestsearch,-37.7623902,144.9736184
"Forest Therapy Experience: Urban Forest Reserve, Malvern East",2025-04-26,09:30,463 Waverley Rd,"463 Waverley Road Malvern East, VIC 3145",https://www.eventbrite.com.au/e/forest-therapy-experience-urban-forest-reserve-malvern-east-tickets-1100681240219?aff=ebdssbdestsearch,-37.8797628,145.0717499
2025 - Ratio Cocoa Roasters behind the scenes chocolate factory tour,2025-04-26,11:00,Ratio Cocoa Roasters,"186 Sydney Road Brunswick, VIC 3056",https://www.eventbrite.com.au/e/2025-ratio-cocoa-roasters-behind-the-scenes-chocolate-factory-tour-tickets-775425427327?aff=ebdssbdestsearch,-37.7735618,144.9611677
"Higher Self | Candle Light Sound Healing, Reiki, Light Language & Movement",2025-04-26,17:00,The Yoga Space Melbourne,"25 William Street #Ground Floor Balaclava, VIC 3183",https://www.eventbrite.com.au/e/higher-self-candle-light-sound-healing-reiki-light-language-movement-tickets-1302679953809?aff=ebdssbdestsearch,-37.8704945,144.9938637
Creatures of the Night,2025-04-26,16:00,SAGA Studio Arthouse Gallery Australia,"29 Tinning Street #Unit 2 Brunswick, VIC 3056",https://www.eventbrite.com.au/e/creatures-of-the-night-tickets-1309538207029?aff=ebdssbdestsearch,-37.7595317,144.9614218
MELBOURNE WRESTLEMANIA PARTY,2025-04-26,20:00,Deluxe Bar,"595 Mount Alexander Road Moonee Ponds, VIC 3039",https://www.eventbrite.com.au/e/melbourne-wrestlemania-party-tickets-1298273253249?aff=ebdssbdestsearch,-37.768313,144.925046
200 YEARS OF WEDDING FASHION,2025-04-26,10:30,Villa Alba Museum,"44 Walmer Street Kew, VIC 3101",https://www.eventbrite.com.au/e/200-years-of-wedding-fashion-tickets-1268235639939?aff=ebdssbdestsearch,-37.8051441,145.0112191
SPANK **CHE SERA**ITALO EURO DISCO ***,2025-04-26,21:00,La Di Da,"577 Little Bourke Street Melbourne, VIC 3000",https://www.eventbrite.com.au/e/spank-che-seraitalo-euro-disco-tickets-1249822315189?aff=ebdssbdestsearch,-37.8154693,144.9556119
Divination ft. Pugilist & Tamen [All Night Long],2025-04-26,23:00,Sub Club Melbourne,"Flinders Court Melbourne, VIC 3000",https://www.eventbrite.com.au/e/divination-ft-pugilist-tamen-all-night-long-tickets-1317055952809?aff=ebdssbdestsearch,-37.8179755,144.9644539
nmp.26 DESTINY by Amrita Hepi,2025-04-26,16:00,Coates Community Arts,"20 Collins Street #Suite 6, Level 4 Melbourne, VIC 3000",https://www.eventbrite.com.au/e/nmp26-destiny-by-amrita-hepi-tickets-1302874415449?aff=ebdssbdestsearch,-37.8133329,144.9729292
MTG - Spring Flourishes Dragonstorm Draft - Gameology CLAYTON SOUTH - 26/04,2025-04-26,11:30,Gameology,"12 Eileen Road Clayton South, VIC 3169",https://www.eventbrite.com.au/e/mtg-spring-flourishes-dragonstorm-draft-gameology-clayton-south-2604-tickets-1266875180769?aff=ebdssbdestsearch,-37.9512104,145.1347381
"Casa‚Äôs Reunion- Bring Back The Funk- Sat April 26th, LOEV Moorabbin",2025-04-26,19:00,LOEV,"77 Keys Road Moorabbin, VIC 3189",https://www.eventbrite.com.au/e/casas-reunion-bring-back-the-funk-sat-april-26th-loev-moorabbin-tickets-1252647585649?aff=ebdssbdestsearch,-37.9484271,145.067727
Summer Breaks pres. Local Breaks !!! ANZAC Long Weekend Special.,2025-04-26,14:00,Howler,"7-11 Dawson Street Brunswick, VIC 3056",https://www.eventbrite.com.au/e/summer-breaks-pres-local-breaks-anzac-long-weekend-special-tickets-1292049317289?aff=ebdssbdestsearch,-37.771511,144.959539
Animeverse Art Workshop,2025-04-26,14:30,Studio Take Care,"1 Pitt Street Brunswick, VIC 3056",https://www.eventbrite.com.au/e/animeverse-art-workshop-tickets-1209410572579?aff=ebdssbdestsearch,-37.7711984,144.9711714
Queer Lesbian Daytime  Speed Dating: Melbourne 30-42yrs,2025-04-26,13:30,Melbourne CBD Outside,"Melbourne CBD Melbourne, VIC 3000",https://www.eventbrite.com.au/e/queer-lesbian-daytime-speed-dating-melbourne-30-42yrs-tickets-1299515960219?aff=ebdssbdestsearch,-37.8152065,144.963937
"Shake, Sip & Paint - Cocktail Making and Painting Class",2025-04-26,01:45,Paint for Fun,"252 Graham Street #Unit 1 Port Melbourne, VIC 3207",https://www.eventbrite.com.au/e/shake-sip-paint-cocktail-making-and-painting-class-tickets-1142149633299?aff=ebdssbdestsearch,-37.8386895,144.9385483
Roccella Pizza Masterclass | Bundoora | April 26,2025-04-26,11:00,Roccella Italian Restaurant Bundoora,"5 Janefield Drive #Shop T01 Bundoora, VIC 3083",https://www.eventbrite.com.au/e/roccella-pizza-masterclass-bundoora-april-26-tickets-1145146507029?aff=ebdssbdestsearch,-37.6826088,145.0714715
Replicant presents Sator Arepo (Germany) and loads more!,2025-04-26,21:00,my aeon,"791 Sydney Road Brunswick, VIC 3056",https://www.eventbrite.com.au/e/replicant-presents-sator-arepo-germany-and-loads-more-tickets-1298747301139?aff=ebdssbdestsearch,-37.7581868,144.9633301
Floral Meditation Spanish Event,2025-04-26,11:00,The Hub at Docklands,"80 Harbour Esplanade Docklands, VIC 3008",https://www.eventbrite.com.au/e/floral-meditation-spanish-event-tickets-1270076074729?aff=ebdssbdestsearch,-37.8195389,144.9472509
Fast Friending: Meet like-minded ladies & gents! (25-45/Happy Hour) MEL,2025-04-26,19:00,La Di Da,"577 Little Bourke Street Melbourne, VIC 3000",https://www.eventbrite.co.uk/e/fast-friending-meet-like-minded-ladies-gents-25-45happy-hour-mel-tickets-1304034114139?aff=ebdssbdestsearch,-37.8154693,144.9556119
Dutch Kingsday in Melbourne (koningsnacht),2025-04-26,07:00,Jekyll & Hyde,"175 Acland Street St Kilda, VIC 3182",https://www.eventbrite.nl/e/dutch-kingsday-in-melbourne-koningsnacht-tickets-1307150946669?aff=ebdssbdestsearch,-37.8694545,144.9802042
Conscious Connection | Communal Dining Brunch (Gals aged 25-35),2025-04-26,12:00,Bridge Hotel,"642 Bridge Road Richmond, VIC 3121",https://www.eventbrite.com.au/e/conscious-connection-communal-dining-brunch-gals-aged-25-35-tickets-1300795788219?aff=ebdssbdestsearch,-37.8202131,145.0134924
Mad Hatter's High Tea at Stamford Plaza Melbourne,2025-04-26,11:30,Stamford Plaza Melbourne,"111 Little Collins Street Melbourne, VIC 3000",https://www.eventbrite.com.au/e/mad-hatters-high-tea-at-stamford-plaza-melbourne-tickets-1278776939249?aff=ebdssbdestsearch,-37.8135512,144.9699174
Taste of Shanghai,2025-04-26,09:00,65 Welfare Parade,"65 Welfare Parade Glen Iris, VIC 3146",https://www.eventbrite.com.au/e/taste-of-shanghai-tickets-1296412768489?aff=ebdssbdestsearch,-37.8568719,145.0836731
Vlogging Workshop (Full Day): Your Blueprint To Finding Success on YouTube!,2025-04-26,10:00,Chillpreneur Creative Studio,"91 Moreland Street #39b Footscray, VIC 3011",https://www.eventbrite.com.au/e/vlogging-workshop-full-day-your-blueprint-to-finding-success-on-youtube-tickets-1288241106829?aff=ebdssbdestsearch,-37.8084371,144.9044271
Energetic Sound Healing & New Moon Clearing,2025-04-26,19:00,"Oracle of Crystals, 228 Glenferrie Road, Malvern VIC, Australia","228 Glenferrie Road Malvern, VIC 3144",https://www.eventbrite.com.au/e/energetic-sound-healing-new-moon-clearing-tickets-1306155509289?aff=ebdssbdestsearch,-37.8585334,145.0292064
Automn Portrait Walk,2025-04-26,14:00,Fitzroy Gardens Visitor Centre,"Wellington Parade East Melbourne, VIC 3002",https://www.eventbrite.com.au/e/automn-portrait-walk-tickets-1319563432749?aff=ebdssbdestsearch,-37.8162335,144.983392
Summer Breaks pres. Local Breaks !!! ANZAC Long Weekend Special ft. Nubreed,2025-04-26,14:00,Howler,"7-11 Dawson Street Brunswick, VIC 3056",https://www.eventbrite.com.au/e/summer-breaks-pres-local-breaks-anzac-long-weekend-special-ft-nubreed-tickets-1292049317289?aff=ebdssbdestsearch,-37.771511,144.959539
Sound Healing Journey ELTHAM | Christian Dimarco 26 April 2025,2025-04-26,17:00,Saint Margaret's Anglican Church,"Pitt Street Eltham, VIC 3095",https://www.eventbrite.com.au/e/sound-healing-journey-eltham-christian-dimarco-26-april-2025-tickets-1319859327779?aff=ebdssbdestsearch,-37.7218177,145.1540378
Over 50's Beginner Jazz,2025-04-26,11:00,Dance Factory,"225 Swan Street Richmond, VIC 3121",https://www.eventbrite.com.au/e/over-50s-beginner-jazz-tickets-1298816116969?aff=ebdssbdestsearch,-37.8257354,144.9998261
Solana Collective. Presents: SOLANA'S DAY OUT,2025-04-26,14:00,The Penny Black,"420 Sydney Road Brunswick, VIC 3056",https://www.eventbrite.com/e/solana-collective-presents-solanas-day-out-tickets-1266898931809?aff=ebdssbdestsearch,-37.7680486,144.9623452
Awakening Vinyasa Yoga: Full Solar Practice,2025-04-26,11:15,At One Studio,"127 Buckley Street #L1 Essendon, VIC 3040",https://www.eventbrite.com/e/awakening-vinyasa-yoga-full-solar-practice-tickets-1300252112069?aff=ebdssbdestsearch,-37.7570386,144.9154857
Electrique,2025-04-26,16:00,Joey Smalls,"284 Sydney Road Brunswick, VIC 3056",https://www.eventbrite.com.au/e/electrique-tickets-1297740188839?aff=ebdssbdestsearch,-37.7710648,144.9616319
"Cold Red Mute, Superdiver, Trash and the Treasures, Christian Black's 50th",2025-04-26,15:00,The Last Chance,"238 Victoria St, Melbourne VIC 3000, Australia",https://www.facebook.com/events/944431791086167/,-37.8059962,144.9585654
"The Weight Of Silence w/ The Rising Tide (NZ), DRUID & Rise From Ashes",2025-04-26,20:00,The Last Chance,"238 Victoria St, Melbourne VIC 3000, Australia",https://www.facebook.com/events/1683173732635388/,-37.8059962,144.9585654
Out on the Deck: Ray Pereira presents Soundscapes & Grooves,2025-04-26,13:00,Kindred Bandroom,"3 Harris St, Footscray VIC 3011, Australia",https://www.facebook.com/events/1171719337606443/,-37.8119001,144.9008247
THE SATISFACTION - MAMMA CHEN‚ÄôS - FOOTSCRAY - THE BLEED TOUR,2025-04-26,00:00,Mamma Chen's,"42A Albert St, Footscray VIC 3011, Australia",https://www.facebook.com/events/1559749764689928/,-37.8047552,144.89727240000002
Melbourne Bar Crawl | #1 Saturday Night Out,2025-04-26,00:00,On The Rocks Bar Crawl Melbourne,"The Joint, 35 Elizabeth St, Melbourne VIC 3000, Australia",https://www.facebook.com/events/1358139498520971/?event_time_id=1358139575187630,-37.8172989,144.9643996
Barney McAll Trio !,2025-04-26,19:35,Uptown Jazz Cafe,"1/177 Brunswick St, Fitzroy VIC 3065, Australia",https://www.facebook.com/events/561466803625936/,-37.79705404,144.97869049756974
Romeo and Juliet | Arts Centre Melbourne,2025-04-26,14:30,Arts Centre Melbourne,"100 St Kilda Rd, Southbank VIC 3004, Australia",https://www.facebook.com/events/1628792071006571/,-37.8216405,144.9683143
SISTERS DOLL **Encore Performance** - Musicland - MELBOURNE! **SOLD-OUT**,2025-04-26,19:00,Musicland Melbourne,"1359 Sydney Rd, Fawkner VIC 3060, Australia",https://www.facebook.com/events/9111613452209670/,-37.6916774,144.9585701581541
FAME single launch at Kindred Bandroom w/ Brando Rising & Dean Wittmann-Lamb (Revolation),2025-04-26,00:00,Kindred Bandroom,"3 Harris St, Footscray VIC 3011, Australia",https://www.facebook.com/events/2063290180842115/,-37.8119001,144.9008247
MATT MALONE & THE HOLY SPIRITS + 90BPM (Rob Wellington / Angela Howard) @ THE LYREBIRD,2025-04-26,19:30,Lyrebird Lounge,"61 Glen Eira Rd, Ripponlea VIC 3185, Australia",https://www.facebook.com/events/1146787637245644/,-37.8766692,144.9970761
Sweetie & Friends,2025-04-26,00:00,Punters Club,"376 Brunswick St, Fitzroy VIC 3065, Australia",https://www.facebook.com/events/961113802863013/?event_time_id=961113806196346,-37.7960561,144.9790327
Summer Breaks Pres Local Breaks ANZAC Long Weekend Special,2025-04-26,00:00,Howler,"7-11 Dawson St, Brunswick VIC 3056, Australia",https://www.facebook.com/events/460067397095311/,-37.7720304,144.9596527
Eat The Beat pres. DICA [FR] ‚Äì Live Set,2025-04-26,00:00,New Guernica,"64 Smith St, Collingwood VIC 3066, Australia",https://www.facebook.com/events/986204903654733/,-37.80624775,144.98331211946754
Twilight Saga: Overnight Marathon 2025,2025-04-26,20:00,Cinema Nova,"380 Lygon St, Carlton VIC 3053, Australia",https://www.facebook.com/events/677647001359497/,-37.7978092,144.9680124
"(Sat, Apr 26) CJ COMMERFORD & THE SUPERTONES + ALLY ROW",2025-04-26,00:00,George Lane St Kilda,"1 George Ln, St Kilda VIC 3182, Australia",https://www.facebook.com/events/1138420317953228/,-37.85997305,144.9780306
Songs From The Canyon,2025-04-26,20:00,Palais Theatre,"Lower Esplanade, St Kilda VIC 3182, Australia",https://www.facebook.com/events/1240348703684158/,-37.86708671,144.97599656199426
"HOMEBASS feat. TAHL, THEMZY (NSW), CHUNGA (NZ)",2025-04-26,00:00,Bar 303,"303 High St, Northcote VIC 3070, Australia",https://www.facebook.com/events/492049020529261/,-37.7713296,144.99828116650363
Two Folk MUSIC at CERES,2025-04-26,00:00,CERES Environment Park,"Stewart St & Roberts St East, Brunswick VIC 3056, Australia",https://www.facebook.com/events/1225867795819725/,-37.765454,144.9831564
Romeo and Juliet | Arts Centre Melbourne,2025-04-26,19:30,Arts Centre Melbourne,"100 St Kilda Rd, Southbank VIC 3004, Australia",https://www.facebook.com/events/497502872858022/,-37.8216405,144.9683143
Please People @ The Bergy Bandroom w/ Dopplerhaus & Cold War Architecture,2025-04-26,13:30,Bergy Bandroom,"64 Sydney Rd, Brunswick VIC 3056, Australia",https://www.facebook.com/events/571882546017627/,-37.776327,144.9607158
K HOLE KARAOKE ,2025-04-26,21:00,Lulie Tavern,"225 Johnston St, Abbotsford VIC 3067, Australia",https://www.facebook.com/events/1008903384151630/,-37.8000264,144.9936498
CHRISTINE COLLISTER & MICHAEL FIX | Exclusive Dinner & Show,2025-04-26,00:00,arcobar heatherton,"8 Arco Ln, Heatherton VIC 3202, Australia",https://www.facebook.com/events/9052763401481900/,-37.94673685,145.07837928457485
Horns of Leroy | April Residency | Live at Punters Club,2025-04-26,00:00,Punters Club,"376 Brunswick St, Fitzroy VIC 3065, Australia",https://www.facebook.com/events/613094115030510/,-37.7960561,144.9790327
Appiah & Asanti Beats @ Bar Oussou,2025-04-26,22:00,Bar Oussou,"653 Sydney Rd, Brunswick VIC 3056, Australia",https://www.facebook.com/events/1153234926576688/,-37.7618155,144.9628753
St Kilda v Brisbane Lions,2025-04-26,13:20,Marvel Stadium,"740 Bourke St, Docklands VIC 3008, Australia",https://www.facebook.com/events/628726782964449/,-37.816529,144.94751697668812
The Reflex - The Australian Duran Duran Experience | Brunswick Ballroom,2025-04-26,20:00,Brunswick Ballroom,"314 Sydney Rd, Brunswick VIC 3056, Australia",https://www.facebook.com/events/1751191845703580/,-37.7704205,144.9617083
"(Sat, Apr 26) RICH WEBB & THE LIARS + THE CALABRIANS (George Lane Matinee Sessions)",2025-04-26,00:00,George Lane St Kilda,"1 George Ln, St Kilda VIC 3182, Australia",https://www.facebook.com/events/661852126262836/,-37.85997305,144.9780306
Victory Lap - Joey Lightbulb & Friends at The Night Cat.,2025-04-26,00:00,The Night Cat,"137-141 Johnston St, Fitzroy VIC 3065, Australia",https://www.facebook.com/events/966907615586162/,-37.7982971,144.978128
The Beagles @ Oakleigh Music Hall,2025-04-26,00:00,Oakleigh Carnegie RSL,"95/97 Drummond St, Oakleigh VIC 3166, Australia",https://www.facebook.com/events/1520416191953398/,-37.8968576,145.08963741959553
"The Two Face Trio, Shirley Eugeste & Fred Negro!",2025-04-26,01:39,Mr Boogie Man Bar,"160 Hoddle St, Abbotsford VIC 3067, Australia",https://www.facebook.com/events/586947957027659/,-37.80245,144.99295304614787
TASTE OF IRELAND ,2025-04-26,02:12,Inkerman Hotel,"375 Inkerman St, St Kilda East VIC 3183, Australia",https://www.facebook.com/events/494748156796361/?event_time_id=494748206796356,-37.866444,144.99799715146656
Horns of Leroy | April Residency | Live at Punters Club,2025-04-26,02:17,Punters Club,"376 Brunswick St, Fitzroy VIC 3065, Australia",https://www.facebook.com/events/613094115030510/?event_time_id=613094121697176,-37.7960561,144.9790327
St Kilda v Brisbane Lions - AFL Reserve,2025-04-26,13:20,Marvel Stadium,"740 Bourke St, Docklands VIC 3008, Australia",https://www.facebook.com/events/2509788936055207/,-37.816529,144.94751697668812
Think About You X Convenience Store,2025-04-26,00:00,The Gem Bar and Dining,"289 Wellington St, Collingwood VIC 3066, Australia",https://www.facebook.com/events/1916138862540030/,-37.7963837,144.9875917
LEGENDARY PETER CUPPLES AT MANTRASTUDIO ON SATURDAY APRIL 26 FROM 3.00PM,2025-04-26,00:00,Mantra Studio Kitchen and Bar,"10 Campbell St, Yarraville VIC 3013, Australia",https://www.facebook.com/events/2024944674683236/,-37.820684,144.8947691
The Audreys ‚ÄòRuin & Repair‚Äô Album Tour | MEMO Music Hall,2025-04-26,19:00,MEMO Music Hall,"88 Acland St, St Kilda VIC 3182, Australia",https://www.facebook.com/events/654452566939797/,-37.8671902,144.9786817
Divination ft. Pugilist & Tamen [All Night Long],2025-04-26,00:00,Sub Club Melbourne,"Flinders Ct, Melbourne VIC 3000, Australia",https://www.facebook.com/events/1450704875896265/,-37.81776587,144.96433104920948
FAD GALLERY BAR 30th ANNIVERSARY!!!!,2025-04-26,16:00,Fad Gallery Bar,"14 Corrs Ln, Melbourne VIC 3000, Australia",https://www.facebook.com/events/1680639882878319/,-37.8112208,144.9684346
DAFT WEEKND @ LUCKY 13 GARAGE,2025-04-26,00:00,Lucky 13 Garage,"8 Cochranes Rd, Moorabbin VIC 3189, Australia",https://www.facebook.com/events/1003579075172196/,-37.94349189,145.07036236060654
Rock-Q ,2025-04-26,00:00,Altona Sports Club,"11 Altona Rd, Altona VIC 3018, Australia",https://www.facebook.com/events/1057210472931478/,-37.85754867,144.85121805353086
am//pm emo night // melbourne april 26 // state champs guest dj set ,2025-04-26,00:00,Stay Gold,"133 Sydney Rd, Brunswick VIC 3056, Australia",https://www.facebook.com/events/1854682905303273/,-37.7743469,144.9607404
ASTRID # 2 - live music // vintage fashion // local designers,2025-04-26,00:00,Mamma Chen's,"42A Albert St, Footscray VIC 3011, Australia",https://www.facebook.com/events/625156723450800/,-37.8047552,144.89727240000002
Soap Making for Beginners,2025-04-26,00:00,CERES Environment Park,"Stewart St & Roberts St East, Brunswick VIC 3056, Australia",https://www.facebook.com/events/1164541295139109/,-37.765454,144.9831564
TASTE OF IRELAND ,2025-04-26,00:00,Inkerman Hotel,"375 Inkerman St, St Kilda East VIC 3183, Australia",https://www.facebook.com/events/494748156796361/,-37.866444,144.99799715146656
Urban Cocktail Trail | Prahran (VIC),2025-04-26,00:00,The Emerson Rooftop Bar and Club,"141-145 Commercial Rd, South Yarra VIC 3141, Australia",https://www.facebook.com/events/8858982150896469/,-37.84659833,144.99210205798175
Fomora 'The Temple of Gwyndil' single launch,2025-04-26,20:00,Cactus Room,"614 High St, Thornbury VIC 3071, Australia",https://www.facebook.com/events/693454073030228/,-37.76125825,145.00041662186553
Emma Pask (SYD),2025-04-26,20:00,The Jazz Lab,"27 Leslie St, Brunswick Melbourne, VIC, Australia, Victoria 3056",https://www.facebook.com/events/1013689226761484/,-37.76677279,144.9587122
Mad Hatter's Easter High Tea at Stamford Plaza Melbourne,2025-04-26,00:00,Stamford Plaza Melbourne,"111 Little Collins St, Melbourne VIC 3000, Australia",https://www.facebook.com/events/1960839617779927/,-37.81359225,144.9700614178762
DARK MOON TEMPLE,2025-04-27,16:00,Coburg,"Rose Street COBURG Melbourne, VIC 3058",https://www.eventbrite.com/e/dark-moon-temple-tickets-1309099133749?aff=ebdssbdestsearch,-37.7430122,144.9472194
Sunday Salsa  ‚Äì Dance  and Socialise!,2025-04-27,16:00,Ela Rose Studios,"20 Chingford Street Fairfield, VIC 3078",https://www.eventbrite.com.au/e/sunday-salsa-dance-and-socialise-tickets-1307659698359?aff=ebdssbdestsearch,-37.7696884,145.0239564
Prenatal Yoga and Meditation Autumn Sessions,2025-04-27,17:00,Elwood + St Kilda Neighbourhood Learning Centre (ESNLC),"87 Tennyson Street Elwood, VIC 3184",https://www.eventbrite.com/e/prenatal-yoga-and-meditation-autumn-sessions-tickets-1316904941129?aff=ebdssbdestsearch,-37.8800441,144.9895395
April Aperitivo Sunday,2025-04-27,16:00,Mamma's Boy Trattoria,"10 Tripovich Street #6 Brunswick, VIC 3056",https://www.eventbrite.com.au/e/april-aperitivo-sunday-tickets-1300150568349?aff=ebdssbdestsearch,-37.7662381,144.9617144
"Sound Healing Melbourne, Super New Moon in Taurus, Ritual and Sound Bath",2025-04-27,19:30,Private Studio St Kilda East,"Alma Road St Kilda East, VIC 3183",https://www.eventbrite.com.au/e/sound-healing-melbourne-super-new-moon-in-taurus-ritual-and-sound-bath-tickets-1314448874969?aff=ebdssbdestsearch,-37.8626178,145.0005983
Brushing Off the Pain: An Artistic Exploration of Trauma,2025-04-27,14:00,348 Macaulay Rd,"348 Macaulay Road Kensington, VIC 3031",https://www.eventbrite.com.au/e/brushing-off-the-pain-an-artistic-exploration-of-trauma-registration-1295178316209?aff=ebdssbdestsearch,-37.7947678,144.9342535
Embodied Healing Through Belly dance,2025-04-27,15:00,BIGBANG studio,"177 Beavers Road #1 Northcote, VIC 3070",https://www.eventbrite.com.au/e/embodied-healing-through-belly-dance-tickets-1295343720939?aff=ebdssbdestsearch,-37.76567989999999,144.9864456
POST RAMADAN WORKSHOP,2025-04-27,14:00,North Melbourne Community Centre,"49-53 Buncle Street North Melbourne, VIC 3051",https://www.eventbrite.com/e/post-ramadan-workshop-tickets-1298649338129?aff=ebdssbdestsearch,-37.7932051,144.9403529
"Soul Awakening Sunday Retreat - Kundalini Activation, Yin Yoga, Breathwork",2025-04-27,13:00,SoulPod Health & Healing,"14 Stanley Street Richmond, VIC 3121",https://www.eventbrite.com.au/e/soul-awakening-sunday-retreat-kundalini-activation-yin-yoga-breathwork-tickets-1318208409839?aff=ebdssbdestsearch,-37.8228766,144.9947237
Grow Your Intuition: Mediumship,2025-04-27,18:30,"Oracle of Crystals, 228 Glenferrie Road, Malvern VIC, Australia","228 Glenferrie Road Malvern, VIC 3144",https://www.eventbrite.com.au/e/grow-your-intuition-mediumship-tickets-1287148328299?aff=ebdssbdestsearch,-37.8585334,145.0292064
Advanced Reiki Practitioner | Expansion | Reiki Masters Part I,2025-04-27,10:00,Anahata Reiki & Wellness,"Avelin Street Hampton, VIC 3188",https://www.eventbrite.com.au/e/advanced-reiki-practitioner-expansion-reiki-masters-part-i-tickets-1315854579469?aff=ebdssbdestsearch,-37.9319964,145.0116914
High Cheese at Rippon Lea Estate  presented by Showtime Event Group.,2025-04-27,11:00,Rippon Lea Estate,"192 Hotham Street Elsternwick, VIC 3185",https://www.eventbrite.com.au/e/high-cheese-at-rippon-lea-estate-presented-by-showtime-event-group-tickets-1054614904569?aff=ebdssbdestsearch,-37.8798368,144.9987066
Paint and Sip Class: Palette Knife Monet's Water Lilies,2025-04-27,13:45,Paint for Fun,"252 Graham Street #Unit 1 Port Melbourne, VIC 3207",https://www.eventbrite.com.au/e/paint-and-sip-class-palette-knife-monets-water-lilies-tickets-1247941710249?aff=ebdssbdestsearch,-37.8386895,144.9385483
Painting with Palette Knives - Expressive Painting Techniques,2025-04-27,14:00,15-85 Gladstone St,"15-85 Gladstone Street South Melbourne, VIC 3205",https://www.eventbrite.com/e/painting-with-palette-knives-expressive-painting-techniques-tickets-1287030245109?aff=ebdssbdestsearch,-37.8291707,144.9518739
3¬∫ Aul√£o de Energy Dance com Rafaela Febronia e Jass,2025-04-27,10:00,O2 Dance Studios,"200 Bourke Street #LEVEL1 Melbourne, VIC 3000",https://www.eventbrite.com.br/e/3o-aulao-de-energy-dance-com-rafaela-febronia-e-jass-tickets-1306072200109?aff=ebdssbdestsearch,-37.8128039,144.9674288
"Mantra Lounge - Sanctuary of Sound - Mantra, Music, Meditation",2025-04-27,19:00,48 River St,"48 River Street Level 1 South Yarra, VIC 3141",https://www.eventbrite.com.au/e/mantra-lounge-sanctuary-of-sound-mantra-music-meditation-tickets-1302795459289?aff=ebdssbdestsearch,-37.8377995,144.9976989
Still Life Club,2025-04-27,13:20,Runner Up Rooftop Bar,"35 Johnston Street #Level 2 Collingwood, VIC 3066",https://www.eventbrite.com.au/e/still-life-club-tickets-1295500650319?aff=ebdssbdestsearch,-37.7992906,144.9861257
Moreland City Soul Revue at The Lomond,2025-04-27,17:00,The Lomond Hotel,"225 Nicholson Street Brunswick East, VIC 3057",https://www.eventbrite.com.au/e/moreland-city-soul-revue-at-the-lomond-tickets-1261832146919?aff=ebdssbdestsearch,-37.7670861,144.9800057
Sound Circle - Enjoy a deeply relaxing and rebalancing Journey inwards,2025-04-27,16:00,level 1/14 Pakington St,"14 Pakington Street #level 1 St Kilda, VIC 3182",https://www.eventbrite.com.au/e/sound-circle-enjoy-a-deeply-relaxing-and-rebalancing-journey-inwards-tickets-1302718699699?aff=ebdssbdestsearch,-37.8655601,144.9873231
"Ceremonial cacao and blue lotus, vagus nerve reset & sound healing",2025-04-27,13:30,Manakai Martial Arts,"1289 Nepean Highway Cheltenham, VIC 3192",https://www.eventbrite.com.au/e/ceremonial-cacao-and-blue-lotus-vagus-nerve-reset-sound-healing-tickets-1284081956699?aff=ebdssbdestsearch,-37.964624,145.0576605
Soul Sundays Day Retreat - Vision | Values | Virtues,2025-04-27,13:00,Artful Yoga Gallery,"1 Vale Street St Kilda, VIC 3182",https://www.eventbrite.com.au/e/soul-sundays-day-retreat-vision-values-virtues-tickets-1301657305039?aff=ebdssbdestsearch,-37.8661713,144.9817611
"The Space Between- TaKeTiNa, Dance and Deep Rest",2025-04-27,13:00,Community Church of ST Mark (Baptist),"100 Hodgkinson Street Clifton Hill, VIC 3068",https://www.eventbrite.com/e/the-space-between-taketina-dance-and-deep-rest-tickets-1290514847649?aff=ebdssbdestsearch,-37.7893582,144.9912201
SLVT SUNDAYS!,2025-04-27,22:00,The Moser Room (Chasers),"386 Chapel Street South Yarra, VIC 3141",https://www.eventbrite.com/e/slvt-sundays-tickets-1314481171569?aff=ebdssbdestsearch,-37.8459028,144.9947039
POOF DOOF Drag Brunch at The Espy - Every Sunday,2025-04-27,12:00,Hotel Esplanade,"11 The Esplanade St Kilda, VIC 3182",https://www.eventbrite.com.au/e/poof-doof-drag-brunch-at-the-espy-every-sunday-tickets-1319647143129?aff=ebdssbdestsearch,-37.8641604,144.9730092
DANCE TRIBE ‚Äì A Sober Dance Party Experiment by Music is Medicine.,2025-04-27,15:00,Centre of You,"Upstairs, 217 Chapel St Prahran Melbourne, VIC 3181",https://www.eventbrite.com.au/e/dance-tribe-a-sober-dance-party-experiment-by-music-is-medicine-tickets-1309316513939?aff=ebdssbdestsearch,-37.8509316,144.9933031
MANIFEST YOUR DREAMS COLLAGE WORKSHOP,2025-04-27,10:30,Prana House,"Level 1, 885 High Street Thornbury, VIC 3071",https://www.eventbrite.com.au/e/manifest-your-dreams-collage-workshop-tickets-1245781860079?aff=ebdssbdestsearch,-37.7537691,145.0011906
Queer Lesbian Daytime  Speed Dating: Melbourne 42-60+yrs,2025-04-27,13:30,Melbourne CBD Outside,"Melbourne CBD Melbourne, VIC 3000",https://www.eventbrite.com.au/e/queer-lesbian-daytime-speed-dating-melbourne-42-60yrs-tickets-1299527755499?aff=ebdssbdestsearch,-37.8152065,144.963937
DBSC - Rivals Clash - FB-06 Pre-Release - Gameology BRUNSWICK - 27/04,2025-04-27,11:30,Gameology Brunswick,"36 Hope Street Brunswick, VIC 3056",https://www.eventbrite.com.au/e/dbsc-rivals-clash-fb-06-pre-release-gameology-brunswick-2704-tickets-1268065892219?aff=ebdssbdestsearch,-37.7636924,144.9595539
Many Hands Make ‚Äì Creative Support Group | 27 April,2025-04-27,14:00,Kathleen Syme Library and Community Centre,"251 Faraday Street Carlton, VIC 3053",https://www.eventbrite.com.au/e/many-hands-make-creative-support-group-27-april-tickets-1306145168359?aff=ebdssbdestsearch,-37.7986481,144.9652272
Closed Distilleries with Owain Phillips,2025-04-27,13:00,Goodwater,"300 High Street Northcote, VIC 3070",https://www.eventbrite.com/e/closed-distilleries-with-owain-phillips-tickets-1300243957679?aff=ebdssbdestsearch,-37.771391,144.9989756
Breathwork Sound Journey | Christian Dimarco & Seeds of Prana 27th April,2025-04-27,16:00,Melbourne Latvian School,"3 Dickens Street Elwood, VIC 3184",https://www.eventbrite.com.au/e/breathwork-sound-journey-christian-dimarco-seeds-of-prana-27th-april-tickets-1314870626439?aff=ebdssbdestsearch,-37.871512,144.9881269
Conscious Connection | Besties Who Bake (ages 25 -35),2025-04-27,14:00,Otao Kitchen Cooking School,"393 Victoria Street Abbotsford, VIC 3067",https://www.eventbrite.com.au/e/conscious-connection-besties-who-bake-ages-25-35-tickets-1290795828069?aff=ebdssbdestsearch,-37.810175,144.9987358
Fascial Freedom: Release and Transform to Thrive and Perform,2025-04-27,09:30,567 Glen Huntly Rd,"567 Glen Huntly Road Elsternwick, VIC 3185",https://www.eventbrite.com/e/fascial-freedom-release-and-transform-to-thrive-and-perform-tickets-1309553893949?aff=ebdssbdestsearch,-37.8852905,145.0120933
Sake Master Class,2025-04-27,12:00,KURA,"30 Lygon Street #Shop 1/22 Brunswick East, VIC 3057",https://www.eventbrite.com.au/e/sake-master-class-tickets-1257430170489?aff=ebdssbdestsearch,-37.7779661,144.9709972
POKEMON - April Challenge Event - Gameology BRUNSWICK - 27/04/25,2025-04-27,11:30,Gameology Brunswick,"36 Hope Street Brunswick, VIC 3056",https://www.eventbrite.com.au/e/pokemon-april-challenge-event-gameology-brunswick-270425-tickets-1290519822529?aff=ebdssbdestsearch,-37.7636924,144.9595539
Neurology Clinical Skills Day for FRACP 2025,2025-04-27,09:30,The Royal Children's Hospital Melbourne,"50 Flemington Road Parkville, VIC 3052",https://www.eventbrite.com.au/e/neurology-clinical-skills-day-for-fracp-2025-tickets-1319522921579?aff=ebdssbdestsearch,-37.7902531,144.9433744
Friends On Purpose: Breathwork & Connection,2025-04-27,11:30,No Name Studios | Breathwork,"298 Victoria Street #296 Brunswick, VIC 3056",https://www.eventbrite.com.au/e/friends-on-purpose-breathwork-connection-tickets-1298744683309?aff=ebdssbdestsearch,-37.7673128,144.963179
The Repeters @ Oakleigh Music Hall,2025-04-27,14:30,Oakleigh Carnegie RSL,"95/97 Drummond St, Oakleigh VIC 3166, Australia",https://www.facebook.com/events/998839592095470/,-37.8968576,145.08963741959553
Forest Therapy - Cranbourne,2025-04-27,10:00,Botanic gardens,"Birdwood Ave Melbourne VIC 3004, Australia",https://www.facebook.com/events/1308622000175136/,-37.82683271,144.97238679810675
THE DETONATORS,2025-04-27,14:00,Way Out West Roots Music Club,"4 Market St, Newport VIC 3015, Australia",https://www.facebook.com/events/654248680395141/,-37.8439028,144.8823845
Sundowner(ADL) / Scum Fu(SYD) / Bongcleaner / Citrus Fuzz @ The Last Chance ,2025-04-27,14:00,The Last Chance,"238 Victoria St, Melbourne VIC 3000, Australia",https://www.facebook.com/events/1248941403317723/,-37.8059962,144.9585654
Domingo Latino - La Influencia,2025-04-27,18:45,The Night Cat,"137-141 Johnston St, Fitzroy VIC 3065, Australia",https://www.facebook.com/events/650253010969079/,-37.7982971,144.978128
'Front Bar Sessions' with Lewis Coleman,2025-04-27,15:00,The Corner Hotel,"57 Swan St, Richmond VIC 3121",https://www.facebook.com/events/572541769150801/,-37.82464307,144.9926962
SOUL OF FITZROY | ROOFTOP JAZZ & SOUL PARTY | WITH NORTHSIDE RECORDS,2025-04-27,00:00,Punters Club,"376 Brunswick St, Fitzroy VIC 3065, Australia",https://www.facebook.com/events/1217154460008624/,-37.7960561,144.9790327
BAND-A-OKE Live band Karaoke,2025-04-27,00:00,Musicland Melbourne,"1359 Sydney Rd, Fawkner VIC 3060, Australia",https://www.facebook.com/events/1744777073050218/?event_time_id=1744782323049693,-37.6916774,144.9585701581541
Michael Zammit & Jenn Allas,2025-04-27,00:00,Altona Sports Club,"11 Altona Rd, Altona VIC 3018, Australia",https://www.facebook.com/events/1034226895269240/,-37.85754867,144.85121805353086
Dungeons and Flagons - D&D One Shot Campaigns,2025-04-27,00:00,Fortress Melbourne,"Shop 25/23 Caledonian Ln, Melbourne VIC 3000, Australia",https://www.facebook.com/events/462112836967415/,-37.8120357,144.9642299
Sunday Slaughter KLAVIER KRIEGER ‚Äî- SKEZM ‚Äî‚Äî KAYO,2025-04-27,19:00,The Last Chance,"238 Victoria St, Melbourne VIC 3000, Australia",https://www.facebook.com/events/1318796599178856/,-37.8059962,144.9585654
Trench Crusade - Campaign League,2025-04-27,00:00,The Gaming Arena,"123 Bakers Rd, Coburg North VIC 3058, Australia",https://www.facebook.com/events/579100334568344/,-37.72715826,144.96115535488718
Forest Therapy - Melbourne,2025-04-27,10:00,Botanic gardens,"Birdwood Ave Melbourne VIC 3004, Australia",https://www.facebook.com/events/946282497574123/,-37.82683271,144.97238679810675
Olivia's World (NSW) w/ my guardian angel + Power Tools @ Merri Creek Tavern,2025-04-27,17:00,The Merri Creek Tavern,"111 High St, Northcote VIC 3070, Australia",https://www.facebook.com/events/1724033168324275/,-37.7794356,144.996838
Daoir√≠ Farrell (IRE) ‚Äì 2025 Australian Tour | MEMO Music Hall,2025-04-27,19:00,MEMO Music Hall,"88 Acland St, St Kilda VIC 3182, Australia",https://www.facebook.com/events/1717269842170488/,-37.8671902,144.9786817
Jack Daniels acoustic duo at the Retreat,2025-04-27,14:00,Retreat Hotel,"Level 1/280 Sydney Rd, Brunswick VIC 3056, Australia",https://www.facebook.com/events/649441231222150/,-37.7711487,144.9615949
Bigger Boot @ The Old Bar w/ WeWillLookBackAtYouAndLoveYouForever!!!!! + SECRET ACT,2025-04-27,19:30,The Old Bar,"74-76 Johnston St, Fitzroy VIC 3065, Australia",https://www.facebook.com/events/726452599705297/,-37.79833,144.97711
40+ Lunch Club,2025-04-27,13:30,Neighbourhood Wine,"1 Reid Street Fitzroy North, VIC 3068",https://www.eventbrite.com.au/e/40-lunch-club-tickets-1105149244139?aff=ebdssbdestsearch,-37.7850504,144.977762
Hawthorn v West Coast Eagles - AFL Reserve,2025-04-27,16:40,Marvel Stadium,"740 Bourke St, Docklands VIC 3008, Australia",https://www.facebook.com/events/9148222498559070/,-37.816529,144.94751697668812
Perennial Ruminations @ Bar Oussou!,2025-04-27,20:00,Bar Oussou,"653 Sydney Rd, Brunswick VIC 3056, Australia",https://www.facebook.com/events/2276311959430696/,-37.7618155,144.9628753
Goodroom with Charles Eddy + JNETT (Vinyl Night),2025-04-27,19:00,Goodroom,"Level 1, 265 Chapel St Prahran Melbourne, VIC 3141",https://www.eventbrite.com.au/e/goodroom-with-charles-eddy-jnett-vinyl-night-tickets-1306179761829?aff=ebdssbdestsearch,-37.849137,144.99355
Conscious Connection | Pasta Party (ages 20-40),2025-04-27,09:00,Otao Kitchen Cooking School,"393 Victoria Street Abbotsford, VIC 3067",https://www.eventbrite.com.au/e/conscious-connection-pasta-party-ages-20-40-tickets-1211444104929?aff=ebdssbdestsearch,-37.810175,144.9987358
VIP Shopping Event - Melbourne | Style by Wesson: Spring Summer 2025,2025-04-27,18:00,Melbourne,"Park Hyatt Melbourne 1 Parliament Square Off, Parliament Pl Melbourne, VIC 3002",https://www.eventbrite.com.au/e/vip-shopping-event-melbourne-style-by-wesson-spring-summer-2025-tickets-1119513588279?aff=ebdssbdestsearch,-37.8113526,144.9755666
RuPaul's Drag Race Werq The World Tour 2025,2025-04-27,20:00,Palais Theatre,"Lower Esplanade, St Kilda VIC 3182, Australia",https://www.facebook.com/events/1738179546798391/,-37.86708671,144.97599656199426
CBD Rooftop Sunday Session | Zodiac | Live Readings | Singles 40+,2025-04-27,13:00,Club Retro,"383 Lonsdale Street Melbourne, VIC 3000",https://www.eventbrite.com.au/e/cbd-rooftop-sunday-session-zodiac-live-readings-singles-40-tickets-1274920755299?aff=ebdssbdestsearch,-37.8128025,144.9611855
Mana on Tap: Magic the Gathering ,2025-04-27,00:00,Fortress Melbourne,"Shop 25/23 Caledonian Ln, Melbourne VIC 3000, Australia",https://www.facebook.com/events/897086662507640/?event_time_id=953101150239524,-37.8120357,144.9642299
Shantael Raphael & Gabe Coleman @ Bar Oussou!,2025-04-27,17:00,Bar Oussou,"653 Sydney Rd, Brunswick VIC 3056, Australia",https://www.facebook.com/events/1217046976644050/,-37.7618155,144.9628753
SUNDAY COMEDOWN APRIL 27TH,2025-04-27,18:00,Bad Decisions Bar,"46 Johnston St, Fitzroy VIC 3065, Australia",https://www.facebook.com/events/631261376552357/,-37.798246,144.9762881
SISTERS DOLL **Encore-Encore Performance** - Musicland - MELBOURNE! **NIGHT 2**,2025-04-27,00:00,Musicland Melbourne,"1359 Sydney Rd, Fawkner VIC 3060, Australia",https://www.facebook.com/events/1286457299824910/,-37.6916774,144.9585701581541
STEPPERS x TOUCH BASE @ Kindred Studios,2025-04-27,12:30,Kindred Bandroom,"3 Harris St, Footscray VIC 3011, Australia",https://www.facebook.com/events/1005438311129204/,-37.8119001,144.9008247
ùêíùêéùêãùêÉ ùêéùêîùêì  Inertia // Melbourne // Second Shadow Tour // Bergy Bandroom 18+,2025-04-27,19:00,Bergy Bandroom,"64 Sydney Rd, Brunswick VIC 3056, Australia",https://www.facebook.com/events/8706950399411222/,-37.776327,144.9607158
Head Gap - Sunday Songwriters at NSC,2025-04-27,00:00,Northcote Social Club,"301 High St, Northcote VIC 3070, Australia",https://www.facebook.com/events/1303368260750417/,-37.771471,144.998414
Hawthorn v West Coast Eagles,2025-04-27,16:40,Marvel Stadium,"740 Bourke St, Docklands VIC 3008, Australia",https://www.facebook.com/events/555953744141415/,-37.816529,144.94751697668812
Miss Skatonic With DJ Foey Man Rocksteady Sunday!,2025-04-27,18:00,The Gem Bar and Dining,"289 Wellington St, Collingwood VIC 3066, Australia",https://www.facebook.com/events/531460392580592/,-37.7963837,144.9875917
The Punters | Every Sunday at Punters Club,2025-04-27,00:00,Punters Club,"376 Brunswick St, Fitzroy VIC 3065, Australia",https://www.facebook.com/events/1173145007722321/,-37.7960561,144.9790327
Sunday Singles - Local Love and Friendship,2025-04-27,14:00,Bad Shepherd Brewing Co.,"386 Reserve Road Cheltenham, VIC 3192",https://www.eventbrite.com.au/e/sunday-singles-local-love-and-friendship-tickets-1295510409509?aff=ebdssbdestsearch,-37.95669150000001,145.0390577
CIRCADIAN RHYTHMS,2025-04-28,00:00,Wax Music Lounge,"250 Flinders St, Melbourne VIC 3000, Australia",https://www.facebook.com/events/584862551173325/?event_time_id=584862697839977,-37.8176298,144.9661635
Seb's La La Land: Love & Loss,2025-04-28,18:15,James Tatoulis Auditorium,"207 Barkers Road Kew, VIC 3101",https://www.eventbrite.com.au/e/sebs-la-la-land-love-loss-tickets-1291090529529?aff=ebdssbdestsearch,-37.8136453,145.0372491
Drag Trivia: FREE Gaming & Pop Culture Trivia,2025-04-28,00:00,Fortress Melbourne,"Shop 25/23 Caledonian Ln, Melbourne VIC 3000, Australia",https://www.facebook.com/events/3654926844806381/,-37.8120357,144.9642299
Killer Pool Comp - Mondays,2025-04-28,00:00,Inkerman Hotel,"375 Inkerman St, St Kilda East VIC 3183, Australia",https://www.facebook.com/events/1038406204674063/,-37.866444,144.99799715146656
Adult Inter/Advanced Lyrical,2025-04-28,11:30,Dance Factory,"225 Swan Street Richmond, VIC 3121",https://www.eventbrite.com.au/e/adult-interadvanced-lyrical-tickets-1316048479429?aff=ebdssbdestsearch,-37.8257354,144.9998261
Form Poetry with Dr Strangesmarty ,2025-04-28,00:00,Mamma Chen's,"42A Albert St, Footscray VIC 3011, Australia",https://www.facebook.com/events/1334872754222860/,-37.8047552,144.89727240000002
OUR WEEKENDS END ON MONDAYS | with The Heart Shaped Aces,2025-04-28,00:00,Punters Club,"376 Brunswick St, Fitzroy VIC 3065, Australia",https://www.facebook.com/events/1179016663622476/,-37.7960561,144.9790327
"‚ÄòSocial Sanctuary‚Äô with Safety Club, Matahara + koady",2025-04-28,19:00,Northcote Social Club,"301 High St, Northcote VIC 3070, Australia",https://www.facebook.com/events/515814104926227/,-37.771471,144.998414
the stamps Residency at Merri Creek Tavern w/ Mia June,2025-04-28,20:00,The Merri Creek Tavern,"111 High St, Northcote VIC 3070, Australia",https://www.facebook.com/events/642431535151408/,-37.7794356,144.996838
GIFT: Eiko Ishibashi x Ryusuke Hamaguchi,2025-04-28,19:30,Melbourne Recital Centre,"31 Sturt St, Southbank VIC 3006, Australia",https://www.facebook.com/events/1883177832215293/,-37.82408485,144.96758763141432
MOON TEMPLE - New Moon Cacao Cacao Ceremony and Healing Circle,2025-04-28,19:00,Coburg,"Rose Street COBURG Melbourne, VIC 3058",https://www.eventbrite.com/e/moon-temple-new-moon-cacao-cacao-ceremony-and-healing-circle-tickets-1261762037219?aff=ebdssbdestsearch,-37.7430122,144.9472194
Marley Del Prete Residency @ BAR OUSSOU!,2025-04-28,19:00,Bar Oussou,"653 Sydney Rd, Brunswick VIC 3056, Australia",https://www.facebook.com/events/527087793792312/,-37.7618155,144.9628753
Adult Drama Classes,2025-04-28,15:00,Dance Factory,"225 Swan Street Richmond, VIC 3121",https://www.eventbrite.com.au/e/adult-drama-classes-tickets-1316070124169?aff=ebdssbdestsearch,-37.8257354,144.9998261
DAVINES - Red with Confidence Workshop VIC 2025,2025-04-28,10:00,shibui,"139 Toorak Road South Yarra, VIC 3141",https://www.eventbrite.com.au/e/davines-red-with-confidence-workshop-vic-2025-tickets-1119408875079?aff=ebdssbdestsearch,-37.8386846,144.991012
COGNITIVE BEHAVIOURAL THERAPY INTERVENTIONS FOR PSYCHOSIS,2025-04-28,09:30,Orygen Colonial  Foundation Innovation Centre,"35 Poplar Road Parkville, VIC 3052",https://www.eventbrite.com.au/e/cognitive-behavioural-therapy-interventions-for-psychosis-tickets-1104146294289?aff=ebdssbdestsearch,-37.7801959,144.9478953
Introduction to the funeral industry,2025-04-28,08:30,IFISS,"666 Smith Street Clifton Hill, VIC 3068",https://www.eventbrite.com.au/e/introduction-to-the-funeral-industry-tickets-1312411471039?aff=ebdssbdestsearch,-37.7914465,144.9857667
Where It All Began,2025-04-28,19:00,The Butterfly Club,"5 Carson Place Melbourne, VIC 3000",https://www.eventbrite.co.uk/e/where-it-all-began-tickets-1206103511069?aff=ebdssbdestsearch,-37.8154472,144.9652725
Adult Inter/Advanced Ballet,2025-04-28,13:00,Dance Factory,"225 Swan Street Richmond, VIC 3121",https://www.eventbrite.com.au/e/adult-interadvanced-ballet-tickets-1316062220529?aff=ebdssbdestsearch,-37.8257354,144.9998261
The Marketing Movement,2025-04-28,09:00,Hotel Chadstone Melbourne - MGallery Collection,"1341 Dandenong Road Chadstone, VIC 3148",https://www.eventbrite.com.au/e/the-marketing-movement-tickets-1273405432929?aff=ebdssbdestsearch,-37.8859034,145.085521
Fashion Runway - Melbourne | Style by Wesson: Spring Summer 2025,2025-04-28,18:00,Park Hyatt Melbourne,"Parliament Place Melbourne, VIC 3002",https://www.eventbrite.com.au/e/fashion-runway-melbourne-style-by-wesson-spring-summer-2025-tickets-1119541050419?aff=ebdssbdestsearch,-37.8112922,144.9754806
Melbourne PgMP Exam Preparation Course,2025-04-28,09:00,"Melbourne, VLC Training Center","Levels 31 & 50/120 Collins St Melbourne, VIC 3000",https://www.eventbrite.com/e/melbourne-pgmp-exam-preparation-course-tickets-1232058352699?aff=ebdssbdestsearch,-37.8142665,144.9696592
Fashion Edit - Melbourne | Style by Wesson: Spring Summer 2025,2025-04-28,18:00,Park Hyatt Melbourne,"Parliament Place Melbourne, VIC 3002",https://www.eventbrite.com.au/e/fashion-edit-melbourne-style-by-wesson-spring-summer-2025-tickets-1119541050419?aff=ebdssbdestsearch,-37.8112922,144.9754806
Identity Quest ‚Äì a trans existential drama,2025-04-28,19:00,The Butterfly Club,"5 Carson Place Melbourne, VIC 3000",https://www.eventbrite.co.uk/e/identity-quest-a-trans-existential-drama-tickets-1218709877049?aff=ebdssbdestsearch,-37.8154472,144.9652725
Unlocking AI: Fundamentals for Newcomers,2025-04-28,13:30,Holden Street Neighbourhood House,"128 Holden Street Fitzroy North, VIC 3068",https://www.eventbrite.com.au/e/unlocking-ai-fundamentals-for-newcomers-registration-1258906847269?aff=ebdssbdestsearch,-37.7801608,144.9845632
BRAZLOMBIA,2025-04-29,00:00,Wax Music Lounge,"250 Flinders St, Melbourne VIC 3000, Australia",https://www.facebook.com/events/585678634285012/?event_time_id=585678687618340,-37.8176298,144.9661635
TRIVIA hosted by COMFORTABLY FUN,2025-04-29,00:00,Mamma Chen's,"42A Albert St, Footscray VIC 3011, Australia",https://www.facebook.com/events/539160092134546/,-37.8047552,144.89727240000002
Spoken Word @ Bar Oussou!,2025-04-29,00:00,Bar Oussou,"653 Sydney Rd, Brunswick VIC 3056, Australia",https://www.facebook.com/events/807715171482397/,-37.7618155,144.9628753
Saint Victoire Single Launch w Gaia Scarf,2025-04-29,19:30,The Old Bar,"74-76 Johnston St, Fitzroy VIC 3065, Australia",https://www.facebook.com/events/9847558962024706/,-37.79833,144.97711
Tix at 12,2025-04-29,00:00,Arts Centre Melbourne,"100 St Kilda Rd, Southbank VIC 3004, Australia",https://www.facebook.com/events/473885795706627/?event_time_id=481829744912232,-37.8216405,144.9683143
Kindergarten Readiness Information Session,2025-04-29,00:00,Kingston City Hall,"979-985 Nepean Hwy, Moorabbin VIC 3189, Australia",https://www.facebook.com/events/967294738723875/,-37.93372508,145.0352972005879
Cash Prize POOL COMP,2025-04-29,00:00,Inkerman Hotel,"375 Inkerman St, St Kilda East VIC 3183, Australia",https://www.facebook.com/events/1056315672649917/,-37.866444,144.99799715146656
MQFF Presents: The Wedding Banquet,2025-04-29,18:50,Cinema Nova,"380 Lygon St, Carlton VIC 3053, Australia",https://www.facebook.com/events/1050438977146234/,-37.7978092,144.9680124
Meet Cute: A Celebration of Romantic Comedies,2025-04-29,00:00,Lido Cinemas,"675 Glenferrie Rd, Hawthorn VIC 3122, Australia",https://www.facebook.com/events/652154180558242/?event_time_id=652154240558236,-37.8205529,145.0355738
TACO TUEDAYS,2025-04-29,00:00,Inkerman Hotel,"375 Inkerman St, St Kilda East VIC 3183, Australia",https://www.facebook.com/events/1570429663626220/,-37.866444,144.99799715146656
Weekly MTG Commander at The Gaming Arena,2025-04-29,00:00,The Gaming Arena,"123 Bakers Rd, Coburg North VIC 3058, Australia",https://www.facebook.com/events/1541838383370198/,-37.72715826,144.96115535488718
In-Person PMI ACP Exam Prep Course in Melbourne,2025-04-29,09:00,120 Collins St,"120 Collins Street Levels 31 & 50/120 Collins St Melbourne, VIC 3000",https://www.eventbrite.com/e/in-person-pmi-acp-exam-prep-course-in-melbourne-tickets-1119732212189?aff=ebdssbdestsearch,-37.8138656,144.9695281
SmallBiz Week 2025,2025-04-29,09:00,Melbourne Convention and Exhibition Centre (MCEC),"1 Convention Centre Place South Wharf, VIC 3006",https://www.eventbrite.com.au/e/smallbiz-week-2025-tickets-1110987436329?aff=ebdssbdestsearch,-37.82520299999999,144.952251
Startup Boards: Advisory Board assembly for rapid growth,2025-04-29,09:00,Work Club Olderfleet,"477 Collins Street Melbourne, VIC 3000",https://www.eventbrite.com.au/e/startup-boards-advisory-board-assembly-for-rapid-growth-tickets-1307103474679?aff=ebdssbdestsearch,-37.818656,144.9587976
Shure Advanced Wireless Training- Melbourne,2025-04-29,09:00,Jands Melbourne,"Unit 11 21 Sabre Drive Port Melbourne, VIC 3207",https://www.eventbrite.com.au/e/shure-advanced-wireless-training-melbourne-tickets-1111093593849?aff=ebdssbdestsearch,-37.826561,144.9069598
LUX VIP MELB : Co-Working Day at the Terminus Hotel,2025-04-29,09:00,Terminus Hotel Fitzroy North,"492 Queens Parade Fitzroy North, VIC 3068",https://www.eventbrite.com.au/e/lux-vip-melb-co-working-day-at-the-terminus-hotel-tickets-1295251464999?aff=ebdssbdestsearch,-37.7853246,144.994443
Mums and Bubs in Arms Creative Workshop Series,2025-04-29,10:00,Troppo Print Studio,"503 Sydney Road Coburg, VIC 3058",https://www.eventbrite.com.au/e/mums-and-bubs-in-arms-creative-workshop-series-tickets-1301632510879?aff=ebdssbdestsearch,-37.7410437,144.966314
"The Grass is Greener LIVE - Dream it, Live it - Your Dream Retirement",2025-04-29,09:30,Stomping Ground Brewery & Beer Hall - Morris Moor,"9 Cochranes Road Moorabbin, VIC 3189",https://www.eventbrite.com.au/e/the-grass-is-greener-live-dream-it-live-it-your-dream-retirement-tickets-1291978986929?aff=ebdssbdestsearch,-37.94185969999999,145.0618277
Sunset Strategies: Building Your Retirement Journey,2025-04-29,19:20,"The Bunting Room - Box Hill Golf Club, Station Street, Box Hill South VIC, Australia","202 Station Street Box Hill South, VIC 3128",https://www.eventbrite.com.au/e/sunset-strategies-building-your-retirement-journey-tickets-1302770384289?aff=ebdssbdestsearch,-37.8398065,145.1221654
Wagashi Workshop SESSION 2 (6:30pm - 7:45pm),2025-04-29,06:30,Learning and Teaching Building (Room 303),"19 Ancora Imparo Way Clayton, VIC 3168",https://www.eventbrite.com.au/e/wagashi-workshop-session-2-630pm-745pm-tickets-1318661474969?aff=ebdssbdestsearch,-37.9139139,145.1325609
Tuesday Art Playgroup Term 2,2025-04-29,10:00,Newport Gardens Early Years Centre (Community Room),"51 Maddox Road Newport, VIC 3015",https://www.eventbrite.com.au/e/tuesday-art-playgroup-term-2-tickets-1298766167569?aff=ebdssbdestsearch,-37.8456592,144.8677992
ACBC Vic | Business Frontiers - Energy & Resources,2025-04-29,16:00,level 5/121 Exhibition St,"121 Exhibition Street #level 5 Melbourne, VIC 3000",https://www.eventbrite.com.au/e/acbc-vic-business-frontiers-energy-resources-tickets-1295202899739?aff=ebdssbdestsearch,-37.8126466,144.9703748
Thrive Together - NDIS Event,2025-04-29,11:00,Anglers Tavern,"2 Anglers Way Maribyrnong, VIC 3032",https://www.eventbrite.com.au/e/thrive-together-ndis-event-tickets-1247699586049?aff=ebdssbdestsearch,-37.7690157,144.9014911
April 2025: Speakers Tribe VICTORIA Gathering,2025-04-29,18:30,Auburn Hotel,"85 Auburn Road Hawthorn East, VIC 3122",https://www.eventbrite.com.au/e/april-2025-speakers-tribe-victoria-gathering-tickets-1218505856819?aff=ebdssbdestsearch,-37.8217629,145.0454739
Introduction to Visual Arts,2025-04-29,12:45,Holden Street Neighbourhood House,"128 Holden Street Fitzroy North, VIC 3068",https://www.eventbrite.com.au/e/introduction-to-visual-arts-tickets-1260234237529?aff=ebdssbdestsearch,-37.7801608,144.9845632
Adult Beginner/Inter Commercial Jazz,2025-04-29,10:30,Dance Factory,"225 Swan Street Richmond, VIC 3121",https://www.eventbrite.com.au/e/adult-beginnerinter-commercial-jazz-tickets-1317069944659?aff=ebdssbdestsearch,-37.8257354,144.9998261
The Macallan TIME : SPACE Mastery Dinner,2025-04-29,17:00,Beneath Driver Lane,"3 Driver Lane Melbourne, VIC 3000",https://www.eventbrite.com.au/e/the-macallan-time-space-mastery-dinner-tickets-1255314642889?aff=ebdssbdestsearch,-37.8128619,144.9629909
Mindfulness Based Stillness Meditation | 8 Week Workshop Round 1/2025,2025-04-29,19:00,CoRize,"17 Everage Street #201 Moonee Ponds, VIC 3039",https://www.eventbrite.com.au/e/mindfulness-based-stillness-meditation-8-week-workshop-round-12025-tickets-1250949416379?aff=ebdssbdestsearch,-37.7654176,144.9220455
Over 50's Beginner Ballet,2025-04-29,11:30,Dance Factory,"225 Swan Street Richmond, VIC 3121",https://www.eventbrite.com.au/e/over-50s-beginner-ballet-tickets-1298814080879?aff=ebdssbdestsearch,-37.8257354,144.9998261
ClimateTech & AgTech Pitch Night,2025-04-29,18:00,The Commons Gipps St,"38 Gipps St Collingwood, VIC 3066",https://www.eventbrite.com.au/e/climatetech-agtech-pitch-night-tickets-1088682250919?aff=ebdssbdestsearch,-37.8041282,144.9882914
Thrive Together - NDIS Business Network,2025-04-29,11:00,Anglers Tavern,"2 Anglers Way Maribyrnong, VIC 3032",https://www.eventbrite.com.au/e/thrive-together-ndis-business-network-tickets-1247699586049?aff=ebdssbdestsearch,-37.7690157,144.9014911
2025 ANZAC Oration: Sir Peter Cosgrove | Vietnam,2025-04-29,17:30,Old Quadrangle,"University of Melbourne Victoria Parkville, VIC 3010",https://www.eventbrite.com.au/e/2025-anzac-oration-sir-peter-cosgrove-vietnam-tickets-1259114006889?aff=ebdssbdestsearch,-37.7983459,144.960974
Hans Zimmer,2025-04-29,12:00,Rod Laver Arena,"200 Batman Ave, Melbourne VIC 3000, Australia",https://premier.ticketek.com.au/shows/show.aspx?sh=HANSZIMM25,-37.8216161,144.9785584
Kinosthesia volume 2 - monthly film screenings,2025-04-29,18:00,55 Edward St,"55 Edward Street Brunswick, VIC 3056",https://www.eventbrite.com/e/kinosthesia-volume-2-monthly-film-screenings-tickets-1317242490749?aff=ebdssbdestsearch,-37.7738491,144.9631088
The art of bridal floristry: blending the old with the new.,2025-04-30,10:30,Villa Alba Museum,"44 Walmer Street Kew, VIC 3101",https://www.eventbrite.com.au/e/the-art-of-bridal-floristry-blending-the-old-with-the-new-tickets-1312610596629?aff=ebdssbdestsearch,-37.8051441,145.0112191
Art Jam Session - 30/04,2025-04-30,17:30,The Corner Studio,"582 Barkly Street West Footscray, VIC 3012",https://www.eventbrite.com.au/e/art-jam-session-3004-tickets-1316663368579?aff=ebdssbdestsearch,-37.7971301,144.8768395
Generation Women Melbourne: 'Failing Forward- Stories About Mistakes',2025-04-30,00:00,Howler,"7-11 Dawson St, Brunswick VIC 3056, Australia",https://www.facebook.com/events/604779989386756/,-37.7720304,144.9596527
Board Game Social,2025-04-30,00:00,Fortress Melbourne,"Shop 25/23 Caledonian Ln, Melbourne VIC 3000, Australia",https://www.facebook.com/events/2385724768449287/,-37.8120357,144.9642299
Front Bar Bingo with Scully ,2025-04-30,19:00,Northcote Social Club,"301 High St, Northcote VIC 3070, Australia",https://www.facebook.com/events/1718562029038584/,-37.771471,144.998414
Secret Life of Birds Tour,2025-04-30,00:00,Botanic gardens,"Birdwood Ave Melbourne VIC 3004, Australia",https://www.facebook.com/events/1340104930741297/,-37.82683271,144.97238679810675
The Harmonix Experience,2025-04-30,18:00,Bird's Basement,"11 Singers Ln, Melbourne VIC 3000, Australia",https://www.facebook.com/events/980962690673047/,-37.81114416,144.95680390283175
Natural Movement at CERES,2025-04-30,18:00,CERES Environment Park,"Stewart St & Roberts St East, Brunswick VIC 3056, Australia",https://www.facebook.com/events/683070947546318/,-37.765454,144.9831564
MELLOWD√çAS THUMP,2025-04-30,00:00,Wax Music Lounge,"250 Flinders St, Melbourne VIC 3000, Australia",https://www.facebook.com/events/1124371722195700/,-37.8176298,144.9661635
"Julien Wilson's Open Thread @ Bar 303 /w Peggy Lee, Theo Carbo, Dylan van der Schyff",2025-04-30,20:00,Bar 303,"303 High St, Northcote VIC 3070, Australia",https://www.facebook.com/events/1601535297233262/,-37.7713296,144.99828116650363
PUB CHOIR,2025-04-30,19:00,Palais Theatre,"Lower Esplanade, St Kilda VIC 3182, Australia",https://www.facebook.com/events/2307236782990416/,-37.86708671,144.97599656199426
Misericordia: Advance Screening,2025-04-30,19:10,Cinema Nova,"380 Lygon St, Carlton VIC 3053, Australia",https://www.facebook.com/events/642971968364394/,-37.7978092,144.9680124
L-Acoustics Drive System Training - Melbourne,2025-04-30,09:00,Jands Melbourne,"Unit 11 21 Sabre Drive Port Melbourne, VIC 3207",https://www.eventbrite.com.au/e/l-acoustics-drive-system-training-melbourne-tickets-1108973352149?aff=ebdssbdestsearch,-37.826561,144.9069598
HSBC German Film Festival 2025,2025-04-30,16:00,Palace Cinemas,"1 Champ St, Coburg VIC 3058, Australia",https://www.facebook.com/events/1149007273209045/,-37.736826,144.968318
PROBOSCIS & SKEZM,2025-04-30,19:00,The Last Chance,"238 Victoria St, Melbourne VIC 3000, Australia",https://www.facebook.com/events/1100183135160788/,-37.8059962,144.9585654
Age of Sigmar - Casual battles at The Arena ,2025-04-30,00:00,The Gaming Arena,"123 Bakers Rd, Coburg North VIC 3058, Australia",https://www.facebook.com/events/1361807911861091/,-37.72715826,144.96115535488718
Open Thread,2025-04-30,00:00,Bar 303,"303 High St, Northcote VIC 3070, Australia",https://www.facebook.com/events/3891100891128164/,-37.7713296,144.99828116650363
OPEN MIC,2025-04-30,00:00,Mamma Chen's,"42A Albert St, Footscray VIC 3011, Australia",https://www.facebook.com/events/622431437290021/?event_time_id=622431453956686,-37.8047552,144.89727240000002
Open Mic & Jam @ BAR OUSSOU! ,2025-04-30,00:00,Bar Oussou,"653 Sydney Rd, Brunswick VIC 3056, Australia",https://www.facebook.com/events/530685326228412/,-37.7618155,144.9628753
Hump Day Variety Hour with The Deserters,2025-04-30,00:00,The Merri Creek Tavern,"111 High St, Northcote VIC 3070, Australia",https://www.facebook.com/events/553948270973306/?event_time_id=553948290973304,-37.7794356,144.996838
Company of Master Mariners - Branch Meeting,2025-04-30,18:00,Mail Exchange Hotel,"688 Bourke Street Melbourne, VIC 3000",https://www.eventbrite.com.au/e/company-of-master-mariners-branch-meeting-tickets-1311377668909?aff=ebdssbdestsearch,-37.8166592,144.9533496
Ai Tools to Market your Small Business,2025-04-30,18:00,iHarvest Coworking Sunshine,"301 Hampshire Road #Level 4 Sunshine, VIC 3020",https://www.eventbrite.com.au/e/ai-tools-to-market-your-small-business-tickets-1138982079059?aff=ebdssbdestsearch,-37.783111,144.8321327
IPS Core Training - Face to face,2025-04-30,09:00,"Self Help Addiction Resource Centre Inc, 140 Grange Rd","140 Grange Road Carnegie, VIC 3163",https://www.eventbrite.com.au/e/ips-core-training-face-to-face-tickets-1269962565219?aff=ebdssbdestsearch,-37.8918097,145.0459116
The Young Gun Path To AFL/AFLW For 12-16 Junior Athletes,2025-04-30,19:00,Foundry Athletic,"2/6 Wanrua Street #1 Cheltenham, VIC 3192",https://www.eventbrite.com.au/e/the-young-gun-path-to-aflaflw-for-12-16-junior-athletes-tickets-1301692119169?aff=ebdssbdestsearch,-37.9572174,145.0396141
Racial Dignity Framework Official Launch,2025-04-30,16:00,level 2/355 Spencer St,"355 Spencer Street #level 2 West Melbourne, VIC 3003",https://www.eventbrite.com/e/racial-dignity-framework-official-launch-tickets-1220443492339?aff=ebdssbdestsearch,-37.8119391,144.950558
The Carlton Draft,2025-04-30,18:00,The Sporting Globe Richmond,"288 Bridge Road Richmond, VIC 3121",https://www.eventbrite.com.au/e/the-carlton-draft-tickets-1300276936319?aff=ebdssbdestsearch,-37.8189228,145.0006112
Build Strong Confidence & Overcome Self-Doubt,2025-04-30,18:15,Inspire9 Richmond Level 1,"41 Stewart Street Melbourne, VIC 3121",https://www.eventbrite.com.au/e/build-strong-confidence-overcome-self-doubt-tickets-1300255742929?aff=ebdssbdestsearch,-37.8238703,144.9911864
The Beep Test,2025-04-30,11:30,Theatre Works,"Saint Leonards Avenue St Kilda, VIC 3182",https://www.eventbrite.com.au/e/the-beep-test-tickets-1104986126249?aff=ebdssbdestsearch,-37.8638328,144.9768976
Paint and Sip: Mystery Painting,2025-04-30,18:30,Ladder Art Space,"4/81 Denmark St Kew, VIC 3101",https://www.eventbrite.com.au/e/paint-and-sip-mystery-painting-tickets-1252624626979?aff=ebdssbdestsearch,-37.8089958,145.0285779
Wine & Friends - Autumn Edition,2025-04-30,19:00,House of Plants Bar,"366 Johnston Street Abbotsford, VIC 3067",https://www.eventbrite.com/e/wine-friends-autumn-edition-tickets-1318449260229?aff=ebdssbdestsearch,-37.8001149,144.9976091
Stay Gold Battle Of The Bands - Wildcard Heat,2025-04-30,18:30,Stay Gold,"133 Sydney Rd, Brunswick VIC 3056, Australia",https://www.facebook.com/events/9456163071118616/,-37.7743469,144.9607404
Trivia Night,2025-04-30,00:00,Inkerman Hotel,"375 Inkerman St, St Kilda East VIC 3183, Australia",https://www.facebook.com/events/2779506008881959/,-37.866444,144.99799715146656
HTRK,2025-04-30,12:00,Forum Melbourne,"150 Flinders St, Melbourne VIC 3000, Australia",https://premier.ticketek.com.au/shows/show.aspx?sh=HTRK25,-37.8166268,144.9695761
Chris de Burgh,2025-05-01,12:00,Hamer Hall,"100 St Kilda Rd, Southbank VIC 3004, Australia",https://premier.ticketek.com.au/shows/show.aspx?sh=CHRISDE25,-37.8201455,144.9679946
"Lunch & Learn: Mould, Maintenance, Minimum Standards & Safety",2025-05-01,10:00,Kew Golf Club,"120 Belford Road Kew East, VIC 3102",https://www.eventbrite.com.au/e/lunch-learn-mould-maintenance-minimum-standards-safety-tickets-1302754797669?aff=ebdssbdestsearch,-37.7887533,145.0488538
L-Acoustics M1/P1 Measurement and Tuning Training -Melbourne,2025-05-01,09:00,Jands Melbourne,"Unit 11 21 Sabre Drive Port Melbourne, VIC 3207",https://www.eventbrite.com.au/e/l-acoustics-m1p1-measurement-and-tuning-training-melbourne-tickets-1108975659049?aff=ebdssbdestsearch,-37.826561,144.9069598
LTSA International- Bowling competition,2025-05-01,18:00,Oz Tenpin Greensborough Lanes,"445 Grimshaw Street Bundoora, VIC 3083",https://www.eventbrite.com.au/e/ltsa-international-bowling-competition-tickets-1323274041279?aff=ebdssbdestsearch,-37.7023452,145.0714766
Speed Dating Meets Paint by Numbers | 28-39 yr | Nth Melb,2025-05-01,18:30,Twang Brewing,"21 Melrose Street North Melbourne, VIC 3051",https://www.eventbrite.com.au/e/speed-dating-meets-paint-by-numbers-28-39-yr-nth-melb-tickets-1290666300649?aff=ebdssbdestsearch,-37.7951293,144.9415481
StoryBrand Workshop - May 2025,2025-05-01,09:30,Mercure Melbourne Doncaster,"6 Tower Street Doncaster, VIC 3108",https://www.eventbrite.com.au/e/storybrand-workshop-may-2025-tickets-1262099516629?aff=ebdssbdestsearch,-37.786693,145.1280942
Depression as an invitation to wholeness,2025-05-01,06:30,Elie - 27 Royal Parade Parkville (Gestalt Centre Training Campus),"27 Royal Parade Parkville, VIC 3052",https://www.eventbrite.com.au/e/depression-as-an-invitation-to-wholeness-tickets-1103972865559?aff=ebdssbdestsearch,-37.7962081,144.9574069
Nightingale Umarkoo Wayi - Information Session 2,2025-05-01,06:30,Room 401 Balam Balam Place,"15 Phoenix Street Brunswick, VIC 3056",https://www.eventbrite.com/e/nightingale-umarkoo-wayi-information-session-2-tickets-1323162868759?aff=ebdssbdestsearch,-37.770604,144.9602923
Bollywood Dance Class,2025-05-01,19:00,La Encantada Collective,"69 Abbotsford Street West Melbourne, VIC 3003",https://www.eventbrite.com.au/e/bollywood-dance-class-tickets-1321980060949?aff=ebdssbdestsearch,-37.8064292,144.9443447
Australian Fatherhood Research Symposium 2025,2025-05-01,08:45,Deakin Downtown,"727 Collins Street Tower 2, Level 12 Melbourne, VIC 3008",https://www.eventbrite.com.au/e/australian-fatherhood-research-symposium-2025-tickets-1038639126587?aff=ebdssbdestsearch,-37.8206847,144.949995
"Melbourne, AUS - Small99's People, Planet, Pint‚Ñ¢: Sustainability Meetup",2025-05-01,18:00,Beer DeLuxe Fed Square,"Flinders Street Melbourne, VIC 3000",https://www.eventbrite.co.uk/e/melbourne-aus-small99s-people-planet-pinttm-sustainability-meetup-tickets-1209340753749?aff=ebdssbdestsearch,-37.8185815,144.9637799
Artful Aromas: A Creative Healing Workshop,2025-05-01,06:30,Into Coffee,"2A Robert Street Collingwood, VIC 3066",https://www.eventbrite.com.au/e/artful-aromas-a-creative-healing-workshop-tickets-1245478282069?aff=ebdssbdestsearch,-37.8056067,144.9866809
St Kilda Tales: A Performance Rave,2025-05-01,19:30,TW Explosives Factory,"67 Inkerman Street St Kilda, VIC 3182",https://www.eventbrite.com.au/e/st-kilda-tales-a-performance-rave-tickets-1110824198079?aff=ebdssbdestsearch,-37.8646651,144.9842743
20-35 YO | May 1st | Serves & Sparks:  A Pickleball Social for Singles,2025-05-01,18:00,PicklePlay Indoor Pickleball,"1 South Drive Bentleigh East, VIC 3165",https://www.eventbrite.com.au/e/20-35-yo-may-1st-serves-sparks-a-pickleball-social-for-singles-tickets-1313558050489?aff=ebdssbdestsearch,-37.9106715,145.0613664
Australian Nurses and Midwives Conference,2025-05-01,08:00,Melbourne Convention and Exhibition Centre,"1 Convention Centre Place South Wharf, VIC 3006",https://www.eventbrite.com/e/australian-nurses-and-midwives-conference-tickets-1059272224739?aff=ebdssbdestsearch,-37.82520299999999,144.952251
Pool Speed Dating,2025-05-01,19:00,Bar Eight,"445 Grimshaw Street #3 Bundoora, VIC 3083",https://www.eventbrite.com.au/e/pool-speed-dating-tickets-1326227876279?aff=ebdssbdestsearch,-37.7022666,145.0714416
Comedy night with Pete Rowsthorn,2025-05-01,19:30,The Notting Hill Hotel,"260 Ferntree Gully Rd Notting Hill, VIC 3168",https://www.eventbrite.com.au/e/comedy-night-with-pete-rowsthorn-tickets-1296402547919?aff=ebdssbdestsearch,-37.9000085,145.1296482
Life After I Left,2025-05-01,06:30,LOEV,"77 Keys Road Moorabbin, VIC 3189",https://www.eventbrite.com.au/e/life-after-i-left-tickets-1253924625309?aff=ebdssbdestsearch,-37.9484271,145.067727
Fresh Networking Doncaster - Guest Registration,2025-05-01,07:30,Salted Caramel Cafe,"6 Macedon Road Templestowe Lower, VIC 3107",https://www.eventbrite.com.au/e/fresh-networking-doncaster-guest-registration-tickets-803814529897?aff=ebdssbdestsearch,-37.7728879,145.1127533
SHE RISES SUMMIT: Leadership & The Future of Multicultural Women,2025-05-01,17:30,The Capitol,"113 Swanston Street Melbourne, VIC 3000",https://www.eventbrite.com.au/e/she-rises-summit-leadership-the-future-of-multicultural-women-tickets-1244588350259?aff=ebdssbdestsearch,-37.8150033,144.9659584
St Bede‚Äôs College Formal Afters,2025-05-01,23:30,"Bentleigh Greens Soccer Club ""Pagkyprios""","301-307 Centre Dandenong Road Cheltenham, VIC 3192",https://www.eventbrite.com/e/st-bedes-college-formal-afters-tickets-1315837398079?aff=ebdssbdestsearch,-37.9697138,145.0912556
Resilience Fundamentals @ Melbourne,2025-05-01,08:00,The Victoria Hotel,"215 Little Collins Street Melbourne, VIC 3000",https://www.eventbrite.com.au/e/resilience-fundamentals-melbourne-tickets-1081279027679?aff=ebdssbdestsearch,-37.8143634,144.9668522
The Money Tree ‚Äì B2B Selling Workshop - Live and in person,2025-05-01,09:00,Customs House Hotel Williamstown,"161 Nelson Place Williamstown, VIC 3016",https://www.eventbrite.com.au/e/the-money-tree-b2b-selling-workshop-live-and-in-person-tickets-1215700826899?aff=ebdssbdestsearch,-37.8632022,144.9039518
ABBY GOVINDAN - How To Embarrass Your Immigrant Parents - MELBOURNE,2025-05-01,19:00,The Comic's Lounge,"26 Errol Street #1 North Melbourne, VIC 3051",https://www.eventbrite.com.au/e/abby-govindan-how-to-embarrass-your-immigrant-parents-melbourne-tickets-1245568772729?aff=ebdssbdestsearch,-37.8045082,144.9495239
SHE RISES: Latina & Hispanic Leadership Summit,2025-05-01,17:30,The Capitol,"113 Swanston Street Melbourne, VIC 3000",https://www.eventbrite.com.au/e/she-rises-latina-hispanic-leadership-summit-tickets-1244588350259?aff=ebdssbdestsearch,-37.8149747,144.9658948
Networking Event (VIC) Leveraging Last Mile & Last Metre for UX Innovation,2025-05-01,18:00,The Mission to Seafarers Victoria,"717 Flinders Street Docklands, VIC 3005",https://www.eventbrite.com.au/e/networking-event-vic-leveraging-last-mile-last-metre-for-ux-innovation-tickets-1307541083579?aff=ebdssbdestsearch,-37.8225172,144.951249
Confessions Of A Party Princess,2025-05-01,19:00,The Butterfly Club,"5 Carson Place Melbourne, VIC 3000",https://www.eventbrite.co.uk/e/confessions-of-a-party-princess-tickets-1098278954919?aff=ebdssbdestsearch,-37.8154472,144.9652725
Ross Wilson and The Peaceniks,2025-05-01,00:00,Bird's Basement,"11 Singers Ln, Melbourne VIC 3000, Australia",https://www.facebook.com/events/8769180176496930/?event_time_id=8769180186496929,-37.81114416,144.95680390283175
"Dimensions of Incomprehensibilities: Douglas/Mercer, Prime, Fry/Liyanage",2025-05-01,20:00,The Merri Creek Tavern,"111 High St, Northcote VIC 3070, Australia",https://www.facebook.com/events/659171673533315/,-37.7794356,144.996838
ROBERT BAXTER - ‚ÄúSTARGIRL‚Äù LIVE ,2025-05-01,19:30,THE CURTIN (John Curtin hotel),"29 Lygon St, Carlton VIC 3053, Australia",https://www.facebook.com/events/9791602634236023/,-37.8061581,144.9657057
Fright Night Preview: CLOWN IN A CORNFIELD,2025-05-01,20:00,Palace Cinemas,"1 Champ St, Coburg VIC 3058, Australia",https://www.facebook.com/events/9790570914342264/,-37.736826,144.968318
The Scott Tinkler Standards Quartet,2025-05-01,19:30,Uptown Jazz Cafe,"1/177 Brunswick St, Fitzroy VIC 3065, Australia",https://www.facebook.com/events/1167607294626176/,-37.79705404,144.97869049756974
VAPORS OF MORPHINE - NORTHCOTE SOCIAL CLUB,2025-05-01,19:00,Northcote Social Club,"301 High St, Northcote VIC 3070, Australia",https://www.facebook.com/events/487907400841141/,-37.771471,144.998414
ChalaMAY: A month of Timoth√©e Chalamet,2025-05-01,18:40,Cinema Nova,"380 Lygon St, Carlton VIC 3053, Australia",https://www.facebook.com/events/2098060407334523/,-37.7978092,144.9680124
The ChalaMET GALA,2025-05-01,18:50,Cinema Nova,"380 Lygon St, Carlton VIC 3053, Australia",https://www.facebook.com/events/1237703868356476/,-37.7978092,144.9680124
Sculpting in Time: The Films of Andrei Tarkovsky,2025-05-01,00:00,Lido Cinemas,"675 Glenferrie Rd, Hawthorn VIC 3122, Australia",https://www.facebook.com/events/1246560979775077/?event_time_id=1246561003108408,-37.8205529,145.0355738
Marni Rose and the Thorns & Thursday Night Jam!,2025-05-01,00:00,Hume Blues Club Inc,"27 Ballantyne St, Thornbury VIC 3071, Australia",https://www.facebook.com/events/1753540975262677/,-37.7588241,144.9985126
Typeset with Fellview & Unto the Breach,2025-05-01,19:00,The Last Chance,"238 Victoria St, Melbourne VIC 3000, Australia",https://www.facebook.com/events/1626554918063508/,-37.8059962,144.9585654
"Ruth Moody Live in Brunswick, AU",2025-05-01,20:00,Brunswick Ballroom,"314 Sydney Rd, Brunswick VIC 3056, Australia",https://www.facebook.com/events/1584769312120194/,-37.7704205,144.9617083
Introduction to Working in Therapeutic Horticulture,2025-05-01,10:00,CERES Environment Park,"Stewart St & Roberts St East, Brunswick VIC 3056, Australia",https://www.facebook.com/events/702267295533999/,-37.765454,144.9831564
GANGRENE DREAM SINGLE LAUNCH AT THE WORKERS CLUB with DEAD BEAT and LITTLE THEATRE,2025-05-01,19:00,The Workers Club,"51 Brunswick St, Fitzroy VIC 3065, Australia",https://www.facebook.com/events/1504023360553681/,-37.8055776,144.9769450659087
"ALWAYS BASED - TONGUE DISSOLVER, VANESSA WORM, KAI CULT, NABII & SOFT P*RN",2025-05-01,19:00,Max Watts,"125 Swanston St, Melbourne VIC 3000, Australia",https://www.facebook.com/events/961622299366111/,-37.8147557,144.9659879
Essendon v North Melbourne,2025-05-01,19:30,Marvel Stadium,"740 Bourke St, Docklands VIC 3008, Australia",https://www.facebook.com/events/609291628535537/,-37.816529,144.94751697668812
Essendon v North Melbourne - AFL Reserve,2025-05-01,19:30,Marvel Stadium,"740 Bourke St, Docklands VIC 3008, Australia",https://www.facebook.com/events/1296047058114793/,-37.816529,144.94751697668812
WEEN White Pepper 25th Anniversary Celebration feat. WEENED & Guests!,2025-05-02,20:00,The Corner Hotel,"57 Swan St, Richmond VIC 3121",https://www.facebook.com/events/4721479541410046/,-37.82464307,144.9926962
"Tom West, Molly Mckew, Ryan Oliver ",2025-05-02,00:00,The Merri Creek Tavern,"111 High St, Northcote VIC 3070, Australia",https://www.facebook.com/events/2377255092634662/,-37.7794356,144.996838
Last Night,2025-05-02,19:00,The Night Cat,"137-141 Johnston St, Fitzroy VIC 3065, Australia",https://www.facebook.com/events/1339161760640892/,-37.7982971,144.978128
Elliott Smith - 25 Year Figure 8 Anniversary,2025-05-02,20:30,The Corner Hotel,"57 Swan St, Richmond VIC 3121",https://www.facebook.com/events/1716933595864186/,-37.82464307,144.9926962
Ripple Effect Band with Ajak Kwai,2025-05-02,20:00,Howler,"7-11 Dawson St, Brunswick VIC 3056, Australia",https://www.facebook.com/events/677421884872570/,-37.7720304,144.9596527
Wendy Matthews Live in Concert | MEMO Music Hall,2025-05-02,19:00,MEMO Music Hall,"88 Acland St, St Kilda VIC 3182, Australia",https://www.facebook.com/events/1707715990163662/,-37.8671902,144.9786817
Charlie Needs Braces NYAA WA Album Launch ,2025-05-02,19:00,Shotkickers,"744 High St, Thornbury VIC 3071, Australia",https://www.facebook.com/events/1201037857566077/,-37.75592655,145.0013923
Bebe's Bar - Covered Up (Super Friday),2025-05-02,00:00,Musicland Melbourne,"1359 Sydney Rd, Fawkner VIC 3060, Australia",https://www.facebook.com/events/1289654125663282/,-37.6916774,144.9585701581541
SUPER FRIDAY - Frequency Feat. Simon Croft,2025-05-02,00:00,Musicland Melbourne,"1359 Sydney Rd, Fawkner VIC 3060, Australia",https://www.facebook.com/events/1193775175659010/,-37.6916774,144.9585701581541
St Kilda v Fremantle,2025-05-02,19:40,Marvel Stadium,"740 Bourke St, Docklands VIC 3008, Australia",https://www.facebook.com/events/1308608213620665/,-37.816529,144.94751697668812
Rising Rhymes,2025-05-02,21:00,Laundry Bar,"50 Johnston St, Fitzroy VIC 3065, Australia",https://www.facebook.com/events/1042421337778747/,-37.7983139,144.9764962
The Stephen Magnusson Trio,2025-05-02,00:00,Uptown Jazz Cafe,"1/177 Brunswick St, Fitzroy VIC 3065, Australia",https://www.facebook.com/events/678201241242376/,-37.79705404,144.97869049756974
Luke Howard x Simon Burgin,2025-05-02,19:30,Melbourne Recital Centre,"31 Sturt St, Southbank VIC 3006, Australia",https://www.facebook.com/events/658989923207668/,-37.82408485,144.96758763141432
"(Fri, May 2) NEEQ (Album Release Show) + Special Guests",2025-05-02,00:00,George Lane St Kilda,"1 George Ln, St Kilda VIC 3182, Australia",https://www.facebook.com/events/1397422885037646/,-37.85997305,144.9780306
Australian Eagles Show & Money For Nothin: Dire Straits Experience - Palms At Crown Melbourne,2025-05-02,19:30,Palladium at Crown,"Level 1 Crown Towers, Crown Melbourne, 8 Whiteman St, Southbank VIC 3006, Australia",https://www.facebook.com/events/552888104034073/,-37.822181,144.959875
ùêçùêÑùêñ ùêíùêáùêéùêñ |  The End Of‚Ä¶ Behind Crimson Eyes | Farewell Tour | Melbourne,2025-05-02,19:00,Stay Gold,"133 Sydney Rd, Brunswick VIC 3056, Australia",https://www.facebook.com/events/560509233690037/,-37.7743469,144.9607404
Treebeard - EUROPE SEND OFF SHOW w/ Saleeha & Lily Of The Valley,2025-05-02,20:00,The Old Bar,"74-76 Johnston St, Fitzroy VIC 3065, Australia",https://www.facebook.com/events/628004786763597/,-37.79833,144.97711
"Dumbells Album Release Show w/ The Blinds, Possible Humans and Silicone Prairie",2025-05-02,00:00,THE CURTIN (John Curtin hotel),"29 Lygon St, Carlton VIC 3053, Australia",https://www.facebook.com/events/1166991768220917/,-37.8061581,144.9657057
St Kilda v Fremantle - AFL Reserve,2025-05-02,19:40,Marvel Stadium,"740 Bourke St, Docklands VIC 3008, Australia",https://www.facebook.com/events/1694816274757141/,-37.816529,144.94751697668812
Groove Dimension 70s funk - RnB - disco - soul,2025-05-02,20:00,Lucky 13 Garage,"8 Cochranes Rd, Moorabbin VIC 3189, Australia",https://www.facebook.com/events/598945963118540/,-37.94349189,145.07036236060654
Flight To Dubai (NSW) Live & On Tour with Licklash & The Antics,2025-05-02,20:00,The Last Chance,"238 Victoria St, Melbourne VIC 3000, Australia",https://www.facebook.com/events/4049573465287742/,-37.8059962,144.9585654
TIC'd OFF Abduction: ALIENIST // THE CITY // WHERE THE DEVIL // OCD,2025-05-02,20:00,The Workers Club,"51 Brunswick St, Fitzroy VIC 3065, Australia",https://www.facebook.com/events/1746559245893821/,-37.8055776,144.9769450659087
Unai Trotti (UK) ‚Äî Spin Cycle & Revolver Fridays,2025-05-02,00:00,Revolver Upstairs,"Level 2/229 Chapel St, Prahran VIC 3181, Australia",https://www.facebook.com/events/683104534405144/,-37.8505902,144.9933469
Miss George - The Songbook of Eva Cassidy,2025-05-02,18:30,Paris Cat Jazz Club,"6 Goldie Pl, Melbourne VIC 3000, Australia",https://www.facebook.com/events/1882610245906486/,-37.8133262,144.96060714767358
BNI Success Alliance - Glen Waverley Networking,2025-05-02,10:15,ibis Melbourne Glen Waverley,"297 Springvale Road Glen Waverley, VIC 3150",https://www.eventbrite.com.au/e/bni-success-alliance-glen-waverley-networking-tickets-1137269566889?aff=ebdssbdestsearch,-37.8830226,145.1642179
The Music of JAMES BOND - Performed by Johnny Fuego & The Heat (ft. Loretta Miller),2025-05-02,18:30,Brunswick Ballroom,"314 Sydney Rd, Brunswick VIC 3056, Australia",https://www.facebook.com/events/1329389018063286/,-37.7704205,144.9617083
How To: Shakespeare 'The Seminar',2025-05-02,19:00,16th Street Actors Studio,"715 Glen Huntly Road Caulfield, VIC 3162",https://www.eventbrite.com.au/e/how-to-shakespeare-the-seminar-tickets-1290713381469?aff=ebdssbdestsearch,-37.8863709,145.0197583
The New Monos X The Pirateska Rebellion at Bar 303 ,2025-05-02,20:30,Bar 303,"303 High St, Northcote VIC 3070, Australia",https://www.facebook.com/events/983108447337405/,-37.7713296,144.99828116650363
AFROBEATS VS DANCEHALL: COLLUSION OF TWO WORLDS,2025-05-02,23:00,REVEL NIGHTCLUB MELBOURNE,"52 Albert Road South Melbourne, VIC 3205",https://www.eventbrite.com.au/e/afrobeats-vs-dancehall-collusion-of-two-worlds-tickets-1320705799599?aff=ebdssbdestsearch,-37.8341181,144.97095
Monash Event ‚ÄúLearn the Power of Branding ‚Äì Much More Than Just a Logo‚Äù,2025-05-02,10:00,Soulful Home Cafe,"12 The Highway #Shop G01 Mount Waverley, VIC 3149",https://www.eventbrite.com.au/e/monash-event-learn-the-power-of-branding-much-more-than-just-a-logo-tickets-1311402282529?aff=ebdssbdestsearch,-37.8777942,145.1294782
BNI Business By The Beach  Weekly Networking,2025-05-02,06:45,Royal Brighton Yacht Club,"253 Esplanade Middle Brighton, VIC 3186",https://www.eventbrite.com.au/e/bni-business-by-the-beach-weekly-networking-tickets-884664684887?aff=ebdssbdestsearch,-37.9171926,144.9870773
TinaCon - brought to you by TinaCMS,2025-05-02,08:30,SSW Melbourne,"Level 1/370 Little Bourke St MELBOURNE, VIC 3000",https://www.eventbrite.com.au/e/tinacon-brought-to-you-by-tinacms-tickets-1292114662739?aff=ebdssbdestsearch,-37.8132971,144.9615923
The Tipplers at The Lomond Hotel.,2025-05-02,21:00,The Lomond Hotel,"225 Nicholson Street Brunswick East, VIC 3057",https://www.eventbrite.com.au/e/the-tipplers-at-the-lomond-hotel-tickets-1312777124719?aff=ebdssbdestsearch,-37.7670861,144.9800057
Jacobs Well Trivia Night 2025,2025-05-02,19:00,Melbourne Bowling Club,"138 Union Street Windsor, VIC 3181",https://www.eventbrite.com.au/e/jacobs-well-trivia-night-2025-tickets-1303819452079?aff=ebdssbdestsearch,-37.8546958,144.9915895
Paint in the Dark¬© 18+ UV Light Disco Party,2025-05-02,19:00,Paint for Fun,"252 Graham Street #Unit 1 Port Melbourne, VIC 3207",https://www.eventbrite.com.au/e/paint-in-the-dark-18-uv-light-disco-party-tickets-1254017483049?aff=ebdssbdestsearch,-37.8386895,144.9385483
"Renee Naccari Presents: FANTASY ‚Äì A Night of Music, Art & Obsession",2025-05-02,19:30,That Creative Hub,"68 Garden Drive #Unit 7/62 Tullamarine, VIC 3043",https://www.eventbrite.com.au/e/renee-naccari-presents-fantasy-a-night-of-music-art-obsession-tickets-1318219964399?aff=ebdssbdestsearch,-37.6875846,144.875279
