Event_Title,Date,Time,Venue,Address,url,Latitude,Longitude,Category
‚ÄòFront Bar Sessions‚Äô with Nikodimos,2025-06-22,15:00,The Corner Hotel,"57 Swan St, Richmond VIC 3121",https://www.facebook.com/events/1333483211092243/,-37.82464307,144.9926962,Music
Sunday Singles - Love and Friendship,2025-06-22,15:00,Bad Shepherd Brewing Co.,"386 Reserve Road Cheltenham, VIC 3192",https://www.eventbrite.com.au/e/sunday-singles-love-and-friendship-tickets-1351150891689?aff=ebdssbdestsearch,-37.95669150000001,145.0390577,Social/Dating
A Taste of Spain - Cooking Class,2025-06-22,12:00,La Fabrica Studio Hire,"91 Moreland Street #43 Footscray, VIC 3011",https://www.eventbrite.com.au/e/a-taste-of-spain-cooking-class-tickets-1305730437889?aff=ebdssbdestsearch,-37.8080581,144.9045975,Talks/Workshops
È¢úÊÄ°È¢úÊÇ¶‚ÄúÊñ∞ÂûãÂÖ≥Á≥ª2.0‚Äù -  Â¢®Â∞îÊú¨Á´ô,2025-06-22,19:30,È¶ñÈÉΩÂäáÈô¢,"113 Swanston Street Melbourne, VIC 3000",https://www.eventbrite.com/e/20--tickets-1333019560389?aff=ebdssbdestsearch,-37.8150033,144.9659584,Unknown
Electrify Southside Expo,2025-06-22,10:00,St Kilda Town Hall,"99A Carlisle Street St Kilda, VIC 3182",https://www.eventbrite.com/e/electrify-southside-expo-tickets-1281830422299?aff=ebdssbdestsearch,-37.8682841,144.9887178,Talks/Workshops
Paint & Sip for Beginners - Abstract Art,2025-06-22,12:30,Studio Inqu,"Shop 3/140 Cotham Road Kew, VIC 3101",https://www.eventbrite.com.au/e/paint-sip-for-beginners-abstract-art-tickets-1320567726619?aff=ebdssbdestsearch,-37.8079326,145.0391615,Art
Positive Birth Program Day 2 of 2.,2025-06-22,10:00,The Midwives House,"678 High Street Thornbury, VIC 3071",https://www.eventbrite.com/e/positive-birth-program-day-2-of-2-tickets-1312752170079?aff=ebdssbdestsearch,-37.7589291,145.0008132,Talks/Workshops
Still Life Club,2025-06-22,13:20,Runner Up Rooftop Bar,"35 Johnston Street #Level 2 Collingwood, VIC 3066",https://www.eventbrite.com.au/e/still-life-club-tickets-1295500650319?aff=ebdssbdestsearch,-37.7992906,144.9861257,Art
Breathwork and The Stress Response,2025-06-22,10:00,60 Hawthorn Rd,"60 Hawthorn Road Caulfield North, VIC 3161",https://www.eventbrite.com.au/e/breathwork-and-the-stress-response-tickets-1304884828649?aff=ebdssbdestsearch,-37.8696838,145.02506,Talks/Workshops
Bloom Seddon Melbourne -  Feminine Self Love Experience with Taryn Darlow,2025-06-22,11:00,77 Charles St,"77 Charles Street Seddon, VIC 3011",https://www.eventbrite.com.au/e/bloom-seddon-melbourne-feminine-self-love-experience-with-taryn-darlow-tickets-880700176937?aff=ebdssbdestsearch,-37.8068439,144.8917066,Talks/Workshops
"Learn stand-up comedy in Melbourne this June, 2025 with Jimeoin",2025-06-22,18:30,Limerick Arms Hotel,"364 Clarendon Street South Melbourne, VIC 3205",https://www.eventbrite.com.au/e/learn-stand-up-comedy-in-melbourne-this-june-2025-with-jimeoin-tickets-1023149576927?aff=ebdssbdestsearch,-37.8354562,144.9614044,Comedy
Ross Wilson & The Peaceniks '50 Years Of Hits Tour' - Burnie TAS,2025-06-22,16:00,The Flying Saucer Club,"979-985 Nepean Hwy, Moorabbin VIC 3189, Australia",https://www.facebook.com/events/1115832123541700/,-37.9369432,145.0373674,Music
Anthony Locascio LIVE! | Melbourne,2025-06-22,19:00,Howler,"7-11 Dawson St, Brunswick VIC 3056, Australia",https://www.facebook.com/events/1042739044494940/,-37.7720304,144.9596527,Comedy
Western Bulldogs v Richmond,2025-06-22,15:20,Marvel Stadium,"740 Bourke St, Docklands VIC 3008, Australia",https://www.facebook.com/events/9250540531706922/,-37.816529,144.94751697668812,Sport
MICK PEALING & NICK CHARLES,2025-06-22,00:00,Oakleigh Carnegie RSL,"95/97 Drummond St, Oakleigh VIC 3166, Australia",https://www.facebook.com/events/670058959527383/,-37.8968576,145.08963741959553,Music
TWIGGS (Allman Brothers Band Tribute) w/ Geoff Achison & The Souldiggers | MEMO Music Hall,2025-06-22,15:00,MEMO Music Hall,"88 Acland St, St Kilda VIC 3182, Australia",https://www.facebook.com/events/9571543982958474/,-37.8671902,144.9786817,Music
DAMON SMITH BAND,2025-06-22,14:00,Way Out West Roots Music Club,"4 Market St, Newport VIC 3015, Australia",https://www.facebook.com/events/632954569603783/,-37.8439028,144.8823845,Music
Western Bulldogs v Richmond - AFL Reserve,2025-06-22,15:20,Marvel Stadium,"740 Bourke St, Docklands VIC 3008, Australia",https://www.facebook.com/events/631494092751539/,-37.816529,144.94751697668812,Sport
YOURS TRULY // Melbourne // Toxic Australia 2025 // with Senses (USA) // Max Watts 18+,2025-06-22,18:30,Max Watts,"125 Swanston St, Melbourne VIC 3000, Australia",https://www.facebook.com/events/1855965765178644/,-37.8147557,144.9659879,Music
"‚ÄòSocial Sanctuary‚Äô with Meraki Minds, Isobel Caldwell + Sunny Morris",2025-06-23,19:00,Northcote Social Club,"301 High St, Northcote VIC 3070, Australia",https://www.facebook.com/events/1248230900018293/,-37.771471,144.998414,Music
Seasonal Trends Workshop - Melbourne,2025-06-23,10:00,365 Salon Group Education Studio,"1/610 Lorimer Street Port Melbourne, VIC 3207",https://www.eventbrite.com.au/e/seasonal-trends-workshop-melbourne-tickets-1117117070229?aff=ebdssbdestsearch,-37.821402,144.9176626,Talks/Workshops
"PURE - Fast Foils Refreshed Workshop  - Melbourne, VIC",2025-06-23,10:00,Ae&M Salon,"21-27 Brunswick Road Shop 4 Brunswick, VIC 3057",https://www.eventbrite.com.au/e/pure-fast-foils-refreshed-workshop-melbourne-vic-tickets-1250776519239?aff=ebdssbdestsearch,-37.7787636,144.9766404,Talks/Workshops
Supporting parents and carers with baby and toddler Sleep and Settling,2025-06-23,09:30,49-71 Adelaide St,"49-71 Adelaide Street Footscray, VIC 3011",https://www.eventbrite.com.au/e/supporting-parents-and-carers-with-baby-and-toddler-sleep-and-settling-tickets-1201810841579?aff=ebdssbdestsearch,-37.7974259,144.8872627,Talks/Workshops
Dulux Avista Essentials 01. Training Course - VIC,2025-06-23,08:30,1956 Dandenong Rd,"1956 Dandenong Road Clayton, VIC 3168",https://www.eventbrite.com.au/e/dulux-avista-essentials-01-training-course-vic-tickets-1323271975099?aff=ebdssbdestsearch,-37.9243068,145.141502,Talks/Workshops
"CISA Exam Prep In-Person Course in Melbourne, VIC",2025-06-24,19:00,"Levels 31 & 50/120 Collins St, Melbourne, VIC, 3000, Australia","Levels 31 & 50/120 Collins St Melbourne, VIC 3000",https://www.eventbrite.com/e/cisa-exam-prep-in-person-course-in-melbourne-vic-tickets-1344984126729?aff=ebdssbdestsearch,-37.8144291,144.9696066,Business/Networking
"4 Day Project Management  In-Person Training In Rockford, IL",2025-06-24,23:00,220 Spencer St,"220 Spencer Street Melbourne, VIC 3000",https://www.eventbrite.com/e/4-day-project-management-in-person-training-in-rockford-il-tickets-959877277777?aff=ebdssbdestsearch,-37.8153932,144.9529478,Talks/Workshops
Anime and manga digital and traditional illustrating club,2025-06-24,11:30,City Library,"253 Flinders Lane Melbourne, VIC 3000",https://www.eventbrite.com.au/e/anime-and-manga-digital-and-traditional-illustrating-club-tickets-1108971346149?aff=ebdssbdestsearch,-37.8171117,144.9660625,Art
CAPM Confirmed In-person Training in Melbourne,2025-06-24,09:00,120 Collins St,"120 Collins Street Levels 31 & 50/120 Collins St Melbourne, VIC 3000",https://www.eventbrite.com/e/capm-confirmed-in-person-training-in-melbourne-tickets-1130748281549?aff=ebdssbdestsearch,-37.8138656,144.9695281,Talks/Workshops
"PMP Exam Prep In-Person Course in Melbourne, VIC",2025-06-24,19:00,"Levels 31 & 50/120 Collins St, Melbourne, VIC, 3000, Australia","Levels 31 & 50/120 Collins St Melbourne, VIC 3000",https://www.eventbrite.com/e/pmp-exam-prep-in-person-course-in-melbourne-vic-tickets-1333379527059?aff=ebdssbdestsearch,-37.8144291,144.9696066,Talks/Workshops
In-Person LSSGB Exam Prep Course in Melbourne,2025-06-24,19:00,"Levels 31 & 50/120 Collins St, Melbourne, VIC, 3000, Australia","Levels 31 & 50/120 Collins St Melbourne, VIC 3000",https://www.eventbrite.com/e/in-person-lssgb-exam-prep-course-in-melbourne-tickets-1331098835449?aff=ebdssbdestsearch,-37.8144291,144.9696066,Business/Networking
In-Person Dual Lean Six Sigma Green and Black Belt Training in Melbourne,2025-06-24,19:00,"Levels 31 & 50/120 Collins St, Melbourne, VIC, 3000, Australia","Levels 31 & 50/120 Collins St Melbourne, VIC 3000",https://www.eventbrite.com/e/in-person-dual-lean-six-sigma-green-and-black-belt-training-in-melbourne-tickets-1324194404109?aff=ebdssbdestsearch,-37.8144291,144.9696066,Talks/Workshops
Small Group Breathwork Journey,2025-06-24,19:00,Merkaba Studio,"15 Mills Street Cheltenham, VIC 3192",https://www.eventbrite.com.au/e/small-group-breathwork-journey-tickets-1326156302199?aff=ebdssbdestsearch,-37.9560125,145.0740554,Talks/Workshops
Collaborate & Connect: Melbourne!,2025-06-24,09:30,Yarraville,"TBC Yarraville, VIC 3013",https://www.eventbrite.com.au/e/collaborate-connect-melbourne-tickets-1270067248329?aff=ebdssbdestsearch,-37.819811,144.8813738,Business/Networking
Melbourne Lean Six Sigma Black Belt Certification,2025-06-24,09:00,120 Collins St,"120 Collins Street Levels 31 & 50/120 Collins St Melbourne, VIC 3000",https://www.eventbrite.com/e/melbourne-lean-six-sigma-black-belt-certification-tickets-1259144939409?aff=ebdssbdestsearch,-37.8138656,144.9695281,Talks/Workshops
Six Sigma Green Belt In-Person Training in Melbourne,2025-06-24,09:00,120 Collins St,"120 Collins Street Levels 31 & 50/120 Collins St Melbourne, VIC 3000",https://www.eventbrite.com/e/six-sigma-green-belt-in-person-training-in-melbourne-tickets-1256552023929?aff=ebdssbdestsearch,-37.8138656,144.9695281,Business/Networking
"CISSP Melbourne, VIC In-person Class",2025-06-24,09:00,120 Collins St,"120 Collins Street Levels 31 & 50/120 Collins St Melbourne, VIC 3000",https://www.eventbrite.com/e/cissp-melbourne-vic-in-person-class-tickets-1231628527079?aff=ebdssbdestsearch,-37.8138656,144.9695281,Talks/Workshops
The Art of Storytelling for Industry and Creativity,2025-06-24,09:00,Australian City Design College,"343 Little Collins Street #802 Melbourne, VIC 3000",https://www.eventbrite.com/e/the-art-of-storytelling-for-industry-and-creativity-tickets-1008882383367?aff=ebdssbdestsearch,-37.8154538,144.9634298,Talks/Workshops
"CISA Melbourne, VIC In-person Class",2025-06-24,09:00,120 Collins St,"120 Collins Street Levels 31 & 50/120 Collins St Melbourne, VIC 3000",https://www.eventbrite.com/e/cisa-melbourne-vic-in-person-class-tickets-1236345415419?aff=ebdssbdestsearch,-37.8138656,144.9695281,Talks/Workshops
In-Person CAPM Exam Prep Course in Melbourne,2025-06-24,19:00,"Levels 31 & 50/120 Collins St, Melbourne, VIC, 3000, Australia","Levels 31 & 50/120 Collins St Melbourne, VIC 3000",https://www.eventbrite.com/e/in-person-capm-exam-prep-course-in-melbourne-tickets-1320525149269?aff=ebdssbdestsearch,-37.8144291,144.9696066,Talks/Workshops
Masterclass in Postural Support: Complex Seating & Lying (MEL),2025-06-24,09:00,Hyatt Place Melbourne Essendon Fields,"1 English Street Essendon Fields, VIC 3041",https://www.eventbrite.co.nz/e/masterclass-in-postural-support-complex-seating-lying-mel-tickets-1232048292609?aff=ebdssbdestsearch,-37.7247979,144.8928317,Talks/Workshops
"CISSP Training Melbourne, VIC In-Person Class",2025-06-24,09:00,120 Collins St,"120 Collins Street Levels 31 & 50/120 Collins St Melbourne, VIC 3000",https://www.eventbrite.com/e/cissp-training-melbourne-vic-in-person-class-tickets-1220624273059?aff=ebdssbdestsearch,-37.8138656,144.9695281,Talks/Workshops
In-Person LSSBB Exam Prep Course in Melbourne,2025-06-24,19:00,"Levels 31 & 50/120 Collins St, Melbourne, VIC, 3000, Australia","Levels 31 & 50/120 Collins St Melbourne, VIC 3000",https://www.eventbrite.com/e/in-person-lssbb-exam-prep-course-in-melbourne-tickets-1330379935199?aff=ebdssbdestsearch,-37.8144291,144.9696066,Talks/Workshops
ClimateTech & AgTech Pitch Night,2025-06-24,18:00,The Commons Gipps St,"38 Gipps St Collingwood, VIC 3066",https://www.eventbrite.com.au/e/climatetech-agtech-pitch-night-tickets-1088682250919?aff=ebdssbdestsearch,-37.8041282,144.9882914,Business/Networking
"CAPM Melbourne, VIC In-person Class",2025-06-24,09:00,120 Collins St,"120 Collins Street Levels 31 & 50/120 Collins St Melbourne, VIC 3000",https://www.eventbrite.com/e/capm-melbourne-vic-in-person-class-tickets-1232681386209?aff=ebdssbdestsearch,-37.8138656,144.9695281,Talks/Workshops
"Melbourne, VIC PMP Certification Training by Certification Planner",2025-06-24,09:00,120 Collins St,"120 Collins Street Levels 31 & 50/120 Collins St Melbourne, VIC 3000",https://www.eventbrite.com/e/melbourne-vic-pmp-certification-training-by-certification-planner-tickets-1237093462849?aff=ebdssbdestsearch,-37.8138656,144.9695281,Talks/Workshops
"Melbourne, VIC Lean Six Sigma Green and Black Belt Conference By CP",2025-06-24,09:00,120 Collins St,"120 Collins Street Levels 31 & 50/120 Collins St Melbourne, VIC 3000",https://www.eventbrite.com/e/melbourne-vic-lean-six-sigma-green-and-black-belt-conference-by-cp-tickets-1254108184339?aff=ebdssbdestsearch,-37.8138656,144.9695281,Talks/Workshops
LUX VIP MELB : Co-Working Day at the Terminus Hotel,2025-06-24,09:00,Terminus Hotel Fitzroy North,"492 Queens Parade Fitzroy North, VIC 3068",https://www.eventbrite.com.au/e/lux-vip-melb-co-working-day-at-the-terminus-hotel-tickets-1295280702449?aff=ebdssbdestsearch,-37.7853246,144.994443,Business/Networking
Lauren Roberts: Fearless,2025-06-25,00:00,The Wheeler Centre,"176 Little Lonsdale St, Melbourne VIC 3000, Australia",https://www.facebook.com/events/576509455477296/,-37.8101765,144.9652219,Other
Nobuntu,2025-06-25,19:30,Melbourne Recital Centre,"31 Sturt St, Southbank VIC 3006, Australia",https://www.facebook.com/events/8941433602577823/,-37.82408485,144.96758763141432,Other
DBSC - Legends Deck Battle - Gameology CLAYTON SOUTH - 25/06/2025,2025-06-25,06:30,Gameology,"12 Eileen Road Clayton South, VIC 3169",https://www.eventbrite.com.au/e/dbsc-legends-deck-battle-gameology-clayton-south-25062025-tickets-1343419386549?aff=ebdssbdestsearch,-37.9512104,145.1347381,Games
Non Profit Project Management Training - Melbourne - June 2025,2025-06-25,10:00,Melbourne,"Online Melbourne, VIC 3000",https://www.eventbrite.com.au/e/non-profit-project-management-training-melbourne-june-2025-registration-1307737832059?aff=ebdssbdestsearch,-37.8152065,144.963937,Talks/Workshops
"DAVINES - Freehand with Confidence Theory Workshop - Melbourne, VIC",2025-06-25,10:00,shibui,"139 Toorak Road South Yarra, VIC 3141",https://www.eventbrite.com.au/e/davines-freehand-with-confidence-theory-workshop-melbourne-vic-tickets-1253814967319?aff=ebdssbdestsearch,-37.8386846,144.991012,Talks/Workshops
Creative Movement,2025-06-25,12:30,Bundoora Homestead Art Centre,"7 Prospect Hill Drive Bundoora, VIC 3083",https://www.eventbrite.com.au/e/creative-movement-tickets-1263613234199?aff=ebdssbdestsearch,-37.7051404,145.0499516,Talks/Workshops
Generation Women Melbourne: Love is Love- The Pride Show,2025-06-25,00:00,Howler,"7-11 Dawson St, Brunswick VIC 3056, Australia",https://www.facebook.com/events/700973682542756/,-37.7720304,144.9596527,Theatre
ENDS IN TRAGEDY & VENT (DEBUT SHOW),2025-06-25,19:00,The Last Chance,"238 Victoria St, Melbourne VIC 3000, Australia",https://www.facebook.com/events/1173185034559078/,-37.8059962,144.9585654,Music
Blowing up Negative Self Talk with TNT,2025-06-25,06:30,TreeHaus Williamstown Lucia Room,"95 Ferguson Street Williamstown, VIC 3016",https://www.eventbrite.com.au/e/blowing-up-negative-self-talk-with-tnt-tickets-1344982852919?aff=ebdssbdestsearch,-37.859053,144.896702,Talks/Workshops
"PURE - Principles of Balayage Look & Learn - Melbourne, VIC",2025-06-25,13:30,shibui,"139 Toorak Road South Yarra, VIC 3141",https://www.eventbrite.com.au/e/pure-principles-of-balayage-look-learn-melbourne-vic-tickets-1253822259129?aff=ebdssbdestsearch,-37.8386846,144.991012,Talks/Workshops
All is Good in the Glow of Moonlight,2025-06-25,19:30,TW Explosives Factory,"67 Inkerman Street St Kilda, VIC 3182",https://www.eventbrite.com.au/e/all-is-good-in-the-glow-of-moonlight-tickets-1110971177699?aff=ebdssbdestsearch,-37.8646651,144.9842743,Theatre
Paint and Sip: Mystery Painting,2025-06-25,18:30,Ladder Art Space,"4/81 Denmark St Kew, VIC 3101",https://www.eventbrite.com.au/e/paint-and-sip-mystery-painting-tickets-1252624626979?aff=ebdssbdestsearch,-37.8089958,145.0285779,Art
Serious Women's Business EOFY Celebration,2025-06-26,18:00,Co-conspirators Brewpub,"377 Victoria Street Brunswick, VIC 3056",https://www.eventbrite.com.au/e/serious-womens-business-eofy-celebration-tickets-1341678298909?aff=ebdssbdestsearch,-37.7663084,144.9569078,Business/Networking
"The Pearlies, Live @ The Last Chance Ft. Elo and the Shinkicks & Mt Pleasant",2025-06-26,19:30,The Last Chance,"238 Victoria St, Melbourne VIC 3000, Australia",https://www.facebook.com/events/1708485763885454/,-37.8059962,144.9585654,Music
Matt Dwyer & Thursday Night Jam!,2025-06-26,00:00,Hume Blues Club Inc,"27 Ballantyne St, Thornbury VIC 3071, Australia",https://www.facebook.com/events/988454380111800/,-37.7588241,144.9985126,Music
Beyond Basic Airway Management,2025-06-26,09:00,RMH Simulation Centre,"Grattan Street Grattan Street Parkville, VIC 3050",https://www.eventbrite.com.au/e/beyond-basic-airway-management-tickets-1061845421239?aff=ebdssbdestsearch,-37.8002748,144.9624282,Talks/Workshops
"Kutcha, Cash and The Last Drinks",2025-06-26,12:00,Forum Melbourne,"150 Flinders St, Melbourne VIC 3000, Australia",https://premier.ticketek.com.au/shows/show.aspx?sh=UNCLEKUT25,-37.8166268,144.9695761,
Nature Loving Leaders - Network in the Gardens,2025-06-26,07:00,"Royal Botanical Gardens, Melbourne","Meet at Park Pantry cafe 119 Park Street South Yarra, VIC 3141",https://www.eventbrite.com.au/e/nature-loving-leaders-network-in-the-gardens-tickets-1089239357239?aff=ebdssbdestsearch,-37.8344267,144.9823078,Business/Networking
END OF EXAMS BLOCK PARTY - Melb + Monash + Deakin + RMIT + ACU + LaTrobe,2025-06-26,21:00,Brown Alley,"585 Lonsdale St Melbourne, VIC 3000",https://www.eventbrite.com.au/e/end-of-exams-block-party-melb-monash-deakin-rmit-acu-latrobe-tickets-1343902130449?aff=ebdssbdestsearch,-37.8145646,144.9551429,Music
Melbourne International Comedy Festival Roadshow,2025-06-26,19:30,Melbourne International Comedy Festival,Melbourne,https://www.facebook.com/events/1463613691408869/,-37.8136,144.9631,Comedy
Mighty Morphin Power Rangers the Movie - 30th Anniversary Screening 4K,2025-06-27,06:45,Classic Cinemas,"9 Gordon Street Elsternwick, VIC 3185",https://www.eventbrite.com/e/mighty-morphin-power-rangers-the-movie-30th-anniversary-screening-4k-tickets-1323527108209?aff=ebdssbdestsearch,-37.8839277,145.0008158,Cinema
Creating Psychological Safety in the Workplace -  Breakfast Bite 2025,2025-06-27,09:30,Melbourne,"Melbourne Melbourne, VIC 3000",https://www.eventbrite.com.au/e/creating-psychological-safety-in-the-workplace-breakfast-bite-2025-tickets-1082755192929?aff=ebdssbdestsearch,-37.8152065,144.963937,Talks/Workshops
MANIFEST - Launch Party,2025-06-27,22:00,Chasers Nightclub,"386 Chapel Street South Yarra, VIC 3141",https://www.eventbrite.com.au/e/manifest-launch-party-tickets-1341428230949?aff=ebdssbdestsearch,-37.8459028,144.9947039,Music
Flower Extract ‚ÄúTrying‚Äù single launch,2025-06-27,19:30,280 Sydney Rd,"280 Sydney Road Brunswick, VIC 3056",https://www.eventbrite.com.au/e/flower-extract-trying-single-launch-tickets-1354352407509?aff=ebdssbdestsearch,-37.7711488,144.9616353,Music
TERRESTRIAL AWAKENING ECLECTIC TRIBE TAKEOVER,2025-06-27,21:00,my aeon,"791 Sydney Road Brunswick, VIC 3056",https://www.eventbrite.com/e/terrestrial-awakening-eclectic-tribe-takeover-tickets-1329713722539?aff=ebdssbdestsearch,-37.7581868,144.9633301,Unknown
"CVFFD Elysium: Melbourne Singles Mixer (20s, 30s, and 40s)",2025-06-27,19:00,Melbourne,"TBD Melbourne, VIC VIC 3000",https://www.eventbrite.com/e/cvffd-elysium-melbourne-singles-mixer-20s-30s-and-40s-tickets-1341684667959?aff=ebdssbdestsearch,-37.8152065,144.963937,Social/Dating
The Australian Bon Jovi Show-Bon Jovi Forever,2025-06-27,20:30,Olympic Hotel,"31 Albert Street Preston, VIC 3072",https://www.eventbrite.com.au/e/the-australian-bon-jovi-show-bon-jovi-forever-tickets-1324732985019?aff=ebdssbdestsearch,-37.7465792,145.021604,Music
Death in a Cold Climate,2025-06-27,20:00,Rising Sun Hotel,"2 Raglan Street Upstairs - no lift South Melbourne, VIC 3205",https://www.eventbrite.com.au/e/death-in-a-cold-climate-tickets-1319532179269?aff=ebdssbdestsearch,-37.8361065,144.9666454,Talks/Workshops
"Yin, Reiki, Sound",2025-06-27,06:30,At One Studio,"127 Buckley Street #L1 Essendon, VIC 3040",https://www.eventbrite.com/e/yin-reiki-sound-tickets-1326120936419?aff=ebdssbdestsearch,-37.7570386,144.9154857,Talks/Workshops
Venjent - Melbourne,2025-06-27,22:00,170 Russell St,"170 Russell Street Melbourne, VIC 3000",https://www.eventbrite.com.au/e/venjent-melbourne-tickets-1343842592369?aff=ebdssbdestsearch,-37.8119586,144.9679969,Comedy
"Freak Out, Billie Jean.. Michael Jackson Tribute !!!",2025-06-27,21:00,Club Retro,"383 Lonsdale Street Melbourne, VIC 3000",https://www.eventbrite.com.au/e/freak-out-billie-jean-michael-jackson-tribute-tickets-1300289293279?aff=ebdssbdestsearch,-37.8128025,144.9611855,Music
"Lunch & Learn: Mould, Maintenance & Upcoming Changes",2025-06-27,10:00,Kew Golf Club,"120 Belford Road Kew East, VIC 3102",https://www.eventbrite.com.au/e/lunch-learn-mould-maintenance-upcoming-changes-tickets-1302754797669?aff=ebdssbdestsearch,-37.7887533,145.0488538,Talks/Workshops
Queen Rhapsody ‚Äì The Australian Queen Tribute Show,2025-06-27,08:00,Altona Sports Club,"11 Altona Rd, Altona VIC 3018, Australia",https://www.facebook.com/events/955643833314999/,-37.85754867,144.85121805353086,Other
MIX'DUP at Lucky 13 Garage,2025-06-27,08:00,Lucky 13 Garage,"8 Cochranes Rd, Moorabbin VIC 3189, Australia",https://www.facebook.com/events/659491520299220/,-37.94349189,145.07036236060654,Music
Melbourne International Comedy Festival Roadshow,2025-06-27,00:00,Melbourne International Comedy Festival,Melbourne,https://www.facebook.com/events/1841111576734993/,-37.8136,144.9631,Comedy
Isolation x Revolver Fridays,2025-06-27,22:00,Revolver Upstairs,"Level 2/229 Chapel St, Prahran VIC 3181, Australia",https://www.facebook.com/events/1083380200304495/,-37.8505902,144.9933469,Music
"RUSH : Euphoric, uplifting, inclusive AF!",2025-06-27,00:00,24 Moons,"2 Arthurton Rd, Northcote VIC 3070, Australia",https://www.facebook.com/events/706619715142636/,-37.7691418,144.9982614,Music
The Paul Williamson Quartet plays the music of Thelonious Monk,2025-06-27,19:30,Uptown Jazz Cafe,"1/177 Brunswick St, Fitzroy VIC 3065, Australia",https://www.facebook.com/events/4182957371949546/,-37.79705404,144.97869049756974,Music
Divination ft. COUSIN [All Night Long],2025-06-27,00:00,Sub Club Melbourne,"Flinders Ct, Melbourne VIC 3000, Australia",https://www.facebook.com/events/1236167021236175/,-37.81776587,144.96433104920948,Other
Ross Wilson & The Peaceniks - 50 Years of Hits Tour - Ballarat,2025-06-27,20:00,The Flying Saucer Club,"979-985 Nepean Hwy, Moorabbin VIC 3189, Australia",https://www.facebook.com/events/500935415689180/,-37.9369432,145.0373674,Music
Unmarked Melbourne Tour 2025,2025-06-28,15:00,Seaworks Maritime Precinct,"82 Nelson Place #82 Williamstown, VIC 3016",https://www.eventbrite.com/e/unmarked-melbourne-tour-2025-tickets-1319602208729?aff=ebdssbdestsearch,-37.863536,144.9065415,Unknown
rTMS in Depression: Practical Workshop - Melbourne,2025-06-28,14:00,neurocare clinics East Melbourne,"232 Victoria Parade East Melbourne, VIC 3002",https://www.eventbrite.com.au/e/rtms-in-depression-practical-workshop-melbourne-tickets-1002153727777?aff=ebdssbdestsearch,-37.8091875,144.9796418,Talks/Workshops
Red Rave MELB - Sat 28th June,2025-06-28,22:00,Chasers Nightclub,"386 Chapel Street South Yarra, VIC 3141",https://www.eventbrite.com.au/e/red-rave-melb-sat-28th-june-tickets-1344917637859?aff=ebdssbdestsearch,-37.8459028,144.9947039,Music
Stay & Play,2025-06-28,10:00,Richmond Library Meeting Room (Level 2),"L2, 415 Church Street Richmond, VIC 3121",https://www.eventbrite.com.au/e/stay-play-tickets-1134282562679?aff=ebdssbdestsearch,-37.8252586,144.9982151,Games
MIAA 31st Annual Conference 2025,2025-06-28,08:30,Treacy Centre,"126 The Avenue Parkville, VIC 3052",https://www.eventbrite.com/e/miaa-31st-annual-conference-2025-tickets-1305699966749?aff=ebdssbdestsearch,-37.78488919999999,144.9574958,Talks/Workshops
SKIP INTRO,2025-06-28,20:00,Shoppingtown Hotel,"19 Williamsons Road Doncaster, VIC 3108",https://www.eventbrite.com.au/e/skip-intro-tickets-1257400993219?aff=ebdssbdestsearch,-37.7851283,145.1227497,Music
Sat 28th June : Casting Workshop  Stevie Ray : MELBOURNE,2025-06-28,10:00,Justin Lehmann Studio,"263 Barkly Street Footscray, VIC 3011",https://www.eventbrite.com.au/e/sat-28th-june-casting-workshop-stevie-ray-melbourne-tickets-1143780029859?aff=ebdssbdestsearch,-37.7994241,144.8954512,Talks/Workshops
An Introduction to tDCS: Practical Workshop - Melbourne,2025-06-28,11:00,neurocare clinics East Melbourne,"232 Victoria Parade East Melbourne, VIC 3002",https://www.eventbrite.com.au/e/an-introduction-to-tdcs-practical-workshop-melbourne-tickets-1291158683379?aff=ebdssbdestsearch,-37.8091875,144.9796418,Talks/Workshops
Soul Collage for Self-Care -Creative Workshop,2025-06-28,10:30,Cheltenham Community Centre,"8 Chesterville Road Cheltenham, VIC 3192",https://www.eventbrite.com.au/e/soul-collage-for-self-care-creative-workshop-tickets-1325467512009?aff=ebdssbdestsearch,-37.9623015,145.0566002,Talks/Workshops
Log Deadlift Stone Championship 2025,2025-06-28,08:00,Iron Revolution Gym,"22 Disney Avenue #Unit 11 Keilor East, VIC 3033",https://www.eventbrite.com/e/log-deadlift-stone-championship-2025-tickets-1257323381079?aff=ebdssbdestsearch,-37.73328900000001,144.8546905,Sport
Japanese Animation Art Workshop by The Warehouse Melbourne,2025-06-28,02:30,Studio Take Care,"1 Pitt Street Brunswick, VIC 3056",https://www.eventbrite.com.au/e/japanese-animation-art-workshop-by-the-warehouse-melbourne-tickets-1123361718139?aff=ebdssbdestsearch,-37.7711984,144.9711714,Art
Bliss n Eso,2025-06-28,12:00,Forum Melbourne,"150 Flinders St, Melbourne VIC 3000, Australia",https://premier.ticketek.com.au/shows/show.aspx?sh=BLISSNE25,-37.8166268,144.9695761,
DBSC - SB-01 Pre-Release - Gameology CLAYTON SOUTH - 28/06/2025,2025-06-28,11:30,Gameology,"12 Eileen Road Clayton South, VIC 3169",https://www.eventbrite.com.au/e/dbsc-sb-01-pre-release-gameology-clayton-south-28062025-tickets-1343482555489?aff=ebdssbdestsearch,-37.9512104,145.1347381,Games
ELDER EMO OVER 30‚Äôs NIGHT MELBOURNE,2025-06-28,20:00,Deluxe Bar,"595 Mount Alexander Road Moonee Ponds, VIC 3039",https://www.eventbrite.com.au/e/elder-emo-over-30s-night-melbourne-tickets-1318210486049?aff=ebdssbdestsearch,-37.768313,144.925046,Music
Antipasto Making & Aperitivo Masterclass,2025-06-28,02:30,Henry and the Fox,"525 Little Collins Street Melbourne, VIC 3000",https://www.eventbrite.com.au/e/antipasto-making-aperitivo-masterclass-tickets-1340107310039?aff=ebdssbdestsearch,-37.8172112,144.9572687,Talks/Workshops
The Cinderella Escape in Melbourne,2025-06-28,10:00,Melbourne,"Melbourne Melbourne, VIC TBA",https://www.eventbrite.com/e/the-cinderella-escape-in-melbourne-tickets-1129514511309?aff=ebdssbdestsearch,-37.8136276,144.9630576,Games
Your Psychic Tool Kit - masterclass,2025-06-28,09:00,Highett Neighbourhood Community House,"2 Livingston St Highett, VIC 3190",https://www.eventbrite.com.au/e/your-psychic-tool-kit-masterclass-tickets-1311351480579?aff=ebdssbdestsearch,-37.9476842,145.037952,Talks/Workshops
"Bliss n Eso at Forum, Melbourne (18+)",2025-06-28,19:00,Forum Melbourne,"154 Flinders St, Melbourne VIC 3000, Australia",https://www.facebook.com/events/613213878322347/,-37.81644145,144.9693768124984,Music
Sticky Carpet Returning to Sunshine City,2025-06-28,20:30,Sunshine City Club,"24 Talmage St, Albion VIC 3020, Australia",https://www.facebook.com/events/1203167734483807/,-37.779028,144.8243730166129,Music
MRB - The Mighty Marty Rose Band Are Back!,2025-06-28,00:00,arcobar heatherton,"8 Arco Ln, Heatherton VIC 3202, Australia",https://www.facebook.com/events/1290522805390095/,-37.94673685,145.07837928457485,Music
"""Raw Brit"" back @L13G",2025-06-28,20:00,Lucky 13 Garage,"8 Cochranes Rd, Moorabbin VIC 3189, Australia",https://www.facebook.com/events/4142960732693219/,-37.94349189,145.07036236060654,Music
Melbourne International Comedy Festival Roadshow,2025-06-28,22:00,Melbourne International Comedy Festival,Melbourne,https://www.facebook.com/events/926478252674432/,-37.8136,144.9631,Comedy
The Blinds | Casino | Secret Island (first show) @ The Curtin Front Bar (FREE) ,2025-06-28,00:00,THE CURTIN (John Curtin hotel),"29 Lygon St, Carlton VIC 3053, Australia",https://www.facebook.com/events/1898463177596823/,-37.8061581,144.9657057,Music
Purple is the New Pink - A Fundraiser for the Burner Community,2025-06-28,20:00,24 Moons,"2 Arthurton Rd, Northcote VIC 3070, Australia",https://www.facebook.com/events/1696945147606437/,-37.7691418,144.9982614,Social/Dating
ZVI 'A Choice Not A Feeling' Album Launch,2025-06-28,19:00,Kindred Bandroom,"3 Harris St, Footscray VIC 3011, Australia",https://www.facebook.com/events/1669840903731943/,-37.8119001,144.9008247,Music
Beltin' Elton,2025-06-28,00:00,Ragtime Tavern,"206 Tyler St, Preston VIC 3072, Australia",https://www.facebook.com/events/575549375578081/?event_time_id=575549388911413,-37.7310367,145.0142411,Music
* SOLD OUT! * Ross Wilson & The Peaceniks - 50 Years of Hits Tour - Moonee Ponds,2025-06-28,20:00,The Flying Saucer Club,"979-985 Nepean Hwy, Moorabbin VIC 3189, Australia",https://www.facebook.com/events/606829861928626/,-37.9369432,145.0373674,Music
Palace - Australia 2025,2025-06-28,20:00,Palais Theatre,"Lower Esplanade, St Kilda VIC 3182, Australia",https://www.facebook.com/events/1560022924709690/,-37.86708671,144.97599656199426,Other
Killing Heidi | 25 Years of 'Reflector' Australian Tour | Melbourne,2025-06-28,19:00,Northcote Theatre,"216 High St, Northcote VIC 3070, Australia",https://www.facebook.com/events/1856017235139497/,-37.7737068,144.9982706,Music
Mat Jodrell Quartet is back!,2025-06-28,19:30,Uptown Jazz Cafe,"1/177 Brunswick St, Fitzroy VIC 3065, Australia",https://www.facebook.com/events/730621349302218/,-37.79705404,144.97869049756974,Music
Yoga Nidra Sound Journey,2025-06-29,19:00,Merkaba Studio,"15 Mills Street Cheltenham, VIC 3192",https://www.eventbrite.com.au/e/yoga-nidra-sound-journey-tickets-1352695050309?aff=ebdssbdestsearch,-37.9560125,145.0740554,Talks/Workshops
Sun 29th June : Casting Workshop  Stevie Ray : MELBOURNE,2025-06-29,10:00,Justin Lehmann Studio,"263 Barkly Street Footscray, VIC 3011",https://www.eventbrite.com.au/e/sun-29th-june-casting-workshop-stevie-ray-melbourne-tickets-1143781454119?aff=ebdssbdestsearch,-37.7994241,144.8954512,Talks/Workshops
Tantra Nights | Melbourne,2025-06-29,07:30,level 1/216 York St,"216 York Street #level 1 South Melbourne, VIC 3205",https://www.eventbrite.com.au/e/tantra-nights-melbourne-tickets-1302719381739?aff=ebdssbdestsearch,-37.8322093,144.9538918,Social/Dating
Reiki  - Level 2 (Okuden) in person,2025-06-29,09:00,Hands Of Mine,"1354A Malvern Road Malvern, VIC 3144",https://www.eventbrite.com.au/e/reiki-level-2-okuden-in-person-tickets-1305708652729?aff=ebdssbdestsearch,-37.8533708,145.0410442,Talks/Workshops
Intro to Risograph Workshop with the Melbourne Art Book Fair,2025-06-29,10:00,Nicholas Building,"37 Swanston Street 5th Floor, Room 512 Melbourne, VIC 3000",https://www.eventbrite.com.au/e/intro-to-risograph-workshop-with-the-melbourne-art-book-fair-tickets-1277765814949?aff=ebdssbdestsearch,-37.8167028,144.9666895,Talks/Workshops
8Foot Felix Residency at The Lomond,2025-06-29,17:00,The Lomond Hotel,"225 Nicholson Street Brunswick East, VIC 3057",https://www.eventbrite.com.au/e/8foot-felix-residency-at-the-lomond-tickets-1326148127749?aff=ebdssbdestsearch,-37.7670861,144.9800057,Music
VANGUARD - Vanguard Day June - Gameology CLAYTON SOUTH - 29/06/2025,2025-06-29,12:30,Gameology,"12 Eileen Road Clayton South, VIC 3169",https://www.eventbrite.com.au/e/vanguard-vanguard-day-june-gameology-clayton-south-29062025-tickets-1343497690759?aff=ebdssbdestsearch,-37.9512104,145.1347381,Games
Sunday Singles Mingle 40+,2025-06-29,15:00,Pier Port Melbourne,"1 Bay Street Port Melbourne, VIC 3207",https://www.eventbrite.com.au/e/sunday-singles-mingle-40-tickets-1351237871849?aff=ebdssbdestsearch,-37.8428269,144.9380888,Social/Dating
Red Sands Film Festival 2025,2025-06-29,15:00,Sun Theatre,"8 Ballarat Street Yarraville, VIC 3013",https://www.eventbrite.com/e/red-sands-film-festival-2025-tickets-1322679332489?aff=ebdssbdestsearch,-37.8157446,144.8905291,Cinema
Ricky Muscat - Nothin' But Love Single Launch,2025-06-29,15:00,Kindred Bandroom,"3 Harris St, Footscray VIC 3011, Australia",https://www.facebook.com/events/690658270371491/,-37.8119001,144.9008247,Music
Professional Photoshoot: Your Photoshoot - Their Rescue,2025-06-29,10:30,8-14 Albert St,"8-14 Albert Street 4 Preston, VIC 3072",https://www.eventbrite.com.au/e/professional-photoshoot-your-photoshoot-their-rescue-tickets-1352025116519?aff=ebdssbdestsearch,-37.7524699,145.0211718,Art
"Sunday School: Mud Bath, Gangrene Dream, Le Bonge",2025-06-29,16:00,Bergy Bandroom,"64 Sydney Rd, Brunswick VIC 3056, Australia",https://www.facebook.com/events/669381022603693/,-37.776327,144.9607158,Music
Maur (UK) | Winter Series pres. by Thick as Thieves,2025-06-29,00:00,Revolver Upstairs,"Level 2/229 Chapel St, Prahran VIC 3181, Australia",https://www.facebook.com/events/449820224823807/,-37.8505902,144.9933469,Music
Bon But Not Forgotten celebrate AC/DC - Corner Hotel - with guests Poundcake - Van Halen Show,2025-06-29,13:00,The Corner Hotel,"57 Swan St, Richmond VIC 3121",https://www.facebook.com/events/1259871838599499/,-37.82464307,144.9926962,Music
"–ö–æ–Ω–∫—É—Ä—Å ""–õ–ò–†–ê-2025""",2025-06-29,14:00,Russian House Melbourne,"118 Greeves St, Fitzroy VIC 3065, Australia",https://www.facebook.com/events/593382906564877/,-37.79982794,144.97840274927256,Music
Iconic Wire & Wine: Sculpting Workshop for the Stars,2025-06-29,01:45,Paint for Fun,"252 Graham Street #Unit 1 Port Melbourne, VIC 3207",https://www.eventbrite.com.au/e/iconic-wire-wine-sculpting-workshop-for-the-stars-tickets-1277356360259?aff=ebdssbdestsearch,-37.8386895,144.9385483,Art
Personal Values Certification | Map of Me (Melbourne),2025-06-30,09:00,Melbourne CBD,"Melbourne, VIC 3000",https://www.eventbrite.com.au/e/personal-values-certification-map-of-me-melbourne-registration-1119454361129?aff=ebdssbdestsearch,-37.8152065,144.963937,Talks/Workshops
"Social Sanctuary (NSC 20th Birthday Celebration!) with Owelu Dreamhouse, Eggy + Cong Josie",2025-06-30,19:00,Northcote Social Club,"301 High St, Northcote VIC 3070, Australia",https://www.facebook.com/events/1775952473265181/,-37.771471,144.998414,Music
Mindfulness Based Stillness Meditation | 8 Week Workshop Round 2/2025,2025-07-01,19:00,CoRize,"17 Everage Street #201 Moonee Ponds, VIC 3039",https://www.eventbrite.com.au/e/mindfulness-based-stillness-meditation-8-week-workshop-round-22025-tickets-1251598086569?aff=ebdssbdestsearch,-37.7654176,144.9220455,Talks/Workshops
Stone Lithography,2025-07-01,10:00,Australian Print Workshop,"210 Gertrude St Fitzroy, VIC 3065",https://www.eventbrite.com.au/e/stone-lithography-tickets-1204027531759?aff=ebdssbdestsearch,-37.8064244,144.9815567,Talks/Workshops
"FAULTY TOWERS | The Genuine, Award Winning Dining Experience (Only Four Tables Left!)",2025-07-01,19:00,arcobar heatherton,"8 Arco Ln, Heatherton VIC 3202, Australia",https://www.facebook.com/events/462110646891823/,-37.94673685,145.07837928457485,Theatre
Chris Hadfield,2025-07-01,12:00,Hamer Hall,"32 Southgate Ave, Southbank VIC 3006, Australia",https://premier.ticketek.com.au/shows/show.aspx?sh=CHRISHAD25,-37.8201455,144.9679946,
Speed Networking Commercial Lenders & Brokers Melbourne,2025-07-02,09:00,"Crowne Plaza Melbourne, an IHG Hotel","1-5 Spencer Street Docklands, VIC 3008",https://www.eventbrite.com.au/e/speed-networking-commercial-lenders-brokers-melbourne-tickets-1057817894799?aff=ebdssbdestsearch,-37.8228353,144.9551136,Business/Networking
Queer Writers Naarm -July,2025-07-02,18:30,The Hearth,"81 Denmark St Kew, VIC 3101",https://www.eventbrite.com.au/e/queer-writers-naarm-july-tickets-1344672153609?aff=ebdssbdestsearch,-37.8090764,145.028332,Talks/Workshops
Nature Writing Workshop,2025-07-02,10:00,Williamstown Botanic Gardens,"Osborne Street Williamstown, VIC 3016",https://www.eventbrite.com.au/e/nature-writing-workshop-tickets-1311290327669?aff=ebdssbdestsearch,-37.8658594,144.895693,Talks/Workshops
Non Profit Grant Writing Training - Melbourne - July 2025,2025-07-02,10:00,Melbourne,"Online Melbourne, VIC 3000",https://www.eventbrite.com.au/e/non-profit-grant-writing-training-melbourne-july-2025-registration-1323237321449?aff=ebdssbdestsearch,-37.8152065,144.963937,Talks/Workshops
Paul Buchanans Blues Express & Thursday Night Jam!,2025-07-03,00:00,Hume Blues Club Inc,"27 Ballantyne St, Thornbury VIC 3071, Australia",https://www.facebook.com/events/1440848333759104/,-37.7588241,144.9985126,Music
Queen: Its A Kinda Magic - Melbourne,2025-07-03,19:30,Palladium at Crown,"Level 1 Crown Towers, Crown Melbourne, 8 Whiteman St, Southbank VIC 3006, Australia",https://www.facebook.com/events/1621359165173105/,-37.822181,144.959875,Music
The Pearlies Live @ Bergy Bandroom,2025-07-03,19:00,Bergy Bandroom,"64 Sydney Rd, Brunswick VIC 3056, Australia",https://www.facebook.com/events/536381359185296/,-37.776327,144.9607158,Music
Who Killed Anna Key?,2025-07-03,19:00,The Butterfly Club,"5 Carson Place Melbourne, VIC 3000",https://www.eventbrite.co.uk/e/who-killed-anna-key-tickets-1329354558269?aff=ebdssbdestsearch,-37.8154472,144.9652725,Theatre
Responding to emotions in cancer workshop #1,2025-07-03,09:00,Victorian Comprehensive Cancer Centre,"Level 13, Meeting Room 1 305 Grattan St Melbourne, VIC 3000",https://www.eventbrite.com.au/e/responding-to-emotions-in-cancer-workshop-1-tickets-1329323114219?aff=ebdssbdestsearch,-37.800197,144.9567095,Talks/Workshops
Working with relational trauma: Adult Exploration of Attachment Interview,2025-07-03,09:30,Elie - 27 Royal Parade Parkville (Gestalt Centre Training Campus),"27 Royal Parade Parkville, VIC 3052",https://www.eventbrite.com.au/e/working-with-relational-trauma-adult-exploration-of-attachment-interview-tickets-1066273746479?aff=ebdssbdestsearch,-37.7962081,144.9574069,Talks/Workshops
ASSCR VIC EMCR Symposium,2025-07-03,09:00,Learning and Teaching Building,"19 Ancora Imparo Way Clayton, VIC 3168",https://www.eventbrite.com.au/e/asscr-vic-emcr-symposium-tickets-1289072192629?aff=ebdssbdestsearch,-37.9139139,145.1325609,Talks/Workshops
Non Profit Governance Training - Melbourne - July 2025,2025-07-03,10:00,Melbourne,"Online Melbourne, VIC 3000",https://www.eventbrite.com.au/e/non-profit-governance-training-melbourne-july-2025-registration-1349449221949?aff=ebdssbdestsearch,-37.8152065,144.963937,Talks/Workshops
Plate Lithography,2025-07-03,10:00,Australian Print Workshop,"210 Gertrude Street Fitzroy, VIC 3065",https://www.eventbrite.com.au/e/plate-lithography-tickets-1119413398609?aff=ebdssbdestsearch,-37.8064244,144.9815567,Talks/Workshops
Charades ft. PARIS [4 Hour Set],2025-07-04,00:00,Sub Club Melbourne,"Flinders Ct, Melbourne VIC 3000, Australia",https://www.facebook.com/events/656208904041067/,-37.81776587,144.96433104920948,Other
Stars of Countdown Live in Concert ‚Äì The Palms at Crown,2025-07-04,19:30,Palladium at Crown,"Level 1 Crown Towers, Crown Melbourne, 8 Whiteman St, Southbank VIC 3006, Australia",https://www.facebook.com/events/569001592621976/,-37.822181,144.959875,Music
Up Late: Pursuits of Pleasure,2025-07-04,00:00,The Wheeler Centre,"176 Little Lonsdale St, Melbourne VIC 3000, Australia",https://www.facebook.com/events/1419714189444474/,-37.8101765,144.9652219,Talks/Workshops
Little Birdy - Bigbiglove 21st Birthday Tour - Melbourne,2025-07-04,00:00,The Corner Hotel,"57 Swan St, Richmond VIC 3121",https://www.facebook.com/events/9279687805493137/,-37.82464307,144.9926962,Music
Melbourne DedCity Rumble Tour '25 'The Great Southern TakeOver Mr Boogie Man Bar,2025-07-04,18:00,Mr Boogie Man Bar,"160 Hoddle St, Abbotsford VIC 3067, Australia",https://www.facebook.com/events/609093291851339/,-37.80245,144.99295304614787,Music
Melbourne International Comedy Festival Roadshow,2025-07-04,19:30,Melbourne International Comedy Festival,Melbourne,https://www.facebook.com/events/555284244141074/,-37.8136,144.9631,Comedy
Joey Lightbulb & Friends (Northcote SC 20th Birthday Opening Party!),2025-07-04,20:00,Northcote Social Club,"301 High St, Northcote VIC 3070, Australia",https://www.facebook.com/events/2135622393518248/,-37.771471,144.998414,Music
Z√ñJ - Give Water to Birds,2025-07-04,19:00,Melbourne Recital Centre,"31 Sturt St, Southbank VIC 3006, Australia",https://www.facebook.com/events/1167751337986031/,-37.82408485,144.96758763141432,Other
Melbourne speed dating Cheeky Events Australia in St. Kilda-ages 26-44,2025-07-04,06:45,Ellora St Kilda,"1 Fitzroy Street St Kilda Melbourne, VIC 3182",https://www.eventbrite.com.au/e/melbourne-speed-dating-cheeky-events-australia-in-st-kilda-ages-26-44-tickets-1246730156459?aff=ebdssbdestsearch,-37.8570977,144.9824706,Social/Dating
Wingman's PM Roadshow - Melbourne July 2025,2025-07-04,08:00,Melbourne City,". Melbourne, VIC 3000",https://www.eventbrite.com.au/e/wingmans-pm-roadshow-melbourne-july-2025-tickets-1320815628099?aff=ebdssbdestsearch,-37.8152065,144.963937,Business/Networking
Rumble Coffee Roasters Coffee Cupping,2025-07-04,15:00,Rumble Coffee Roasters,"348 Macaulay Road Kensington, VIC 3031",https://www.eventbrite.com.au/e/rumble-coffee-roasters-coffee-cupping-tickets-1344966544139?aff=ebdssbdestsearch,-37.7947678,144.9342535,Talks/Workshops
Drag Bingo Dinner Show at Overnewton Castle,2025-07-04,19:00,Overnewton Castle,"51 Overnewton Road Keilor, VIC 3036",https://www.eventbrite.com.au/e/drag-bingo-dinner-show-at-overnewton-castle-tickets-1204335342429?aff=ebdssbdestsearch,-37.7048096,144.8209018,Comedy
"Soil Science Australia 70 year Celebration - Past, Present and Future",2025-07-04,17:00,The Royal Society of Victoria,"8 La Trobe Street Melbourne, VIC 3000",https://www.eventbrite.com.au/e/soil-science-australia-70-year-celebration-past-present-and-future-tickets-1352789863899?aff=ebdssbdestsearch,-37.80765239999999,144.9693135,Talks/Workshops
Candlelight and Sound Bath: rebalance and rejuvenate | Monthly Event,2025-07-04,18:30,96 Middlesex Rd,"96 Middlesex Road Surrey Hills, VIC 3127",https://www.eventbrite.com.au/e/candlelight-and-sound-bath-rebalance-and-rejuvenate-monthly-event-tickets-1316920016219?aff=ebdssbdestsearch,-37.8327671,145.0885317,Talks/Workshops
STAYC,2025-07-05,19:00,Festival Hall,"300 Dudley St, West Melbourne VIC 3003, Australia",https://www.facebook.com/events/590755566758149/,-37.8098193,144.9508057,Music
Winter Hot Chocolate Scavenger Hunt,2025-07-05,09:00,Mont Albert Heritage Plaza,"18 Hamilton St Mont Albert, VIC 3127",https://www.eventbrite.com.au/e/winter-hot-chocolate-scavenger-hunt-tickets-1353033984069?aff=ebdssbdestsearch,-37.8207386,145.1053639,Games
Heathdale Netball Club Mid Year Award 2025,2025-07-05,17:30,AiroWorld Trampoline & Inflatable Park,"61 Dohertys Road Altona North, VIC 3025",https://www.eventbrite.com.au/e/heathdale-netball-club-mid-year-award-2025-tickets-1352080652629?aff=ebdssbdestsearch,-37.8323038,144.8252729,Sport
Watercolour Embroidery Workshop  - Saturday July 5th,2025-07-05,11:30,Mystik River,"3 Southgate Avenue Southbank, VIC 3006",https://www.eventbrite.com.au/e/watercolour-embroidery-workshop-saturday-july-5th-tickets-1278974149109?aff=ebdssbdestsearch,-37.820556,144.965833,Talks/Workshops
MCW Ballroom Brawl 2025,2025-07-05,19:00,Melbourne Pavilion,"135-157 Racecourse Road Kensington, VIC 3031",https://www.eventbrite.com.au/e/mcw-ballroom-brawl-2025-tickets-1266888610939?aff=ebdssbdestsearch,-37.7891081,144.9364233,Sport
Human Forest - A Regenerative & Connective Experience of Devotional Touch.,2025-07-05,18:45,Centre of You,"Upstairs, 217 Chapel St Prahran Melbourne, VIC 3181",https://www.eventbrite.com.au/e/human-forest-a-regenerative-connective-experience-of-devotional-touch-tickets-1352965649679?aff=ebdssbdestsearch,-37.8509316,144.9933031,Talks/Workshops
BioEnergetic Yin Yoga Therapy Certification Training - Level 1.,2025-07-05,09:00,Centre of You,"Upstairs, 217 Chapel St Prahran Melbourne, VIC 3181",https://www.eventbrite.com.au/e/bioenergetic-yin-yoga-therapy-certification-training-level-1-tickets-1343644640289?aff=ebdssbdestsearch,-37.8509316,144.9933031,Talks/Workshops
The Ember Realm Fantasy Ball,2025-07-05,18:30,Wattle Park,"Riversdale Road Burwood, VIC 3125",https://www.eventbrite.com.au/e/the-ember-realm-fantasy-ball-tickets-1315783747609?aff=ebdssbdestsearch,-37.8375447,145.1100587,Social/Dating
Void of Vision: The Final Show Ever,2025-07-05,12:00,Forum Melbourne,"150 Flinders St, Melbourne VIC 3000, Australia",https://premier.ticketek.com.au/shows/show.aspx?sh=VOID25,-37.8166268,144.9695761,
FANGFEST,2025-07-05,13:30,Fairfield Bowling Club,"125 Gillies Street Fairfield, VIC 3078",https://www.eventbrite.com/e/fangfest-tickets-1353028427449?aff=ebdssbdestsearch,-37.7749915,145.0180042,Music
KYLE LIONHART - MELBOURNE,2025-07-05,20:00,Chapel Off Chapel,"12 Little Chapel St, Prahran VIC 3181, Australia",https://www.facebook.com/events/2373547086363259/,-37.84832452,144.99496955222065,Music
Velvet Bloom Album Tour - Northcote Social Club,2025-07-05,20:30,Northcote Social Club,"301 High St, Northcote VIC 3070, Australia",https://www.facebook.com/events/627615203463939/,-37.771471,144.998414,Music
Masterclass: Playwriting,2025-07-05,00:00,The Wheeler Centre,"176 Little Lonsdale St, Melbourne VIC 3000, Australia",https://www.facebook.com/events/1047169990659021/,-37.8101765,144.9652219,Talks/Workshops
Brave New World with Special Guests,2025-07-05,19:30,Kindred Bandroom,"3 Harris St, Footscray VIC 3011, Australia",https://www.facebook.com/events/1849827322462190/,-37.8119001,144.9008247,Music
Direct from Las Vegas | A Tribute To BARBRA STREISAND Starring Sharon Owens | Dinner & Show ,2025-07-05,00:00,arcobar heatherton,"8 Arco Ln, Heatherton VIC 3202, Australia",https://www.facebook.com/events/1598194407493541/,-37.94673685,145.07837928457485,Music
Dirty Dike w/ Sammy B-Side: The Golden Lobster Tour // MELBOURNE,2025-07-05,19:00,Max Watts,"125 Swanston St, Melbourne VIC 3000, Australia",https://www.facebook.com/events/660655603517275/,-37.8147557,144.9659879,Music
ùêíùêéùêãùêÉ ùêéùêîùêì | Void Of Vision Farewell @ The Forum Melbourne | July 5,2025-07-05,00:00,Forum Melbourne,"154 Flinders St, Melbourne VIC 3000, Australia",https://www.facebook.com/events/601637989001691/,-37.81644145,144.9693768124984,Music
The Solid GOLD Band Melb Live ‚ÄúClassic Hits‚Äù Dutch Club Carnegie ,2025-07-05,00:00,Carnegie Hall,"60 Rosstown Rd, Carnegie VIC 3163, Australia",https://www.facebook.com/events/1794627464740647/,-37.8864262,145.05686284914034,Music
Flemington Finals Race Day,2025-07-05,11:15,Flemington Racecourse,"448 Epsom Road, Flemington Flemington VIC 3031, Australia",https://www.facebook.com/events/3119084111588273/,-37.78925135,144.9127712588256,Sport
Chocolate Starfish Performs Bat Out Of Hell - The Return,2025-07-05,00:00,Palais Theatre,"Lower Esplanade, St Kilda VIC 3182, Australia",https://www.facebook.com/events/610234541762351/,-37.86708671,144.97599656199426,Music
Moreland City Soul Revue Residency at The Lomond,2025-07-06,17:00,The Lomond Hotel,"225 Nicholson Street Brunswick East, VIC 3057",https://www.eventbrite.com.au/e/moreland-city-soul-revue-at-the-lomond-tickets-1261832146919?aff=ebdssbdestsearch,-37.7670861,144.9800057,Music
MOSES JONES & LOVE IN VAIN,2025-07-06,14:00,Way Out West Roots Music Club,"4 Market St, Newport VIC 3015, Australia",https://www.facebook.com/events/2142298849567436/,-37.8439028,144.8823845,Music
Corner Hotel Record Fair (July),2025-07-06,00:00,The Corner Hotel,"57 Swan St, Richmond VIC 3121",https://www.facebook.com/events/529213780000520/,-37.82464307,144.9926962,Music
"Sound of Being Journey: Breathwork, Mantra, Meditation & Sound Healing.",2025-07-06,06:30,Centre of You,"Upstairs, 217 Chapel St Prahran Melbourne, VIC 3181",https://www.eventbrite.com.au/e/sound-of-being-journey-breathwork-mantra-meditation-sound-healing-tickets-1347382189399?aff=ebdssbdestsearch,-37.8509316,144.9933031,Talks/Workshops
Have a Goodnight Walter,2025-07-07,19:00,The Butterfly Club,"5 Carson Place Melbourne, VIC 3000",https://www.eventbrite.co.uk/e/have-a-goodnight-walter-tickets-1285611722269?aff=ebdssbdestsearch,-37.8154472,144.9652725,Theatre
2025 Literacy for All Intensive Course,2025-07-07,09:00,Glenroy Specialist School,"208 Hilton Street Glenroy, VIC 3046",https://www.eventbrite.com.au/e/2025-literacy-for-all-intensive-course-tickets-1078018033959?aff=ebdssbdestsearch,-37.6991225,144.9208392,Talks/Workshops
"Art, War, and Other Catastrophes",2025-07-07,20:30,The Butterfly Club,"5 Carson Place Melbourne, VIC 3000",https://www.eventbrite.co.uk/e/art-war-and-other-catastrophes-tickets-1349305913309?aff=ebdssbdestsearch,-37.8154472,144.9652725,Theatre
"DAVINES - Services and More Workshop - Melbourne, VIC",2025-07-07,10:00,shibui,"139 Toorak Road South Yarra, VIC 3141",https://www.eventbrite.com.au/e/davines-services-and-more-workshop-melbourne-vic-tickets-1253931154839?aff=ebdssbdestsearch,-37.8386846,144.991012,Talks/Workshops
Jess Hitchcock & Penny Quartet,2025-07-07,19:30,Melbourne Recital Centre,"31 Sturt St, Southbank VIC 3006, Australia",https://www.facebook.com/events/1357515342237584/,-37.82408485,144.96758763141432,Music
EM RUSCIANO | BRUNSWICK BALLROOM,2025-07-07,00:00,Brunswick Ballroom,"314 Sydney Rd, Brunswick VIC 3056, Australia",https://www.facebook.com/events/2069710233508003/?event_time_id=2069710250174668,-37.7704205,144.9617083,Comedy
Waterloo,2025-07-08,19:30,Theatre Works,"Saint Leonards Avenue St Kilda, VIC 3182",https://www.eventbrite.com.au/e/waterloo-tickets-1110981518629?aff=ebdssbdestsearch,-37.8638328,144.9768976,Theatre
Brava  Women Networking IN PERSON July 8th 2025 - Brighton,2025-07-08,13:00,The Deck  Brighton,"212 Bay Street Brighton, VIC 3186",https://www.eventbrite.com.au/e/brava-women-networking-in-person-july-8th-2025-brighton-tickets-1277793949099?aff=ebdssbdestsearch,-37.9052818,144.999296,Business/Networking
Fermentation 101 Workshop with Caitlin Koether,2025-07-08,18:00,Little Molli,"66 Nicholson Street Abbotsford, VIC 3067",https://www.eventbrite.com/e/fermentation-101-workshop-with-caitlin-koether-tickets-1344936835279?aff=ebdssbdestsearch,-37.8069067,144.9966637,Talks/Workshops
Founder Connect!,2025-07-08,18:00,The Commons QV,"3 Albert Coates Lane Melbourne, VIC 3000",https://www.eventbrite.com.au/e/founder-connect-tickets-1088341240949?aff=ebdssbdestsearch,-37.8109508,144.9653291,Business/Networking
MIG Workshop: Multivariate analysis for omics data integration (bulk),2025-07-08,09:30,The Florey Institute of Neuroscience and Mental Health,"30 Royal Parade Parkville, VIC 3010",https://www.eventbrite.com/e/mig-workshop-multivariate-analysis-for-omics-data-integration-bulk-tickets-1246825952989?aff=ebdssbdestsearch,-37.7982843,144.9585746,Talks/Workshops
Hakima ‚Äì Bukjeh,2025-07-08,00:00,Melbourne Recital Centre,"31 Sturt St, Southbank VIC 3006, Australia",https://www.facebook.com/events/3689110251224257/?event_time_id=3689113927890556,-37.82408485,144.96758763141432,Other
Etching #1 - Hard-ground & Soft-ground,2025-07-08,10:00,Australian Print Workshop,"210 Gertrude Street Fitzroy, VIC 3065",https://www.eventbrite.com.au/e/etching-1-hard-ground-soft-ground-tickets-1204082054839?aff=ebdssbdestsearch,-37.8064244,144.9815567,Art
Roola Boola Chidren's Art Festival: Kids Clay Workshop at the Duldig Studio,2025-07-08,10:30,Duldig Studio Museum & Sculpture Garden,"92 Burke Road East Malvern, VIC 3145",https://www.eventbrite.com.au/e/roola-boola-chidrens-art-festival-kids-clay-workshop-at-the-duldig-studio-tickets-1319606692139?aff=ebdssbdestsearch,-37.8689721,145.0498034,Art
Navigating Healthcare as a Person in a Bigger Body Workshop,2025-07-09,10:00,Heidelberg Repatriation Hospital,"300 Waterdale Road Ivanhoe, VIC 3079",https://www.eventbrite.com.au/e/navigating-healthcare-as-a-person-in-a-bigger-body-workshop-registration-1271846068829?aff=ebdssbdestsearch,-37.755455,145.045315,Talks/Workshops
Understand Weight Management Treatment Options as a Person with Obesity,2025-07-09,13:00,Heidelberg Repatriation Hospital,"300 Waterdale Road Ivanhoe, VIC 3079",https://www.eventbrite.com.au/e/understand-weight-management-treatment-options-as-a-person-with-obesity-registration-1315964979679?aff=ebdssbdestsearch,-37.755455,145.045315,Talks/Workshops
Clonakilla Dinner Melbourne: Perfume & Power July 9th 2025 6.30pm,2025-07-09,06:30,Entrec√¥te,"142-144 Greville Street Prahran, VIC 3181",https://www.eventbrite.com.au/e/clonakilla-dinner-melbourne-perfume-power-july-9th-2025-630pm-tickets-1341726392759?aff=ebdssbdestsearch,-37.849427,144.991519,Social/Dating
AusSTS 2025 ‚ÄúSignals & Noises‚Äù Conference,2025-07-09,08:30,"National Communication Museum, Hawthorn, Naarm, (Day1) and Deakin Downtown (Docklands) Day 2 and 3","NCM and Deakin Downtown Narrm, Melbourne, VIC 3008",https://www.eventbrite.com.au/e/aussts-2025-signals-noises-conference-tickets-1312609132249?aff=ebdssbdestsearch,-37.8206284,144.9500129,Talks/Workshops
Make your Happy Snowmen,2025-07-09,10:00,124 South Parade,"124 South Parade Blackburn, VIC 3130",https://www.eventbrite.com.au/e/make-your-happy-snowmen-tickets-1353035628989?aff=ebdssbdestsearch,-37.8205834,145.1523742,Art
.NET 9 Superpowers Tour - Melbourne,2025-07-09,09:00,SSW Melbourne,"Level 1/370 Little Bourke St MELBOURNE, VIC 3000",https://www.eventbrite.com.au/e/net-9-superpowers-tour-melbourne-tickets-1098433296559?aff=ebdssbdestsearch,-37.8132971,144.9615923,Talks/Workshops
BDM EOFY CELEBRATION  |  FLOW: Where Growth Meets Momentum,2025-07-09,17:00,Kolmeo HQ,"31 Queen Street #Level 6 Melbourne, VIC 3000",https://www.eventbrite.com.au/e/bdm-eofy-celebration-flow-where-growth-meets-momentum-registration-1302646523819?aff=ebdssbdestsearch,-37.81822349999999,144.9617763,Business/Networking
Speed Dating Glen Waverley | 25-38yrs | 20% OFF Promo,2025-07-09,19:00,Gambino Restaurant & Rooftop,"73-75 Kingsway #L5 Glen Waverley, VIC 3150",https://www.eventbrite.com.au/e/speed-dating-glen-waverley-25-38yrs-20-off-promo-tickets-1341819370859?aff=ebdssbdestsearch,-37.88046569999999,145.1634312,Social/Dating
Effie - UPYOURSELFNESS LIVE at Olympic Hotel!,2025-07-09,18:00,Olympic Hotel,"31 Albert Street Preston, VIC 3072",https://www.eventbrite.com.au/e/effie-upyourselfness-live-at-olympic-hotel-tickets-1295351403919?aff=ebdssbdestsearch,-37.7465792,145.021604,Comedy
Back Alley Sally & Thursday Night Jam!,2025-07-10,00:00,Hume Blues Club Inc,"27 Ballantyne St, Thornbury VIC 3071, Australia",https://www.facebook.com/events/1003879275182853/,-37.7588241,144.9985126,Music
A Bunch Of Smooth Operators at Paris Cat Jazz Club ,2025-07-10,19:00,Paris Cat Jazz Club,"6 Goldie Pl, Melbourne VIC 3000, Australia",https://www.facebook.com/events/2220949085028932/,-37.8133262,144.96060714767358,Music
STILL,2025-07-10,19:30,TW Explosives Factory,"67 Inkerman Street St Kilda, VIC 3182",https://www.eventbrite.com.au/e/still-tickets-1113299351329?aff=ebdssbdestsearch,-37.8646651,144.9842743,Theatre
Henry Manetta and the Trip Live at The Paris Cat,2025-07-10,00:00,Paris Cat Jazz Club,"6 Goldie Pl, Melbourne VIC 3000, Australia",https://www.facebook.com/events/1214175740211911/,-37.8133262,144.96060714767358,Music
STILL X 6,2025-07-10,19:30,TW Explosives Factory,"67 Inkerman Street St Kilda, VIC 3182",https://www.eventbrite.com.au/e/still-x-6-tickets-1113299351329?aff=ebdssbdestsearch,-37.8646651,144.9842743,Theatre
Creative Tech | MELB July | School Holiday Workshop,2025-07-10,10:00,The Australian Institute of Music,"120 King Street Melbourne, VIC 3000",https://www.eventbrite.com.au/e/creative-tech-melb-july-school-holiday-workshop-tickets-1254001936549?aff=ebdssbdestsearch,-37.81714789999999,144.9564705,Talks/Workshops
"LGBTeeHeeHee - Thursday 10th July - Trinity, St Kilda",2025-07-10,18:30,Trinity St Kilda,"2 Brighton Road St Kilda, VIC 3182",https://www.eventbrite.com/e/lgbteeheehee-thursday-10th-july-trinity-st-kilda-tickets-1352066490269?aff=ebdssbdestsearch,-37.871047,144.989459,Comedy
International Symposium on Accounting Information Systems 2025,2025-07-10,09:00,The Spot,"198 Berkeley Street Carlton, VIC 3053",https://www.eventbrite.com.au/e/international-symposium-on-accounting-information-systems-2025-tickets-1040183997337?aff=ebdssbdestsearch,-37.8015846,144.9588604,Business/Networking
Responding to Disclosures of Sexual Assault Workshop,2025-07-10,09:30,level 2/210 Lonsdale St,"210 Lonsdale Street #level 2 Melbourne, VIC 3000",https://www.eventbrite.com.au/e/responding-to-disclosures-of-sexual-assault-workshop-tickets-1301652029259?aff=ebdssbdestsearch,-37.8109379,144.9658254,Talks/Workshops
Project Mayhem w/ The Need at Mr Boogie Man Bar,2025-07-11,20:00,Mr Boogie Man Bar,"160 Hoddle St, Abbotsford VIC 3067, Australia",https://www.facebook.com/events/1212167326582137/,-37.80245,144.99295304614787,Music
Sedative - Love Is Not Enough Album Tour,2025-07-11,19:00,Stay Gold,"133 Sydney Road Brunswick, VIC 3056",https://www.eventbrite.com.au/e/sedative-love-is-not-enough-album-tour-tickets-1319604676109?aff=ebdssbdestsearch,-37.77435880000001,144.9606103,Music
Stamped & Laced Leather Bag at Leffler Leather,2025-07-11,09:00,Leffler Leather,"171 Kensington Road West Melbourne, VIC 3003",https://www.eventbrite.com.au/e/stamped-laced-leather-bag-at-leffler-leather-tickets-1347329000309?aff=ebdssbdestsearch,-37.8002118,144.9177331,Talks/Workshops
"Carlton‚Äôs 95‚Äô Anniversary Show - Kouta, ‚ÄúDiesel‚Äù Williams & Sticks Kernahan",2025-07-11,20:00,Missing Gorilla,"70 Commercial Place #1 Eltham, VIC 3095",https://www.eventbrite.com.au/e/carltons-95-anniversary-show-kouta-diesel-williams-sticks-kernahan-tickets-1303880725349?aff=ebdssbdestsearch,-37.7127434,145.1494258,Sport
Mother Tongue Poetry Melbourne: JULY 2025: Shyaire Ganglani,2025-07-11,07:30,St Andrews Alphington / Fairfield Uniting Church,"87 Gillies Street Fairfield, VIC 3078",https://www.eventbrite.com.au/e/mother-tongue-poetry-melbourne-july-2025-shyaire-ganglani-tickets-1214667044829?aff=ebdssbdestsearch,-37.776972,145.017551,Theatre
Nirvanna (USA) Tribute - Live in Melbourne ,2025-07-11,00:00,Max Watts,"125 Swanston St, Melbourne VIC 3000, Australia",https://www.facebook.com/events/688431397013412/,-37.8147557,144.9659879,Music
SINISTER: ZHEANI [LIVE],2025-07-11,00:00,EMO NEVER SLEEPS,"629 Bourke St, Melbourne VIC 3004, Australia",https://www.facebook.com/events/1852553662225859/,-37.8167994,144.9552063,Music
"Don Ben√©t: Live '25 @ Corner Hotel, Melbourne",2025-07-11,20:00,The Corner Hotel,"57 Swan St, Richmond VIC 3121",https://www.facebook.com/events/1222985336501211/,-37.82464307,144.9926962,Music
Jazz & Cocktails ,2025-07-11,00:00,Paris Cat Jazz Club,"6 Goldie Pl, Melbourne VIC 3000, Australia",https://www.facebook.com/events/646261508572778/,-37.8133262,144.96060714767358,Music
THE REAL TURBANATOR IS BACK,2025-07-12,19:00,Festival Hall,"300 Dudley St, West Melbourne VIC 3003, Australia",https://www.facebook.com/events/3926478064334274/,-37.8098193,144.9508057,Other
Melbourne International Comedy Festival Roadshow - Hobart,2025-07-12,19:30,Melbourne International Comedy Festival,Melbourne,https://www.facebook.com/events/652321984236229/,-37.8136,144.9631,Comedy
THE PIANO MEN | The Songs of BILLY JOEL & ELTON JOHN | Dinner & Show (50% Sold!),2025-07-12,00:00,arcobar heatherton,"8 Arco Ln, Heatherton VIC 3202, Australia",https://www.facebook.com/events/1587982052084249/,-37.94673685,145.07837928457485,Music
Winter Breaks Feat. Aphrodite (UK),2025-07-12,17:00,Howler,"7-11 Dawson Street Brunswick, VIC 3056",https://www.eventbrite.com.au/e/winter-breaks-feat-aphrodite-uk-tickets-1352069408999?aff=ebdssbdestsearch,-37.771511,144.959539,Music
"LADIES NIGHT! - Saturday 12th July - St Luja, St Kilda",2025-07-12,18:00,St LuJa | Cocktail Bar,"9 Fitzroy Street St Kilda, VIC 3182",https://www.eventbrite.com/e/ladies-night-saturday-12th-july-st-luja-st-kilda-tickets-1352097071739?aff=ebdssbdestsearch,-37.8627907,144.9733795,Comedy
DANCE FOR A CAUSE KIDS DISCO,2025-07-12,18:00,95-105 Railway Ave,"95-105 Railway Avenue Laverton, VIC 3028",https://www.eventbrite.com.au/e/dance-for-a-cause-kids-disco-tickets-1344959984519?aff=ebdssbdestsearch,-37.8653343,144.7688539,Games
Faye Webster,2025-07-12,12:00,Forum Melbourne,"150 Flinders St, Melbourne VIC 3000, Australia",https://premier.ticketek.com.au/shows/show.aspx?sh=FAYEWEB25,-37.8166268,144.9695761,
Totally Stonez - The Rolling Stones Show,2025-07-12,07:30,Deer Park Club,"780 Ballarat Road Deer Park, VIC 3023",https://www.eventbrite.com.au/e/totally-stonez-the-rolling-stones-show-tickets-1309341197769?aff=ebdssbdestsearch,-37.770093,144.7804984,Music
2025 Barry Murray Classic Powerlifting Comp,2025-07-13,10:00,Ares Strength Headquarters,"62 Slater Parade Keilor East, VIC 3033",https://www.eventbrite.com.au/e/2025-barry-murray-classic-powerlifting-comp-tickets-1332058586089?aff=ebdssbdestsearch,-37.7336736,144.8583243,Sport
Botanical Beauty: Simple Watercolour Florals (art materials included),2025-07-13,10:00,"Melbourne Central ""The Between"" Skybridge https://maps.app.goo.gl/JAhHg44rDVJyszzD6","Level 1 , 211 La Trobe St, Melbourne VIC 3000 Melbourne, VIC 3000",https://www.eventbrite.com.au/e/botanical-beauty-simple-watercolour-florals-art-materials-included-tickets-1285314041899?aff=ebdssbdestsearch,-37.8106228,144.9631884,Talks/Workshops
"Ha-Ha Bingo - Sunday 13th July - Red Eye Bar, St Kilda",2025-07-13,19:30,Red Eye Bar,"17 Carlisle Street St Kilda, VIC 3182",https://www.eventbrite.com/e/ha-ha-bingo-sunday-13th-july-red-eye-bar-st-kilda-tickets-1352097252279?aff=ebdssbdestsearch,-37.8672306,144.9801502,Comedy
Live Aid Revival 40 Year Anniversary Show @ Altona Sports Club,2025-07-13,14:00,Altona Sports Club,"11 Altona Rd, Altona VIC 3018, Australia",https://www.facebook.com/events/1956578348414671/,-37.85754867,144.85121805353086,Music
"The Smith Street Band, Bad Neighbour, Big League at Corner Hotel, Melbourne (Second show)",2025-07-13,19:00,The Corner Hotel,"57 Swan St, Richmond VIC 3121",https://www.facebook.com/events/3084462818382718/,-37.82464307,144.9926962,Music
THE SIMON KINNY-LEWIS BAND,2025-07-13,14:00,Way Out West Roots Music Club,"4 Market St, Newport VIC 3015, Australia",https://www.facebook.com/events/1371251167544020/,-37.8439028,144.8823845,Music
Lisa Simone,2025-07-13,12:00,Hamer Hall,"32 Southgate Ave, Southbank VIC 3006, Australia",https://premier.ticketek.com.au/shows/show.aspx?sh=LISAVHH25,-37.8201455,144.9679946,
Morning Melodies 2025 Season,2025-07-14,00:00,Arts Centre Melbourne,"100 St Kilda Rd, Southbank VIC 3004, Australia",https://www.facebook.com/events/527914670197100/,-37.8216405,144.9683143,Music
Between The Fractures,2025-07-14,19:00,The Butterfly Club,"5 Carson Place Melbourne, VIC 3000",https://www.eventbrite.co.uk/e/between-the-fractures-tickets-1312392393979?aff=ebdssbdestsearch,-37.8154472,144.9652725,Theatre
muk Master Colourist MELBOURNE featuring Judi Seeley,2025-07-14,10:00,Salon Baby Hair,"Rear 423 Brunswick Street Fitzroy, VIC 3065",https://www.eventbrite.com.au/e/muk-master-colourist-melbourne-featuring-judi-seeley-tickets-1106842909939?aff=ebdssbdestsearch,-37.7943429,144.9790463,Talks/Workshops
The Steward Leadership Edge - Maximising Profit by Maximising Purpose,2025-07-15,09:00,Deakin Downtown,"Tower2, Level 12, 727 Collins Street Melbourne, VIC 3008",https://www.eventbrite.com.au/e/the-steward-leadership-edge-maximising-profit-by-maximising-purpose-tickets-1344934167299?aff=ebdssbdestsearch,-37.8206847,144.949995,Business/Networking
Stand Up Comedy Showcase! - Tuesday 15th July - St Kilda Sports Club,2025-07-15,19:30,St Kilda Sports Club,"66 Fitzroy Street St Kilda, VIC 3182",https://www.eventbrite.com/e/stand-up-comedy-showcase-tuesday-15th-july-st-kilda-sports-club-tickets-1352098766809?aff=ebdssbdestsearch,-37.8588818,144.9786016,Comedy
Breaking the Castle,2025-07-15,19:30,Theatre Works,"Saint Leonards Avenue St Kilda, VIC 3182",https://www.eventbrite.com.au/e/breaking-the-castle-tickets-1110985219699?aff=ebdssbdestsearch,-37.8638328,144.9768976,Theatre
"Harry Sheezel & Tristan Xerri LIVE at Union Hotel, Ascot Vale!",2025-07-16,19:00,Union Hotel,"252 Union Road Ascot Vale, VIC 3032",https://www.eventbrite.com.au/e/harry-sheezel-tristan-xerri-live-at-union-hotel-ascot-vale-tickets-1311410156079?aff=ebdssbdestsearch,-37.7719746,144.9163728,Talks/Workshops
Riot Underage ‚Ä¢ July 16th 2025,2025-07-16,17:00,Chasers Venue,"386 Chapel Street South Yarra, VIC 3141",https://www.eventbrite.com.au/e/riot-underage-july-16th-2025-tickets-1331450637699?aff=ebdssbdestsearch,-37.8459028,144.9947039,Music
MPG 23rd Student Symposium,2025-07-16,09:00,Bio21 Institute - David Penington Building,"30 Flemington Road Parkville, VIC 3052",https://www.eventbrite.com.au/e/mpg-23rd-student-symposium-tickets-1285229348579?aff=ebdssbdestsearch,-37.7970666,144.9540095,Talks/Workshops
RETHINKING FIRST EPISODE PSYCHOSIS AND PERSONALITY DISORDER,2025-07-16,09:30,Orygen Colonial  Foundation Innovation Centre,"35 Poplar Road Parkville, VIC 3052",https://www.eventbrite.com.au/e/rethinking-first-episode-psychosis-and-personality-disorder-tickets-1108777024929?aff=ebdssbdestsearch,-37.7801959,144.9478953,Talks/Workshops
International Comedy Showcase! - Wednesday 16th July - Harvey's Sports Bar,2025-07-16,19:30,Harvey's Sports Bar & Grill,"169 Fitzroy Street St Kilda, VIC 3182",https://www.eventbrite.com/e/international-comedy-showcase-wednesday-16th-july-harveys-sports-bar-tickets-1352099157979?aff=ebdssbdestsearch,-37.8580554,144.9807704,Comedy
Touche Amore Aus Tour with Militarie Gun ‚Äì Melbourne 18+,2025-07-17,19:00,170 Russell,"170 Russell St, Melbourne VIC 3000, Australia",https://www.facebook.com/events/1460835815272910/,-37.8120109,144.9679369,Music
Australia Wind Energy 2025,2025-07-17,09:00,Melbourne Convention and Exhibition Centre (MCEC),"1 Convention Centre Place South Wharf, VIC 3006",https://www.eventbrite.sg/e/australia-wind-energy-2025-tickets-1095037910869?aff=ebdssbdestsearch,-37.82520299999999,144.952251,Business/Networking
‚ÄãConnecting Hydrogen APAC 2025,2025-07-17,09:00,Melbourne Convention and Exhibition Centre (MCEC),"1 Convention Centre Place South Wharf, VIC 3006",https://www.eventbrite.sg/e/connecting-hydrogen-apac-2025-tickets-1083791001059?aff=ebdssbdestsearch,-37.82520299999999,144.952251,Business/Networking
Monoprint,2025-07-17,10:00,Australian Print Workshop,"210 Gertrude Street Fitzroy, VIC 3065",https://www.eventbrite.com.au/e/monoprint-registration-1204319274369?aff=ebdssbdestsearch,-37.8064244,144.9815567,Talks/Workshops
Carbon Capture APAC Summit 2025,2025-07-17,09:00,Melbourne Convention and Exhibition Centre (MCEC),"1 Convention Centre Place South Wharf, VIC 3006",https://www.eventbrite.sg/e/carbon-capture-apac-summit-2025-tickets-1106870713099?aff=ebdssbdestsearch,-37.82520299999999,144.952251,Business/Networking
Exclusive Industry Luncheon with special guest  Jess Wilson MP,2025-07-17,12:30,Centonove,"109 Cotham Road Kew, VIC 3101",https://www.eventbrite.com.au/e/exclusive-industry-luncheon-with-special-guest-jess-wilson-mp-tickets-1303839441869?aff=ebdssbdestsearch,-37.8075681,145.0387546,Business/Networking
John Williams Blues Band & Thursday Night Jam!,2025-07-17,00:00,Hume Blues Club Inc,"27 Ballantyne St, Thornbury VIC 3071, Australia",https://www.facebook.com/events/1406769783686080/,-37.7588241,144.9985126,Music
"Literally Presents KC Lights (UK) , John Course ++",2025-07-18,20:00,The Emerson Rooftop Bar and Club,"141-145 Commercial Rd, South Yarra VIC 3141, Australia",https://www.facebook.com/events/1049603260464873/,-37.84659833,144.99210205798175,Music
360,2025-07-18,12:00,Forum Melbourne,"150 Flinders St, Melbourne VIC 3000, Australia",https://premier.ticketek.com.au/shows/show.aspx?sh=THREESIX25,-37.8166268,144.9695761,
Dinner & Show Package - Melbourne Magic Show,2025-07-18,20:00,Melbourne Marriott Hotel,"Cnr Lonsdale & Exhibition St Melbourne, VIC 3000",https://www.eventbrite.com.au/e/dinner-show-package-melbourne-magic-show-tickets-1075339743119?aff=ebdssbdestsearch,-37.8100597,144.9697004,Theatre
The Uncle Louie Variety Show,2025-07-18,19:00,The Astor Theatre,"1 Chapel Street St Kilda, VIC 3182",https://www.eventbrite.com.au/e/the-uncle-louie-variety-show-tickets-1080266348729?aff=ebdssbdestsearch,-37.857906,144.991994,Comedy
Melbourne Magic Show - Impossible Occurrences,2025-07-18,21:30,Melbourne Marriott Hotel,"Cnr Lonsdale & Exhibition St Melbourne, VIC 3000",https://www.eventbrite.com.au/e/melbourne-magic-show-impossible-occurrences-tickets-947627648807?aff=ebdssbdestsearch,-37.8100597,144.9697004,Theatre
"THE SPILL CANVAS + THE JULIANA THEORY @ MAX WATTS, MELBOURNE",2025-07-18,19:30,Max Watts,"125 Swanston St, Melbourne VIC 3000, Australia",https://www.facebook.com/events/1177322870806011/,-37.8147557,144.9659879,Music
Northern Awards Scholarship Luncheon,2025-07-18,11:30,Melbourne Pavilion,"135-157 Racecourse Road Kensington, VIC 3031",https://www.eventbrite.com.au/e/northern-awards-scholarship-luncheon-tickets-919271244037?aff=ebdssbdestsearch,-37.7891081,144.9364233,Business/Networking
Men Of Dreams - Melbourne,2025-07-19,18:00,60 King St,"60 King Street Melbourne, VIC 3000",https://www.eventbrite.com.au/e/men-of-dreams-melbourne-tickets-1256985019029?aff=ebdssbdestsearch,-37.8188863,144.9571605,Social/Dating
Barnyard Yoga Melbourne,2025-07-19,09:30,Second Story,"222A Johnston Street Collingwood, VIC 3066",https://www.eventbrite.com.au/e/barnyard-yoga-melbourne-tickets-1220530201689?aff=ebdssbdestsearch,-37.799574,144.9924469,Talks/Workshops
Rainbow Hoedown- Sat July 19th at LOEV Moorabbin,2025-07-19,19:00,LOEV,"77 Keys Road Moorabbin, VIC 3189",https://www.eventbrite.com.au/e/rainbow-hoedown-sat-july-19th-at-loev-moorabbin-tickets-1127313056699?aff=ebdssbdestsearch,-37.9484271,145.067727,Social/Dating
Mandy Connell & Jhana Allan at The Lomond Hotel.,2025-07-19,17:00,The Lomond Hotel,"225 Nicholson Street Brunswick East, VIC 3057",https://www.eventbrite.com.au/e/mandy-connell-jhana-allan-at-the-lomond-hotel-tickets-1322707727419?aff=ebdssbdestsearch,-37.7670861,144.9800057,Music
The Hives,2025-07-19,12:00,Forum Melbourne,"150 Flinders St, Melbourne VIC 3000, Australia",https://premier.ticketek.com.au/shows/show.aspx?sh=HIVES25,-37.8166268,144.9695761,
Synthony,2025-07-19,12:00,Margaret Court Arena,"5XHH+G3 Melbourne VIC, Australia",https://premier.ticketek.com.au/shows/show.aspx?sh=SYNTHONY25,-37.8211276,144.9776364,
Where Love Lives 3rd Bday Melbourne feat: BARBARA TUCKER (USA) Live PA,2025-07-19,15:00,The Emerson Rooftop Bar and Club,"141-145 Commercial Road South Yarra, VIC 3141",https://www.eventbrite.com.au/e/where-love-lives-3rd-bday-melbourne-feat-barbara-tucker-usa-live-pa-tickets-1339126155379?aff=ebdssbdestsearch,-37.8462997,144.9911964,Music
VRC Members Race Day,2025-07-19,11:30,Flemington Racecourse,"448 Epsom Road, Flemington Flemington VIC 3031, Australia",https://www.facebook.com/events/696237956333483/,-37.78925135,144.9127712588256,Sport
Where Love Lives 3rd Bday feat: BARBARA TUCKER (USA),2025-07-19,15:00,The Emerson Rooftop Bar and Club,"141-145 Commercial Road South Yarra, VIC 3141",https://www.eventbrite.com.au/e/where-love-lives-3rd-bday-feat-barbara-tucker-usa-tickets-1339126155379?aff=ebdssbdestsearch,-37.8462997,144.9911964,Music
THE FLOYD SHOW - The Pink Floyd Tribute @ Oakleigh Music Hall,2025-07-19,00:00,Oakleigh Carnegie RSL,"95/97 Drummond St, Oakleigh VIC 3166, Australia",https://www.facebook.com/events/1697504987820279/,-37.8968576,145.08963741959553,Music
The Gin Club at The Curtin,2025-07-19,20:00,THE CURTIN (John Curtin hotel),"29 Lygon St, Carlton VIC 3053, Australia",https://www.facebook.com/events/1357286522186941/,-37.8061581,144.9657057,Music
The Herberts - The Ultimate 60s Rock and Pop Experience,2025-07-19,00:00,Carnegie Hall,"60 Rosstown Rd, Carnegie VIC 3163, Australia",https://www.facebook.com/events/1708252393413691/,-37.8864262,145.05686284914034,Music
Sound Circle - Enjoy a deeply relaxing and rebalancing Journey inwards,2025-07-20,16:00,level 1/14 Pakington St,"14 Pakington Street #level 1 St Kilda, VIC 3182",https://www.eventbrite.com.au/e/sound-circle-enjoy-a-deeply-relaxing-and-rebalancing-journey-inwards-tickets-1341455161499?aff=ebdssbdestsearch,-37.8655601,144.9873231,Talks/Workshops
"Learn stand-up comedy in Melbourne this July, 2025",2025-07-20,18:30,Limerick Arms Hotel,"364 Clarendon Street South Melbourne, VIC 3205",https://www.eventbrite.com.au/e/learn-stand-up-comedy-in-melbourne-this-july-2025-tickets-1187648942959?aff=ebdssbdestsearch,-37.8354562,144.9614044,Comedy
Hardcover Journal Making Workshop,2025-07-20,11:00,The District Docklands,"440 Docklands Drive Docklands, VIC 3008",https://www.eventbrite.com.au/e/hardcover-journal-making-workshop-tickets-1352035778409?aff=ebdssbdestsearch,-37.8139029,144.9376542,Talks/Workshops
JULES BOULT AND THE REDEEMERS,2025-07-20,14:00,Way Out West Roots Music Club,"4 Market St, Newport VIC 3015, Australia",https://www.facebook.com/events/632014106404547/,-37.8439028,144.8823845,Music
SELLING FAST! ALL-AGES TAYLOR SWIFT TRIBUTE SHOW AT THE PALMS AT CROWN,2025-07-20,14:30,Palladium at Crown,"Level 1 Crown Towers, Crown Melbourne, 8 Whiteman St, Southbank VIC 3006, Australia",https://www.facebook.com/events/3964871110467381/,-37.822181,144.959875,Music
Change Professional 3-Day Course,2025-07-22,09:30,Melbourne,"To Be Confirmed Melbourne, VIC 3000",https://www.eventbrite.com.au/e/change-professional-3-day-course-tickets-651559701607?aff=ebdssbdestsearch,-37.8152065,144.963937,Business/Networking
Woodcut,2025-07-22,10:00,Australian Print Workshop,"210 Gertrude St Fitzroy, VIC 3065",https://www.eventbrite.com.au/e/woodcut-tickets-1204348491759?aff=ebdssbdestsearch,-37.8064244,144.9815567,Art
Blood Wedding,2025-07-23,19:30,Theatre Works,"Saint Leonards Avenue St Kilda, VIC 3182",https://www.eventbrite.com.au/e/blood-wedding-tickets-1110986794409?aff=ebdssbdestsearch,-37.8638328,144.9768976,Theatre
Bear McCreary,2025-07-23,12:00,Forum Melbourne,"150 Flinders St, Melbourne VIC 3000, Australia",https://premier.ticketek.com.au/shows/show.aspx?sh=BEARMC25,-37.8166268,144.9695761,
EQUATE '25,2025-07-23,10:30,Flemington Racecourse,"448 Epsom Road Flemington, VIC 3031",https://www.eventbrite.com.au/e/equate-25-tickets-1210334235279?aff=ebdssbdestsearch,-37.7868916,144.9203908,Talks/Workshops
RELATIONAL FORMULATION: UNDERSTANDING COMPLEXITY,2025-07-23,09:30,Orygen Colonial  Foundation Innovation Centre,"35 Poplar Road Parkville, VIC 3052",https://www.eventbrite.com.au/e/relational-formulation-understanding-complexity-tickets-1108820474889?aff=ebdssbdestsearch,-37.7801959,144.9478953,Talks/Workshops
YHWH Nailgun | Melbourne,2025-07-23,18:00,THE CURTIN (John Curtin hotel),"29 Lygon St, Carlton VIC 3053, Australia",https://www.facebook.com/events/1170313141564554/,-37.8061581,144.9657057,Music
Damon Smith Trio & Thursday Night Jam!,2025-07-24,00:00,Hume Blues Club Inc,"27 Ballantyne St, Thornbury VIC 3071, Australia",https://www.facebook.com/events/1271621881049143/,-37.7588241,144.9985126,Music
no title,2025-07-24,17:30,The Butterfly Club,"5 Carson Place Melbourne, VIC 3000",https://www.eventbrite.co.uk/e/no-title-tickets-1268063866159?aff=ebdssbdestsearch,-37.8154472,144.9652725,Theatre
StoryBrand Workshop - July 2025,2025-07-24,09:30,Mercure Melbourne Doncaster,"6 Tower Street Doncaster, VIC 3108",https://www.eventbrite.com.au/e/storybrand-workshop-july-2025-tickets-1329299423359?aff=ebdssbdestsearch,-37.786351,145.128142,Business/Networking
MSA On Campus Karaoke Night,2025-07-24,18:00,Sir John's Bar,"21 Chancellors Walk Clayton, VIC 3168",https://www.eventbrite.com.au/e/msa-on-campus-karaoke-night-tickets-1352977665619?aff=ebdssbdestsearch,-37.9118511,145.1329483,Social/Dating
Non Profit Finance Training - Melbourne - July 2025,2025-07-24,10:00,Melbourne,"Online Melbourne, VIC 3000",https://www.eventbrite.com.au/e/non-profit-finance-training-melbourne-july-2025-registration-1323261253029?aff=ebdssbdestsearch,-37.8152065,144.963937,Talks/Workshops
BASIC (Basic Assessment and Support in Intensive Care),2025-07-24,08:00,The Royal Melbourne Hospital,"Intensive Care Unit -  B-Building Level 5 300 Grattan Street Parkville, VIC 3050",https://www.eventbrite.com.au/e/basic-basic-assessment-and-support-in-intensive-care-tickets-1070290099499?aff=ebdssbdestsearch,-37.7988768,144.9553101,Talks/Workshops
Ingested + Algor Mortis + Gutless + Growth - Melbourne - Max Watts,2025-07-24,00:00,Max Watts,"125 Swanston St, Melbourne VIC 3000, Australia",https://www.facebook.com/events/705556305257698/,-37.8147557,144.9659879,Music
Linocut,2025-07-24,10:00,Australian Print Workshop,"210 Gertrude St Fitzroy, VIC 3065",https://www.eventbrite.com.au/e/linocut-tickets-1204362985109?aff=ebdssbdestsearch,-37.8064244,144.9815567,Art
Christmas in July Lunch at Overnewton Castle,2025-07-24,12:00,Overnewton Castle,"51 Overnewton Road Keilor, VIC 3036",https://www.eventbrite.com.au/e/christmas-in-july-lunch-at-overnewton-castle-tickets-1204363737359?aff=ebdssbdestsearch,-37.7048096,144.8209018,Social/Dating
Christmas in July Dinner at Overnewton Castle,2025-07-25,19:00,Overnewton Castle,"51 Overnewton Road Keilor, VIC 3036",https://www.eventbrite.com.au/e/christmas-in-july-dinner-at-overnewton-castle-tickets-1204356064409?aff=ebdssbdestsearch,-37.7048096,144.8209018,Social/Dating
Presentations With A Difference,2025-07-25,09:00,Karstens Conference Centre,"Level 11, 123 Queen Street Melbourne, VIC 3000",https://www.eventbrite.com.au/e/presentations-with-a-difference-tickets-912987880327?aff=ebdssbdestsearch,-37.8157528,144.9607103,Talks/Workshops
Parts of Me: Understanding Schemas in Motherhood,2025-07-25,11:00,Brunswick,"Brunswick Brunswick, VIC 3056",https://www.eventbrite.com.au/e/parts-of-me-understanding-schemas-in-motherhood-registration-1330461037779?aff=ebdssbdestsearch,-37.7666099,144.9584302,Talks/Workshops
Supporting Learners with CVI and Complex Physical Disabilities,2025-07-25,09:00,Cerebral Palsy Education Centre,"Beacon Street Glen Waverley, VIC 3150",https://www.eventbrite.com.au/e/supporting-learners-with-cvi-and-complex-physical-disabilities-tickets-1311303968469?aff=ebdssbdestsearch,-37.8856164,145.1635261,Talks/Workshops
GT Festival Sandown - Shannons SpeedSeries,2025-07-25,09:00,Sandown International Motor Raceway,"591-659 Princes Hwy Springvale, VIC 3171",https://www.eventbrite.com.au/e/gt-festival-sandown-shannons-speedseries-tickets-1235961266419?aff=ebdssbdestsearch,-37.9441995,145.1683789,Sport
Groove Dimension-70s Funk-RNB & Disco-Soul,2025-07-25,20:30,Olympic Hotel,"31 Albert Street Preston, VIC 3072",https://www.eventbrite.com.au/e/groove-dimension-70s-funk-rnb-disco-soul-tickets-1336241888459?aff=ebdssbdestsearch,-37.7465792,145.021604,Music
The Legends of Rugby,2025-07-25,12:00,Grand Hyatt Melbourne,"123 Collins St, Melbourne VIC 3000, Australia",https://premier.ticketek.com.au/shows/show.aspx?sh=LEGRUGBY25,-37.8152075,144.9698275,
DOPE LEMON,2025-07-25,12:00,Forum Melbourne,"150 Flinders St, Melbourne VIC 3000, Australia",https://premier.ticketek.com.au/shows/show.aspx?sh=DOPELEM25,-37.8166268,144.9695761,
The Annual Castan Centre for Human Rights Law Conference,2025-07-25,08:30,"Conversation Quarter and Theatrette,  Conference Centre, Entry 3, State Library Victoria","179 La Trobe Street Melbourne, VIC 3000",https://www.eventbrite.com.au/e/the-annual-castan-centre-for-human-rights-law-conference-tickets-1320621657929?aff=ebdssbdestsearch,-37.809415,144.9652062,Talks/Workshops
Cheers to That: A Night of Books and Beers,2025-07-26,00:00,The Wheeler Centre,"176 Little Lonsdale St, Melbourne VIC 3000, Australia",https://www.facebook.com/events/852468243757378/,-37.8101765,144.9652219,Social/Dating
One Direction 15 Year Anniversary Party - Melbourne,2025-07-26,20:00,Max Watts,"125 Swanston St, Melbourne VIC 3000, Australia",https://www.facebook.com/events/540276355827503/,-37.8147557,144.9659879,Music
Christmas in July,2025-07-26,00:00,Taxi Kitchen,"Taxi Kitchen, Transport Hotel, Level 1 Federation Square, Melbourne VIC 3000, Australia",https://www.facebook.com/events/1707621383461365/,-37.81820779,144.9683928,Social/Dating
Christmas in July at Stamford Plaza Melbourne,2025-07-26,00:00,Stamford Plaza Melbourne,"111 Little Collins St, Melbourne VIC 3000, Australia",https://www.facebook.com/events/2099832587161298/,-37.81359225,144.9700614178762,Social/Dating
"Snuggle Party Brunswick: connect, consent & cuddle",2025-07-26,18:00,Studio Take Care,"1 Pitt Street Brunswick, VIC 3056",https://www.eventbrite.com.au/e/snuggle-party-brunswick-connect-consent-cuddle-tickets-1142083635899?aff=ebdssbdestsearch,-37.7711984,144.9711714,Social/Dating
SOS!!!									The Australian ABBA Tribute Show.,2025-07-26,20:00,Moonee Ponds Bowling Club,"776 Mount Alexander Road Moonee Ponds, VIC 3039",https://www.eventbrite.com.au/e/sos-the-australian-abba-tribute-show-tickets-1316987287429?aff=ebdssbdestsearch,-37.7622056,144.922656,Unknown
Japanese Tea 101,2025-07-26,11:00,Mystik River,"3 Southgate Avenue Southbank, VIC 3006",https://www.eventbrite.com.au/e/japanese-tea-101-tickets-1261816369729?aff=ebdssbdestsearch,-37.820556,144.965833,Talks/Workshops
SUNDAYLICIOUS RnB |  SATURDAY  NIGHT | JULY 26 | 8pm - 3am | LGBTQIA+ event,2025-07-26,20:00,La Di Da,"577 Little Bourke Street Melbourne, VIC 3000",https://www.eventbrite.com.au/e/sundaylicious-rnb-saturday-night-july-26-8pm-3am-lgbtqia-event-tickets-1333355765989?aff=ebdssbdestsearch,-37.8154693,144.9556119,Music
Peruvian Independence Day  @ Plough Hotel Footscray,2025-07-26,18:00,333 Barkly St,"333 Barkly Street Footscray, VIC 3011",https://www.eventbrite.com.au/e/peruvian-independence-day-plough-hotel-footscray-tickets-1329371880079?aff=ebdssbdestsearch,-37.7991718,144.8928504,Music
Manchester Unity Building Tour,2025-07-27,10:00,Manchester Unity Building,"Ground Floor 220 Collins Street Melbourne, VIC 3000",https://www.eventbrite.com.au/e/manchester-unity-building-tour-tickets-1298784893579?aff=ebdssbdestsearch,-37.8182902,144.9566734,Talks/Workshops
MAINSTREAM Conference July 2025,2025-07-27,18:00,CENTREPIECE at Melbourne Park,"Olympic Boulevard Melbourne, VIC 3000",https://www.eventbrite.com.au/e/mainstream-conference-july-2025-tickets-1115065122799?aff=ebdssbdestsearch,-37.8231282,144.9764579,Business/Networking
"Meet Dr Sandra Cabot MD, One Day Only Health Seminar Melbourne, 27 July 25",2025-07-27,09:30,Malvern Town Hall,"1251 High Street Malvern, VIC 3144",https://www.eventbrite.com.au/e/meet-dr-sandra-cabot-md-one-day-only-health-seminar-melbourne-27-july-25-tickets-1307490000789?aff=ebdssbdestsearch,-37.8562757,145.0297103,Talks/Workshops
"Salesforce Administrator Training Melbourne, VIC In-Person Class",2025-07-28,19:00,"Levels 31 & 50/120 Collins St, Melbourne, VIC, 3000, Australia","Levels 31 & 50/120 Collins St Melbourne, VIC 3000",https://www.eventbrite.com/e/salesforce-administrator-training-melbourne-vic-in-person-class-tickets-1339142052929?aff=ebdssbdestsearch,-37.8144291,144.9696066,Talks/Workshops
PODD Speech Generating Device Workshop,2025-07-28,19:30,Cerebral Palsy Education Centre,"Beacon Street Glen Waverley, VIC 3150",https://www.eventbrite.com.au/e/podd-speech-generating-device-workshop-tickets-1320660343639?aff=ebdssbdestsearch,-37.8856164,145.1635261,Talks/Workshops
Certificate II in Security Operations (CPP20218) - Tullamarine,2025-07-28,08:30,Tullamarine,"TBC Tullamarine, VIC 3043",https://www.eventbrite.com.au/e/certificate-ii-in-security-operations-cpp20218-tullamarine-tickets-1301617596269?aff=ebdssbdestsearch,-37.7044206,144.8786231,Talks/Workshops
"PURE - Balayage Mastery Workshop - Melbourne, VIC",2025-07-28,10:00,A√©&M Salon,"21-27 Brunswick Road Shop 4 Brunswick East, VIC 3057",https://www.eventbrite.com.au/e/pure-balayage-mastery-workshop-melbourne-vic-tickets-1254020321539?aff=ebdssbdestsearch,-37.7787636,144.9766404,Talks/Workshops
Employment Law & Workplace Relations Masterclass Melbourne,2025-07-29,09:00,CBD Melbourne,"1/440 Collins St Melbourne, VIC 3000",https://www.eventbrite.com/e/employment-law-workplace-relations-masterclass-melbourne-tickets-1235353277909?aff=ebdssbdestsearch,-37.8170853,144.9598938,Talks/Workshops
AI and Automation In Business‚Äã,2025-07-29,09:00,Melbourne Marriott Hotel Docklands,"15 Waterfront Way Docklands, VIC 3008",https://www.eventbrite.com.au/e/ai-and-automation-in-business-tickets-1323201544439?aff=ebdssbdestsearch,-37.8136886,144.939224,Business/Networking
THE ULTIMATE EVENT ON BUILDING SOCIAL PLATFORMS AND SOCIAL CONNECTION,2025-07-29,06:30,Roxy's Functions & Events,"2 Alfred Place South Melbourne, VIC 3205",https://www.eventbrite.com/e/the-ultimate-event-on-building-social-platforms-and-social-connection-tickets-1278969244439?aff=ebdssbdestsearch,-37.8313626,144.9592064,Business/Networking
DevSecOps Focal Point Forum 2025 | 29 - 30 July 2025 | Melbourne Australia,2025-07-29,09:00,Melbourne Marriott Hotel Docklands,"15 Waterfront Way Docklands, VIC 3008",https://www.eventbrite.com.au/e/devsecops-focal-point-forum-2025-29-30-july-2025-melbourne-australia-tickets-1143819507939?aff=ebdssbdestsearch,-37.8136886,144.939224,Business/Networking
Authentic Assessment in the Early Childhood Years,2025-07-29,09:00,Melbourne,"City Melbourne, VIC 3000",https://www.eventbrite.sg/e/authentic-assessment-in-the-early-childhood-years-tickets-1351463416459?aff=ebdssbdestsearch,-37.8152065,144.963937,Talks/Workshops
The Startup Network Presents: Pitch Night!,2025-07-29,18:00,The Commons Gipps St,"38 Gipps St Collingwood, VIC 3066",https://www.eventbrite.com.au/e/the-startup-network-presents-pitch-night-tickets-1089406116019?aff=ebdssbdestsearch,-37.8041282,144.9882914,Business/Networking
"YTM Progressive Dinner 2025 Insight : Why I started... and why I stopped""",2025-07-29,17:30,The Deck Brighton,"212 Bay Street Brighton, VIC 3186",https://www.eventbrite.com.au/e/ytm-progressive-dinner-2025-insight-why-i-started-and-why-i-stopped-tickets-1280075282629?aff=ebdssbdestsearch,-37.9052818,144.999296,Business/Networking
Ms Julie Gabler: Trapped,2025-07-30,19:30,TW Explosives Factory,"67 Inkerman Street St Kilda, VIC 3182",https://www.eventbrite.com.au/e/ms-julie-gabler-trapped-tickets-1110990906709?aff=ebdssbdestsearch,-37.8646651,144.9842743,Theatre
Motov8ing Boys -  MELBOURNE,2025-07-30,19:00,Deakin University,"LT1A, Building I Burwood, VIC 3125",https://www.eventbrite.com.au/e/motov8ing-boys-melbourne-tickets-1334861991149?aff=ebdssbdestsearch,-37.8494981,145.1090089,Talks/Workshops
Contract Law Fundamentals for Non-Lawyers Masterclass Melbourne,2025-07-30,09:00,CBD Melbourne,"1/440 Collins St Melbourne, VIC 3000",https://www.eventbrite.com/e/contract-law-fundamentals-for-non-lawyers-masterclass-melbourne-tickets-1247634110209?aff=ebdssbdestsearch,-37.8170853,144.9598938,Talks/Workshops
FYI 20% tix sold!! X 'At Home With You' 40th Anniversary FRI 1st AUG @ Shotkicker w/ VELVET PARADE,2025-08-01,20:00,Shotkickers,"744 High St, Thornbury VIC 3071, Australia",https://www.facebook.com/events/671294125814401/,-37.75592655,145.0013923,Music
Plaited Leather Dog Lead Class with Aram Omara,2025-08-01,09:00,Leffler Leather,"171 Kensington Road West Melbourne, VIC 3003",https://www.eventbrite.com.au/e/plaited-leather-dog-lead-class-with-aram-omara-tickets-1119487440069?aff=ebdssbdestsearch,-37.8002118,144.9177331,Talks/Workshops
Report Writing (Melbourne),2025-08-01,09:00,123 Queen St,"123 Queen Street Melbourne, VIC 3000",https://www.eventbrite.com/e/report-writing-melbourne-tickets-750609532317?aff=ebdssbdestsearch,-37.8157528,144.9607103,Talks/Workshops
Baggy Trousers + Loonee Tunes - 'The Sounds of Madness and The Specials' at Australia's Home of Ska ,2025-08-02,19:30,THE CURTIN (John Curtin hotel),"29 Lygon St, Carlton VIC 3053, Australia",https://www.facebook.com/events/1206622287791807/,-37.8061581,144.9657057,Music
Starman The David Bowie Tribute Show at Oakleigh Music Hall,2025-08-02,20:00,Oakleigh Carnegie RSL,"95/97 Drummond St, Oakleigh VIC 3166, Australia",https://www.facebook.com/events/1823070371832721/,-37.8968576,145.08963741959553,Music
Silverstein | Melbourne,2025-08-02,19:00,Northcote Theatre,"216 High St, Northcote VIC 3070, Australia",https://www.facebook.com/events/671149682047847/,-37.7737068,144.9982706,Music
STARS,2025-08-03,14:00,Way Out West Roots Music Club,"4 Market St, Newport VIC 3015, Australia",https://www.facebook.com/events/1088684486636124/,-37.8439028,144.8823845,Music
Developing High Performing Teams Workshop (Melbourne),2025-08-05,09:00,Karstens Melbourne,"123 Queen St, Melbourne VIC 3000, Australia 123 Queen Street Melbourne, VIC 3000",https://www.eventbrite.com.au/e/developing-high-performing-teams-workshop-melbourne-tickets-1116129656849?aff=ebdssbdestsearch,-37.815914,144.9608628,Talks/Workshops
Sondheim Unbound ,2025-08-08,17:30,Paris Cat Jazz Club,"6 Goldie Pl, Melbourne VIC 3000, Australia",https://www.facebook.com/events/673835475281765/,-37.8133262,144.96060714767358,Music
Sons Of The East | Melbourne,2025-08-08,19:00,Northcote Theatre,"216 High St, Northcote VIC 3070, Australia",https://www.facebook.com/events/952696133514412/,-37.7737068,144.9982706,Music
Benchmark Wines of Australia Long Lunch at Smith St Bistrot | Melbourne,2025-08-09,12:30,Smith St Bistrot,"300 Smith Street Collingwood, VIC 3066",https://www.eventbrite.com.au/e/benchmark-wines-of-australia-long-lunch-at-smith-st-bistrot-melbourne-tickets-1292176327179?aff=ebdssbdestsearch,-37.8002354,144.9842903,Social/Dating
Denim & Lace 50th Anniversary Celebration featuring The CLIFF & OLIVIA Show,2025-08-09,19:30,Palladium at Crown,"Level 1 Crown Towers, Crown Melbourne, 8 Whiteman St, Southbank VIC 3006, Australia",https://www.facebook.com/events/598792006459366/,-37.822181,144.959875,Music
[SOLD OUT] The Preatures - 'Blue Planet Eyes' 10th Anniversary Australian Tour - Northcote Theatre,2025-08-09,19:00,Northcote Theatre,"216 High St, Northcote VIC 3070, Australia",https://www.facebook.com/events/445486871960198/,-37.7737068,144.9982706,Music
FELONY. ‚Äì ‚ÄòMIDNIGHT MONEY‚Äô TOUR | MELBOURNE,2025-08-09,19:30,280 Sydney Rd,"280 Sydney Road Brunswick, VIC 3056",https://www.eventbrite.com.au/e/felony-midnight-money-tour-melbourne-tickets-1096924523779?aff=ebdssbdestsearch,-37.7711488,144.9616353,Music
Mark Knight (UK) | Winter Series pres by. Thick as Thieves,2025-08-10,00:00,Revolver Upstairs,"Level 2/229 Chapel St, Prahran VIC 3181, Australia",https://www.facebook.com/events/959576479687718/,-37.8505902,144.9933469,Music
PUP // Melbourne // Do It Australian Tour 2025 // Northcote Theatre | 18+,2025-08-10,19:30,Northcote Theatre,"216 High St, Northcote VIC 3070, Australia",https://www.facebook.com/events/1395843268251417/,-37.7737068,144.9982706,Music
PEPPERCREEK REVIVAL,2025-08-10,14:00,Way Out West Roots Music Club,"4 Market St, Newport VIC 3015, Australia",https://www.facebook.com/events/551560891296898/,-37.8439028,144.8823845,Music
LinkedIn+: LinkedIn and personal branding workshop,2025-08-12,09:30,T.O.M.S Place - Brunswick,"1 Tripovich Street Brunswick, VIC 3056",https://www.eventbrite.com.au/e/linkedin-linkedin-and-personal-branding-workshop-tickets-924964181767?aff=ebdssbdestsearch,-37.7661862,144.9612696,Business/Networking
Creating Successful Futures - The Alliance for Better Childcare Development,2025-08-13,09:00,700 Bourke St,"700 Bourke Street Docklands, VIC 3008",https://www.eventbrite.com.au/e/creating-successful-futures-the-alliance-for-better-childcare-development-tickets-1108884877519?aff=ebdssbdestsearch,-37.8174668,144.9493184,Talks/Workshops
"One Night of Adele - Live at The Palms at Crown, Melbourne, VIC",2025-08-13,00:00,Palladium at Crown,"Level 1 Crown Towers, Crown Melbourne, 8 Whiteman St, Southbank VIC 3006, Australia",https://www.facebook.com/events/1336156307673185/,-37.822181,144.959875,Music
Hypnotist Comedy Show with Gerard V | Stamford Plaza Melbourne,2025-08-15,00:00,Stamford Plaza Melbourne,"111 Little Collins St, Melbourne VIC 3000, Australia",https://www.facebook.com/events/1890806535010513/,-37.81359225,144.9700614178762,Comedy
Developing Executive Presence and Maximising Your Impact (Melbourne),2025-08-15,09:00,Karstens Melbourne,"123 Queen St, Melbourne VIC 3000, Australia 123 Queen Street Melbourne, VIC 3000",https://www.eventbrite.com.au/e/developing-executive-presence-and-maximising-your-impact-melbourne-tickets-1116140248529?aff=ebdssbdestsearch,-37.8157528,144.9607103,Business/Networking
Toni Childs - A Retrospective - The Palms At Crown,2025-08-15,19:30,Palladium at Crown,"Level 1 Crown Towers, Crown Melbourne, 8 Whiteman St, Southbank VIC 3006, Australia",https://www.facebook.com/events/1404417827535166/,-37.822181,144.959875,Music
Portal + B√∏lzer | Melbourne | Max Watts,2025-08-16,00:00,Max Watts,"125 Swanston St, Melbourne VIC 3000, Australia",https://www.facebook.com/events/1301143130973380/,-37.8147557,144.9659879,Music
Nastia (UA) | Winter Series pres by. Thick as Thieves,2025-08-17,00:00,Revolver Upstairs,"Level 2/229 Chapel St, Prahran VIC 3181, Australia",https://www.facebook.com/events/1296236871473442/,-37.8505902,144.9933469,Music
"Tyler, The Creator",2025-08-20,19:30,Rod Laver Arena,"200 Batman Ave, Melbourne VIC 3000, Australia",https://premier.ticketek.com.au/shows/show.aspx?sh=TYLERTHE25,-37.8216161,144.9785584,
"Conflict Management Tactics  - 1 Day Workshop, Melbourne",2025-08-20,09:00,Karstens Melbourne,"123 Queen Street Melbourne, VIC 3000",https://www.eventbrite.com.au/e/conflict-management-tactics-1-day-workshop-melbourne-tickets-133044274005?aff=ebdssbdestsearch,-37.8157528,144.9607103,Talks/Workshops
BNI Platinum One - Networking at MCG,2025-08-21,06:45,Melbourne Cricket Ground,"Brunton Avenue Richmond, VIC 3002",https://www.eventbrite.com.au/e/bni-platinum-one-networking-at-mcg-tickets-1117096699299?aff=ebdssbdestsearch,-37.8214457,144.9834593,Business/Networking
The Machine Stops,2025-08-22,19:30,Theatre Works,"Saint Leonards Avenue St Kilda, VIC 3182",https://www.eventbrite.com.au/e/the-machine-stops-tickets-1110782302769?aff=ebdssbdestsearch,-37.8638328,144.9768976,Theatre
Akmal - LIVE - Thornbury,2025-08-22,19:30,The Thornbury Theatre,"859 High St, Thornbury VIC 3071, Australia",https://www.facebook.com/events/594485380317679/,-37.754662,145.0011167,Comedy
Altona Beach Film Festival | 2025 Film Premiere & Award Presentation,2025-08-23,00:00,Altona Sports Club,"11 Altona Rd, Altona VIC 3018, Australia",https://www.facebook.com/events/1428262988554725/,-37.85754867,144.85121805353086,Cinema
"Duncan Trussell: Thornbury Theatre, Melbourne",2025-08-23,18:00,The Thornbury Theatre,"859 High St, Thornbury VIC 3071, Australia",https://www.facebook.com/events/1886191708876144/,-37.754662,145.0011167,Comedy
Dr Joe Dispenza CHANGE YOUR MIND‚Ä¶CREATE NEW RESULTS with Angelina Morley,2025-08-24,08:30,Melbourne CERES in the Van Raay Room,"Cnr Stewart Street Roberts Street Brunswick East, VIC 3057",https://www.eventbrite.com/e/dr-joe-dispenza-change-your-mindcreate-new-results-with-angelina-morley-tickets-1055671936179?aff=ebdssbdestsearch,-37.7656615,144.9824113,Talks/Workshops
The Simon & Garfunkel Story,2025-08-24,12:00,Hamer Hall,"32 Southgate Ave, Southbank VIC 3006, Australia",https://premier.ticketek.com.au/shows/show.aspx?sh=SIMONGAR25,-37.8201455,144.9679946,
Keith Urban,2025-08-25,12:00,Rod Laver Arena,"200 Batman Ave, Melbourne VIC 3000, Australia",https://premier.ticketek.com.au/shows/show.aspx?sh=KEITHURB25,-37.8216161,144.9785584,
Alex Warren,2025-08-25,12:00,Forum Melbourne,"150 Flinders St, Melbourne VIC 3000, Australia",https://premier.ticketek.com.au/shows/show.aspx?sh=WARREN25,-37.8166268,144.9695761,
Time Management Training Course (Melbourne),2025-08-27,09:00,Karstens Melbourne,"123 Queen St, Melbourne VIC 3000, Australia 123 Queen Street Melbourne, VIC 3000",https://www.eventbrite.com.au/e/time-management-training-course-melbourne-tickets-1112144587399?aff=ebdssbdestsearch,-37.815914,144.9608628,Talks/Workshops
Russell Morris,2025-08-27,12:00,Hamer Hall,"32 Southgate Ave, Southbank VIC 3006, Australia",https://premier.ticketek.com.au/shows/show.aspx?sh=RUSSELLM25,-37.8201455,144.9679946,
Implementing SSP in Primary Schools Using PLD,2025-08-29,09:00,United Co.,"425 Smith Street Fitzroy, VIC 3065",https://www.eventbrite.com.au/e/implementing-ssp-in-primary-schools-using-pld-tickets-1231756760629?aff=ebdssbdestsearch,-37.7956368,144.9844614,Talks/Workshops
Saving Grace - Jungle Fever Tour,2025-08-31,05:00,Saving Grace,"32 Church Ln, Melbourne VIC 3000, Australia",https://www.facebook.com/events/1363156408070206/,-37.8177293,144.9577832,Music
Prioritising & Planning Workshop (Brisbane),2025-09-02,09:00,123 Queen St,"123 Queen Street Melbourne, VIC 3000",https://www.eventbrite.com/e/prioritising-planning-workshop-brisbane-tickets-732667637627?aff=ebdssbdestsearch,-37.8157528,144.9607103,Talks/Workshops
Paul Kelly,2025-09-02,12:00,MyState Bank Arena,"601 Brooker Hwy, Glenorchy TAS 7010, Australia",https://premier.ticketek.com.au/shows/show.aspx?sh=PAULKELL25&v=MYB,-42.82416569999999,147.2827222,
"Effective Communication Skills  with DISC - 1 Day Workshop, Melbourne",2025-09-02,09:00,Karstens Melbourne,"123 Queen Street Melbourne, VIC 3000",https://www.eventbrite.com.au/e/effective-communication-skills-with-disc-1-day-workshop-melbourne-tickets-133031925069?aff=ebdssbdestsearch,-37.8157528,144.9607103,Talks/Workshops
Minute Taking Skills Workshop (Melbourne),2025-09-03,09:00,123 Queen St,"123 Queen Street Melbourne, VIC 3000",https://www.eventbrite.com/e/minute-taking-skills-workshop-melbourne-tickets-744796776207?aff=ebdssbdestsearch,-37.8157528,144.9607103,Talks/Workshops
Sabaton,2025-09-05,12:00,Margaret Court Arena,"5XHH+G3 Melbourne VIC, Australia",https://premier.ticketek.com.au/shows/show.aspx?sh=SABAT25,-37.8211276,144.9776364,
Evolution Events presents Evolve Boiler 360 Vol.2,2025-09-06,17:00,Festival Hall,"300 Dudley St, West Melbourne VIC 3003, Australia",https://www.facebook.com/events/1721845811756276/,-37.8098193,144.9508057,Other
Max Styler (US) | Winter Series pres by. Thick as Thieves,2025-09-07,00:00,Revolver Upstairs,"Level 2/229 Chapel St, Prahran VIC 3181, Australia",https://www.facebook.com/events/2138787836578501/,-37.8505902,144.9933469,Music
Ray Chen in Recital,2025-09-08,12:00,Hamer Hall,"100 St Kilda Rd, Southbank VIC 3004, Australia",https://premier.ticketek.com.au/shows/show.aspx?sh=RAYCHEN25,-37.8201455,144.9679946,
Critical Thinking Training,2025-09-09,07:30,Melbourne,"Melbourne Melbourne, VIC",https://www.eventbrite.com.au/e/critical-thinking-training-tickets-886595008537?aff=ebdssbdestsearch,-37.8136276,144.9630576,Talks/Workshops
