Event_Title,Date,Time,Venue,Address,url,Latitude,Longitude,Category
Tom Morello,2025-04-13,12:00,Forum Melbourne,"150 Flinders St, Melbourne VIC 3000, Australia",https://premier.ticketek.com.au/shows/show.aspx?sh=TOMMO25,-37.8166268,144.9695761,
Tarot Club,2025-04-13,16:30,Shellspace,"8 McIver Street Brunswick, VIC 3056",https://www.eventbrite.com.au/e/tarot-club-tickets-1306287484029?aff=ebdssbdestsearch,-37.768709,144.963746,
Manchester Unity Building Tour,2025-04-13,12:00,Manchester Unity Building,"Ground Floor 220 Collins Street Melbourne, VIC 3000",https://www.eventbrite.com.au/e/manchester-unity-building-tour-tickets-1115104681119?aff=ebdssbdestsearch,-37.8152473,144.9661527,
Lunch Club,2025-04-13,13:30,Old Palm Liquor,"133B Lygon Street Brunswick East, VIC 3057",https://www.eventbrite.com/e/lunch-club-tickets-1105145452799?aff=ebdssbdestsearch,-37.7739559,144.9709987,
Aura Numerology Workshop at The Vegan Market,2025-04-13,10:00,Coburg Town Hall,"90 Bell Street Coburg, VIC 3058",https://www.eventbrite.com/e/aura-numerology-workshop-at-the-vegan-market-tickets-1128169468249?aff=ebdssbdestsearch,-37.7408943,144.9695726,
Nikon Experience: Creative Portraiture & Light Painting,2025-04-13,14:00,Got Next Studios,"Suit 4/105 Whitehall st, Footscray Melbourne, VIC 3011",https://www.eventbrite.com.au/e/nikon-experience-creative-portraiture-light-painting-tickets-1232343836589?aff=ebdssbdestsearch,-37.8069293,144.9036935,
Sip & Paint: Nothing but Vibes!,2025-04-13,15:00,Geelong Road,"Geelong Road West Footscray, VIC 3012",https://www.eventbrite.com.au/e/sip-paint-nothing-but-vibes-tickets-1252604657249?aff=ebdssbdestsearch,-37.8088693,144.8734801,
BarterJar,2025-04-13,14:00,Bridge Darebin - Preston,"218 High Street Preston, VIC 3072",https://www.eventbrite.com.au/e/barterjar-tickets-1255205115289?aff=ebdssbdestsearch,-37.744297,145.003275,
Mindful Meetup April - Circle & Yap,2025-04-13,11:30,She'll Space,"8 McIver Street Brunswick, VIC 3056",https://www.eventbrite.com.au/e/mindful-meetup-april-circle-yap-tickets-1304951798959?aff=ebdssbdestsearch,-37.768709,144.963746,
Friends On Purpose: Wine Tasting,2025-04-13,15:00,Sapphirus Cafe and Bar,"289 Huntingdale road Oakleigh, VIC 3166",https://www.eventbrite.com.au/e/friends-on-purpose-wine-tasting-tickets-1298749347259?aff=ebdssbdestsearch,-37.9096592,145.103597,
State Trial 1: Women's Artistic and Trampoline Gymnastics,2025-04-13,08:00,Gymnastics Victoria: State Gymnastics Centre,"41 Green Street #Fl 3 Windsor, VIC 3181",https://www.eventbrite.com.au/e/state-trial-1-womens-artistic-and-trampoline-gymnastics-tickets-1298645857719?aff=ebdssbdestsearch,-37.8528559,144.9912179,
SECOND LIFE MARKETS: Melbourne 13th April,2025-04-13,10:30,Younghusband,"50 Elizabeth Street #2 Kensington, VIC 3031",https://www.eventbrite.com.au/e/second-life-markets-melbourne-13th-april-tickets-1289560342699?aff=ebdssbdestsearch,-37.7966691,144.9323642,
Pasifika Movement & Intentional Cacao,2025-04-13,06:30,Hatt Reserve,"Esplanade Williamstown, VIC 3016",https://www.eventbrite.com.au/e/pasifika-movement-intentional-cacao-tickets-1288965102319?aff=ebdssbdestsearch,-37.8679435,144.8943935,
Friends On Purpose: Wine Mixer,2025-04-13,13:00,Sapphirus Cafe and Bar,"289 Huntingdale road Oakleigh, VIC 3166",https://www.eventbrite.com.au/e/friends-on-purpose-wine-mixer-tickets-1298749347259?aff=ebdssbdestsearch,-37.9096592,145.103597,
WELCOME TO 82 - NEPALESE NEW YEAR EVE 2082,2025-04-13,19:00,Diesel Bar & Eatery,"202 Little Lonsdale Street Melbourne, VIC 3000",https://www.eventbrite.com.au/e/welcome-to-82-nepalese-new-year-eve-2082-tickets-1298813599439?aff=ebdssbdestsearch,-37.8107335,144.9634703,
SUNDAY SINGLES SESSION 35’s+,2025-04-13,13:00,Fitzroy Gardens,"Wellington Parade East Melbourne, VIC 3002",https://www.eventbrite.com.au/e/sunday-singles-session-35s-tickets-1298430784429?aff=ebdssbdestsearch,-37.8162335,144.983392,
"LOEV's Women Speed Dating- The Brunch Edition: April 13th, Moorabbin",2025-04-13,13:00,LOEV,"77 Keys Road Moorabbin, VIC 3189",https://www.eventbrite.com.au/e/loevs-women-speed-dating-the-brunch-edition-april-13th-moorabbin-tickets-1234223107539?aff=ebdssbdestsearch,-37.9484271,145.067727,
Friends On Purpose: Puppy Yoga,2025-04-13,14:00,Puppy Yoga,"Bondi Studio Sydney, NSW 2016",https://www.eventbrite.com.au/e/friends-on-purpose-puppy-yoga-tickets-1298762526679?aff=ebdssbdestsearch,-33.892215,151.205873,
"9D Breathwork ""Unleash Your Power""",2025-04-13,14:00,infinite co studio,"14 Pakington Street St Kilda, VIC 3182",https://www.eventbrite.com.au/e/9d-breathwork-unleash-your-power-tickets-1289494586019?aff=ebdssbdestsearch,-37.8655601,144.9873231,
SIMPLIFIED STRENGTH - Melbourne,2025-04-13,10:00,Iron Revolution Gym,"22 Disney Avenue #Unit 11 Keilor East, VIC 3033",https://www.eventbrite.com/e/simplified-strength-melbourne-tickets-1209444303469?aff=ebdssbdestsearch,-37.73328900000001,144.8546905,
Easter  Wonderland High Tea - Kids Event,2025-04-13,11:00,Sunshine Social - BBQ,"64 Glengala Road Sunshine West, VIC 3020",https://www.eventbrite.com.au/e/easter-wonderland-high-tea-kids-event-tickets-1288133254239?aff=ebdssbdestsearch,-37.79020089999999,144.818292,
LEAP - Sacred Circle Full Moon Flow,2025-04-14,18:30,South Melbourne Life Saving Club,"72B Beaconsfield Parade Albert Park, VIC 3206",https://www.eventbrite.com.au/e/leap-sacred-circle-full-moon-flow-tickets-1254090752199?aff=ebdssbdestsearch,-37.84710949999999,144.9465725,
Broadway Bound | MELB | School Holiday Workshop,2025-04-14,10:00,Australian Institute of Music Melbourne,"120 King Street Melbourne, VIC 3000",https://www.eventbrite.com.au/e/broadway-bound-melb-school-holiday-workshop-tickets-1227131235559?aff=ebdssbdestsearch,-37.81714789999999,144.9564705,
North West Melb Launch Event ”Business growth through womanhood”,2025-04-15,10:00,Mamma Lina's Bar Cafe,"1057 Mount Alexander Road Essendon, VIC 3040",https://www.eventbrite.com.au/e/north-west-melb-launch-event-business-growth-through-womanhood-tickets-1292669492249?aff=ebdssbdestsearch,-37.7460977,144.9107018,
The Libertines,2025-04-15,12:00,Forum Melbourne,"150 Flinders St, Melbourne VIC 3000, Australia",https://premier.ticketek.com.au/shows/show.aspx?sh=LIBERTIN25,-37.8166268,144.9695761,
MSEP Emergency Birth program for Paramedics,2025-04-15,08:00,Kathleen Syme Library and Community Centre,"251 Faraday Street Carlton, VIC 3053",https://www.eventbrite.com.au/e/msep-emergency-birth-program-for-paramedics-tickets-1261871905839?aff=ebdssbdestsearch,-37.7986481,144.9652272,
Youth Athlete Development Workshop: Strength & Nutrition,2025-04-15,13:00,17A Showers St,"17A Showers Street Preston, VIC 3072",https://www.eventbrite.com.au/e/youth-athlete-development-workshop-strength-nutrition-tickets-1260492199099?aff=ebdssbdestsearch,-37.7487879,145.0004162,
Sensory Tray Session- EASTER EVENT,2025-04-15,10:00,Janefield Community Centre,"2 Manchester Crescent Bundoora, VIC 3083",https://www.eventbrite.com.au/e/sensory-tray-session-easter-event-tickets-1288751934729?aff=ebdssbdestsearch,-37.6830538,145.0745348,
Prokick Australia - MELBOURNE TRY-OUTS NFL/COLLEGE *MULTIPLE DATES*,2025-04-15,11:30,Paul Wade Field,"Aughtie Drive St Kilda, VIC 3182",https://www.eventbrite.com/e/prokick-australia-melbourne-try-outs-nflcollege-multiple-dates-tickets-1272181662599?aff=ebdssbdestsearch,-37.8528059,144.9724569,
Small Group Breathwork Journey,2025-04-15,19:00,Merkaba Studio,"15 Mills Street Cheltenham, VIC 3192",https://www.eventbrite.com.au/e/small-group-breathwork-journey-tickets-1252865768239?aff=ebdssbdestsearch,-37.9560125,145.0740554,
FITZROY SPEED DATING FOR AGES 25-39,2025-04-16,19:00,Polly Bar,"401 Brunswick Street Melbourne, VIC 3065",https://www.eventbrite.com.au/e/fitzroy-speed-dating-for-ages-25-39-tickets-1204315342609?aff=ebdssbdestsearch,-37.7950784,144.9786736,
Comedy Night ft Peter Helliar and Peter Rowsthorn hosted by Kirsty Webeck!,2025-04-16,19:00,Welcome to Brunswick,"408 Sydney Road Brunswick, VIC 3056",https://www.eventbrite.com.au/e/comedy-night-ft-peter-helliar-and-peter-rowsthorn-hosted-by-kirsty-webeck-tickets-1279037588859?aff=ebdssbdestsearch,-37.7684338,144.9621623,
DO MASTAANE – A Comedy Special by Abhishek Upmanyu & Devesh Dixit,2025-04-16,07:30,The Comic's Lounge,"26 Errol Street #1 North Melbourne, VIC 3051",https://www.eventbrite.com.au/e/do-mastaane-a-comedy-special-by-abhishek-upmanyu-devesh-dixit-tickets-1234533144869?aff=ebdssbdestsearch,-37.8045082,144.9495239,
AI Adoption Stories - From Australian Red Cross Lifeblood & Transurban,2025-04-16,18:00,Kathleen Syme Library and Community Centre,"251 Faraday Street Carlton, VIC 3053",https://www.eventbrite.com.au/e/ai-adoption-stories-from-australian-red-cross-lifeblood-transurban-tickets-1302441771399?aff=ebdssbdestsearch,-37.7986481,144.9652272,
Sektion Sound Presents: Ewake Masterclass,2025-04-16,19:00,18 Dawson St,"18 Dawson Street Brunswick, VIC 3056",https://www.eventbrite.com.au/e/sektion-sound-presents-ewake-masterclass-tickets-1302827123999?aff=ebdssbdestsearch,-37.77119820000001,144.9590141,
Mastering Health Communication with Bianca Nogrady,2025-04-16,08:45,WeWork,"120 Spencer Street Level 22 Melbourne, VIC 3000",https://www.eventbrite.com.au/e/mastering-health-communication-with-bianca-nogrady-tickets-1285481793649?aff=ebdssbdestsearch,-37.8182394,144.9542081,
Riot Underage • April 16th 2025,2025-04-16,17:00,Chasers Venue,"386 Chapel Street South Yarra, VIC 3141",https://www.eventbrite.com.au/e/riot-underage-april-16th-2025-tickets-1217467491039?aff=ebdssbdestsearch,-37.8459028,144.9947039,
Heritage Hobsons Bay Trivia Night,2025-04-16,18:00,Royal Yacht Club of Victoria,"120 Nelson Place Williamstown, VIC 3016",https://www.eventbrite.com.au/e/heritage-hobsons-bay-trivia-night-tickets-1250739749259?aff=ebdssbdestsearch,-37.8626458,144.9063544,
Toto,2025-04-16,12:00,John Cain Arena,"35 Olympic Blvd, Melbourne VIC 3000, Australia",https://premier.ticketek.com.au/shows/show.aspx?sh=TOTO25,-37.8227725,144.9819687,
Performance & Songwriting| MELB | School Holiday Workshop,2025-04-16,10:00,Australian Institute of Music,"120 King Street Melbourne, VIC 3000",https://www.eventbrite.com.au/e/performance-songwriting-melb-school-holiday-workshop-tickets-1227133412069?aff=ebdssbdestsearch,-37.81714789999999,144.9564705,
Mid Semester PJ Party,2025-04-17,21:00,Love Machine,"228a Malvern Rd Prahran, VIC 3181",https://www.eventbrite.com.au/e/mid-semester-pj-party-tickets-1295311133469?aff=ebdssbdestsearch,-37.8471331,144.9948088,
Tromba Latin Fiesta Easter Thursday - Bad Bunny Wonderland,2025-04-17,21:00,Ms Collins,"425 Collins Street Melbourne, VIC 3000",https://www.eventbrite.com.au/e/tromba-latin-fiesta-easter-thursday-bad-bunny-wonderland-tickets-1302956210099?aff=ebdssbdestsearch,-37.8174565,144.9606326,
MAMI & FRIENDS - GOOD FRIDAY EVE,2025-04-17,22:00,199 Commercial Rd,"199 Commercial Road South Yarra, VIC 3141",https://www.eventbrite.com.au/e/mami-friends-good-friday-eve-tickets-1301708959539?aff=ebdssbdestsearch,-37.8465589,144.993086,
"Freak Out, Billie Jean.. It's Easter Thursday!!! xo",2025-04-17,20:00,Club Retro,"383 Lonsdale Street Melbourne, VIC 3000",https://www.eventbrite.com.au/e/freak-out-billie-jean-its-easter-thursday-xo-tickets-1300289293279?aff=ebdssbdestsearch,-37.8128025,144.9611855,
MASS Trivia Night 2025,2025-04-17,18:00,The Promenade Docklands,"78 Newquay Promenade #Suite 2, Level 1 Docklands, VIC 3008",https://www.eventbrite.com.au/e/mass-trivia-night-2025-tickets-1305689565639?aff=ebdssbdestsearch,-37.8145014,144.9392306,
Brava  Women Networking IN PERSON April 17th 2025 - Chadstone,2025-04-17,10:00,LXD Business Centre,"1341 Dandenong Road #Tower 1,Ground Level Chadstone, VIC 3148",https://www.eventbrite.com.au/e/brava-women-networking-in-person-april-17th-2025-chadstone-tickets-1277799545839?aff=ebdssbdestsearch,-37.8859034,145.085521,
Conscious Connection | House Party (ages 20-40),2025-04-17,19:00,Northside Wines,"543-545 High Street Northcote, VIC 3070",https://www.eventbrite.com.au/e/conscious-connection-house-party-ages-20-40-tickets-1289124067789?aff=ebdssbdestsearch,-37.764227,144.9994439,
LUX VIP MELB : BRAND PARTNER : Cinder Private Dining,2025-04-17,06:30,Cinder,"18 Brennand Street Fitzroy North, VIC 3068",https://www.eventbrite.com.au/e/lux-vip-melb-brand-partner-cinder-private-dining-tickets-1271770552959?aff=ebdssbdestsearch,-37.7850103,144.9945336,
Gigi Rooftop - Farewell Summer Closing Party,2025-04-17,18:00,Gigi Rooftop,"917 High Street Level 2 Thornbury, VIC 3071",https://www.eventbrite.com.au/e/gigi-rooftop-farewell-summer-closing-party-tickets-1295282106649?aff=ebdssbdestsearch,-37.752655,145.001404,
SUNDAYLICIOUS RnB | EASTER LONG WEEKEND | THURSDAY EVE APRIL 17 | 9pm - 3am,2025-04-17,21:00,La Di Da,"577 Little Bourke Street Melbourne, VIC 3000",https://www.eventbrite.com.au/e/sundaylicious-rnb-easter-long-weekend-thursday-eve-april-17-9pm-3am-tickets-1080058186109?aff=ebdssbdestsearch,-37.8154693,144.9556119,
Good Friday Eve Rooftop Party,2025-04-17,20:00,onesixone rooftop,"161 High St Prahran, VIC 3181",https://www.eventbrite.com.au/e/good-friday-eve-rooftop-party-tickets-1303700777119?aff=ebdssbdestsearch,-37.85173229999999,144.9936589,
"Bollywood Club - GULABO at Spice Market, Melbourne",2025-04-17,22:00,Spice Market,"Beaney Lane Melbourne, VIC 3000",https://www.eventbrite.com.au/e/bollywood-club-gulabo-at-spice-market-melbourne-tickets-1292422483439?aff=ebdssbdestsearch,-37.8150914,144.9692403,
"Badass Women Networking Night- April 17th, LOEV Moorabbin",2025-04-17,18:30,LOEV,"77 Keys Road Moorabbin, VIC 3189",https://www.eventbrite.com.au/e/badass-women-networking-night-april-17th-loev-moorabbin-tickets-1291088192539?aff=ebdssbdestsearch,-37.9484271,145.067727,
MELBOURNE EMO EASTER GOOD FRIDAY EVE  THURS 17TH APRIL 2025,2025-04-17,20:00,Deluxe Bar,"595 Mount Alexander Road Moonee Ponds, VIC 3039",https://www.eventbrite.com.au/e/melbourne-emo-easter-good-friday-eve-thurs-17th-april-2025-tickets-1287233944379?aff=ebdssbdestsearch,-37.768313,144.925046,
Novel presents The Trip (UK),2025-04-17,22:00,Sub Club Melbourne,"Flinders Court Melbourne, VIC 3000",https://www.eventbrite.com.au/e/novel-presents-the-trip-uk-tickets-1278965513279?aff=ebdssbdestsearch,-37.8179755,144.9644539,
Good Friday - John Course - 8 Hour Set,2025-04-18,14:00,The Railway Hotel- Windsor,"29 Chapel Street Windsor, VIC 3181",https://www.eventbrite.com.au/e/good-friday-john-course-8-hour-set-tickets-1255154473819?aff=ebdssbdestsearch,-37.8566744,144.9922172,
BRUNCHBEATS 3.0 - AFROHOUSE X UKG,2025-04-18,18:00,LOLA St Kilda,"60 Fitzroy Street St Kilda, VIC 3182",https://www.eventbrite.com.au/e/brunchbeats-30-afrohouse-x-ukg-tickets-1297631995229?aff=ebdssbdestsearch,-37.85938429999999,144.9774614,
Teddy Bear Hospital at Kids Day Out 2025,2025-04-18,10:00,Melbourne Convention and Exhibition Centre (MCEC),"1 Convention Centre Place South Wharf, VIC 3006",https://www.eventbrite.com.au/e/teddy-bear-hospital-at-kids-day-out-2025-tickets-1247804499849?aff=ebdssbdestsearch,-37.82520299999999,144.952251,
Victony Live In Melbourne,2025-04-18,16:00,The Third Day,"290 Macaulay Road North Melbourne, VIC 3051",https://www.eventbrite.com.au/e/victony-live-in-melbourne-tickets-1252772388939?aff=ebdssbdestsearch,-37.7946786,144.9367079,
Planted 2025,2025-04-18,10:30,13 Link Ct,"13 Link Court Brooklyn, VIC 3012",https://www.eventbrite.com.au/e/planted-2025-tickets-1254029599289?aff=ebdssbdestsearch,-37.8226143,144.8570075,
Monsters of Riff,2025-04-18,19:30,Northcote Social Club,"301 High St, Northcote VIC 3070, Australia",https://www.facebook.com/events/634617689063712/,-37.771471,144.998414,
SONDA TOUR: MELBOURNE,2025-04-18,22:00,The Emerson Rooftop Bar and Club,"141-145 Commercial Road South Yarra, VIC 3141",https://www.eventbrite.com.au/e/sonda-tour-melbourne-tickets-1266927106079?aff=ebdssbdestsearch,-37.8462997,144.9911964,
(Good) Friday I'm In Love - Stay Goth,2025-04-18,23:00,Stay Gold,"133 Sydney Road Brunswick, VIC 3056",https://www.eventbrite.com.au/e/good-friday-im-in-love-stay-goth-tickets-1280357326229?aff=ebdssbdestsearch,-37.77435880000001,144.9606103,
RELOAD,2025-04-18,22:00,Laundry Bar,"50 Johnston Street Fitzroy, VIC 3065",https://www.eventbrite.com/e/reload-tickets-1303814096059?aff=ebdssbdestsearch,-37.79831,144.976368,
DAYDANSE @ Revolver (Good Friday),2025-04-18,12:00,Revolver Upstairs,"229 Chapel Street Prahran, VIC 3181",https://www.eventbrite.com.au/e/daydanse-revolver-good-friday-tickets-1309517495079?aff=ebdssbdestsearch,-37.8504915,144.9933589,
Tech Networking Event by Startup Valley  in Melbourne,2025-04-18,18:00,215 Queen's Restaurant and Bar Melbourne,"215 Queen Street Melbourne, VIC 3000",https://www.eventbrite.com/e/tech-networking-event-by-startup-valley-in-melbourne-tickets-1296557481329?aff=ebdssbdestsearch,-37.8137882,144.9598785,
WELL THANKS GOOD FRIDAY FUN RUN,2025-04-18,09:00,Princes Park - Lawn 3 (Next to Ikon Park),"200-590 Royal Parade Carlton North, VIC 3054",https://www.eventbrite.com.au/e/well-thanks-good-friday-fun-run-tickets-1266967867999?aff=ebdssbdestsearch,-37.7788812,144.962037,
Easter Family Fun Day,2025-04-19,11:00,231-251 Mt Alexander Rd,"231-251 Mount Alexander Road Ascot Vale, VIC 3032",https://www.eventbrite.com.au/e/easter-family-fun-day-tickets-1273610827269?aff=ebdssbdestsearch,-37.7793109,144.9302118,
Light Language Galactivation Transmission–Soul Activation & Energy Healing.,2025-04-19,10:30,Centre of You,"Upstairs, 217 Chapel St Prahran Melbourne, VIC 3181",https://www.eventbrite.com.au/e/light-language-galactivation-transmissionsoul-activation-energy-healing-tickets-1297583279519?aff=ebdssbdestsearch,-37.8509316,144.9933031,
Lesbian Wine Club - Pray for Gay | Unholy Saturday,2025-04-19,19:30,Caz Reitop's Dirty Secrets,"80 Smith Street Collingwood, VIC 3066",https://www.eventbrite.co.uk/e/lesbian-wine-club-pray-for-gay-unholy-saturday-tickets-1292621759479?aff=ebdssbdestsearch,-37.8059003,144.9831738,
Club Nicki MELB - Nicki Minaj + female rap tribute party (Easter Saturday),2025-04-19,22:00,Chasers Nightclub,"386 Chapel Street South Yarra, VIC 3141",https://www.eventbrite.com.au/e/club-nicki-melb-nicki-minaj-female-rap-tribute-party-easter-saturday-tickets-1290943409489?aff=ebdssbdestsearch,-37.8459028,144.9947039,
Energy In Motion - An Ecstatic Dance & Cacao Journey.,2025-04-19,18:30,Centre of You,"Upstairs, 217 Chapel St Prahran Melbourne, VIC 3181",https://www.eventbrite.com.au/e/energy-in-motion-an-ecstatic-dance-cacao-journey-tickets-1277163072129?aff=ebdssbdestsearch,-37.8509316,144.9933031,
luv4her,2025-04-19,19:00,Stay Gold,"133 Sydney Road Brunswick, VIC 3056",https://www.eventbrite.com.au/e/luv4her-tickets-1245626695979?aff=ebdssbdestsearch,-37.77435880000001,144.9606103,
ENSTER SUNDAY,2025-04-20,22:00,Royal Melbourne Hotel,"629 Bourke Street Melbourne, VIC 3000",https://www.eventbrite.com.au/e/enster-sunday-tickets-1117446686119?aff=ebdssbdestsearch,-37.8168528,144.9552468,
CLUB MODA MELBOURNE | 20.04.25 | EASTER SUNDAY | ALBION ROOFTOP,2025-04-20,21:00,The Albion Rooftop,"172 York Street South Melbourne, VIC 3205",https://www.eventbrite.com.au/e/club-moda-melbourne-200425-easter-sunday-albion-rooftop-tickets-1292427217599?aff=ebdssbdestsearch,-37.8315105,144.9560408,
"Learn stand-up comedy in Melbourne this April with Danny McGinlay, 2025",2025-04-20,18:30,Roxy's Functions & Events,"2 Alfred Place South Melbourne, VIC 3205",https://www.eventbrite.com.au/e/learn-stand-up-comedy-in-melbourne-this-april-with-danny-mcginlay-2025-tickets-1023147109547?aff=ebdssbdestsearch,-37.8314108,144.9592778,
WLU Presents: Sneaky Link Melbourne,2025-04-20,16:00,The Emerson Rooftop Bar and Club,"141-145 Commercial Road South Yarra, VIC 3141",https://www.eventbrite.com.au/e/wlu-presents-sneaky-link-melbourne-tickets-1298788825339?aff=ebdssbdestsearch,-37.8462997,144.9911964,
Ekhaya Piano Groove Experience  ft Nandipha808 & Dolly Ditebogo,2025-04-20,16:00,The Third Day,"290 Macaulay Road North Melbourne, VIC 3051",https://www.eventbrite.com.au/e/ekhaya-piano-groove-experience-ft-nandipha808-dolly-ditebogo-tickets-1252637836489?aff=ebdssbdestsearch,-37.7946786,144.9367079,
Easter Luncheon 2025 - Reggio Calabria Club - Member's Lounge & Bistroteca,2025-04-20,12:30,"Reggio Calabria Club - Italian Bistro, Restaurant & Multi Venue Function Centre","476 Brunswick Road Parkville, VIC 3052",https://www.eventbrite.com.au/e/easter-luncheon-2025-reggio-calabria-club-members-lounge-bistroteca-tickets-1007848962377?aff=ebdssbdestsearch,-37.7751504,144.938016,
BC #454 (30hr Easter edition),2025-04-20,21:00,onesixone,"161 High Street Prahran, VIC 3181",https://www.eventbrite.com.au/e/bc-454-30hr-easter-edition-tickets-1309526552169?aff=ebdssbdestsearch,-37.85173229999999,144.9936589,
George Thorogood & The Destroyers,2025-04-21,12:00,Forum Melbourne,"150 Flinders St, Melbourne VIC 3000, Australia",https://premier.ticketek.com.au/shows/show.aspx?sh=GTHORO25,-37.8166268,144.9695761,
Melbourne Speed Dating for ages 25-39 by Cheeky Events Australia,2025-04-23,19:00,The Collection Bar,"328 Bridge Road Richmond Melbourne, VIC 3121",https://www.eventbrite.com.au/e/melbourne-speed-dating-for-ages-25-39-by-cheeky-events-australia-tickets-1139355877099?aff=ebdssbdestsearch,-37.8190785,145.0022342,
"Class of 2010 ft Malthouse, Maxwell, Pendlebury & The Cup LIVE!",2025-04-23,19:00,Shoppingtown Hotel,"19 Williamsons Road Doncaster, VIC 3108",https://www.eventbrite.com.au/e/class-of-2010-ft-malthouse-maxwell-pendlebury-the-cup-live-tickets-1249913869029?aff=ebdssbdestsearch,-37.7851283,145.1227497,
Australian Construction Market Overview,2025-04-23,17:30,"Arcadis, Melbourne","Level 18, Queen & Collins Tower 376-390 Collins Street Melbourne, VIC 3000",https://www.eventbrite.com.au/e/australian-construction-market-overview-tickets-1290789489109?aff=ebdssbdestsearch,-37.8183159,144.9624481,
FIOR Showcase,2025-04-23,18:00,476 Brunswick Rd,"476 Brunswick Road Parkville, VIC 3055",https://www.eventbrite.com/e/fior-showcase-tickets-1261813671659?aff=ebdssbdestsearch,-37.7751504,144.938016,
Rag'n'Bone Man,2025-04-23,12:00,Forum Melbourne,"180 Flinders St, Melbourne VIC 3000, Australia",https://premier.ticketek.com.au/shows/show.aspx?sh=RAGNBONE25,-37.816602,144.9694678,
Data Compliance and Cyber Security Group,2025-04-24,18:00,Cornwalls,"380 Collins Street level 4 Melbourne, VIC 3000",https://www.eventbrite.com.au/e/data-compliance-and-cyber-security-group-tickets-1114675567629?aff=ebdssbdestsearch,-37.81649410000001,144.961916,
HYPNOTIC Ft. TILDA (FR) & EWAKE (FR),2025-04-24,21:00,my aeon,"791 Sydney Road Brunswick, VIC 3056",https://www.eventbrite.com/e/hypnotic-ft-tilda-fr-ewake-fr-tickets-1279019474679?aff=ebdssbdestsearch,-37.7581868,144.9633301,
Chunk #23 | BEAST MODE | Sports Edition & Our 3rd Bday | 24.04.25,2025-04-24,21:00,24 Moons,"2 Arthurton Road Northcote, VIC 3070",https://www.eventbrite.com.au/e/chunk-23-beast-mode-sports-edition-our-3rd-bday-240425-tickets-1298749547859?aff=ebdssbdestsearch,-37.7691172,144.9982721,
"FESTA DELLA LIBERTA Feat: DJs Eddie Rinaldo, Mark Pellegrini & Pauly-J Live",2025-04-24,20:00,Olympic Hotel,"31 Albert Street Preston, VIC 3072",https://www.eventbrite.com.au/e/festa-della-liberta-feat-djs-eddie-rinaldo-mark-pellegrini-pauly-j-live-tickets-1268229551729?aff=ebdssbdestsearch,-37.7465792,145.021604,
Kingston Event ”5 things to Improve the SEO on your website today!,2025-04-24,10:00,The Corner Store,"1 Swanston Street Mentone, VIC 3194",https://www.eventbrite.com.au/e/kingston-event-5-things-to-improve-the-seo-on-your-website-today-tickets-1302806592589?aff=ebdssbdestsearch,-37.981169,145.065399,
POOF DOOF Big Doof at The Bottom End - ANZAC Day Eve,2025-04-24,21:00,The Bottom End,"579 Little Collins Street Melbourne, VIC 3000",https://www.eventbrite.com.au/e/poof-doof-big-doof-at-the-bottom-end-anzac-day-eve-tickets-1254093741139?aff=ebdssbdestsearch,-37.8177944,144.955548,
Melbourne speed dating for ages 26-44 by Cheeky Events Australia,2025-04-24,19:00,Bar Blanco,"102 Chapel Street Windsor Melbourne, VIC 3181",https://www.eventbrite.com.au/e/melbourne-speed-dating-for-ages-26-44-by-cheeky-events-australia-tickets-1020580191827?aff=ebdssbdestsearch,-37.854455,144.993076,
RAVE IN THE MARKET,2025-04-24,20:00,Il Mercato Centrale Melbourne,"546 Collins Street Melbourne, VIC 3000",https://www.eventbrite.com.au/e/rave-in-the-market-tickets-1280330867089?aff=ebdssbdestsearch,-37.8181872,144.955581,
Conscious Connection | Pitch Your Single Friend (ages 25 - 40),2025-04-24,06:30,Bridge Hotel,"642 Bridge Road Upstairs Richmond, VIC 3121",https://www.eventbrite.com.au/e/conscious-connection-pitch-your-single-friend-ages-25-40-tickets-1266879965079?aff=ebdssbdestsearch,-37.8202131,145.0134924,
Anzac Day Boat Party,2025-04-25,19:15,Lady Cutler Melbourne Showboat,"131 Harbour Esplanade Docklands, VIC 3008",https://www.eventbrite.com.au/e/anzac-day-boat-party-tickets-1298863147639?aff=ebdssbdestsearch,-37.81707129999999,144.9453813,
Deborahafter50 Subscriber Meet & Greet,2025-04-25,15:00,Westfield Doncaster,"619 Doncaster Road Doncaster, VIC 3108",https://www.eventbrite.com.au/e/deborahafter50-subscriber-meet-greet-tickets-1287362147839?aff=ebdssbdestsearch,-37.7851115,145.1262028,
Frolic,2025-04-25,22:00,Inflation Entertainment Complex,"60 King Street Melbourne, VIC 3000",https://www.eventbrite.com.au/e/frolic-tickets-1257695905309?aff=ebdssbdestsearch,-37.8188863,144.9571605,
Melbourne: Death From Above 1979 w/ DZ Deathrays,2025-04-25,19:30,170 Russell,"170 Russell St, Melbourne VIC 3000, Australia",https://www.facebook.com/events/871405918474920/,-37.8120109,144.9679369,"Great! To make your line only process the first event from event_link_list, just change it to:
python
Copy
Edit
for event in event_link_list[:1]:
This slices the list to include only the first element (index 0), and the loop will run just once.
Let me know if you want it to stop early based on some condition instead — happy to help tweak it!
Do you like this personality"
PRIVATE CELLAR: Clarendon Hills Dinner,2025-04-25,19:00,"Life's Too Short Bar, Tribeca Arcade, Victoria Parade, East Melbourne VIC, Australia","412 Victoria Parade #Shop 2 East Melbourne, VIC 3002",https://www.eventbrite.com.au/e/private-cellar-clarendon-hills-dinner-tickets-958617519807?aff=ebdssbdestsearch,-37.8096207,144.985273,
SKIP INTRO - over 28s,2025-04-25,20:00,Shoppingtown Hotel,"19 Williamsons Road Doncaster, VIC 3108",https://www.eventbrite.com.au/e/skip-intro-over-28s-tickets-1257400993219?aff=ebdssbdestsearch,-37.7851283,145.1227497,
Melbourne Avurudu Baila 2025,2025-04-25,21:30,Brown Alley,"585 Lonsdale Street Melbourne, VIC 3000",https://www.eventbrite.com/e/melbourne-avurudu-baila-2025-tickets-1257002882459?aff=ebdssbdestsearch,-37.8145646,144.9551429,
Anime Music Festival 2025,2025-04-25,19:00,Stay Gold,"133 Sydney Road Brunswick, VIC 3056",https://www.eventbrite.com.au/e/anime-music-festival-2025-tickets-1172665998569?aff=ebdssbdestsearch,-37.7743822,144.9606172,
Sam Barber - Restless Mind Tour,2025-04-26,12:00,Forum Melbourne,"180 Flinders St, Melbourne VIC 3000, Australia",https://premier.ticketek.com.au/shows/show.aspx?sh=SBARB25,-37.816602,144.9694678,
"Breakthrough Breathwork Event: Connection, Release and Community",2025-04-26,12:00,Yoga LYFE,"107 Canterbury Road Middle Park, VIC 3206",https://www.eventbrite.com.au/e/breakthrough-breathwork-event-connection-release-and-community-tickets-1264681218569?aff=ebdssbdestsearch,-37.8502046,144.9653467,
Roccella Pizza Masterclass | Bundoora | April 26,2025-04-26,11:00,Roccella Italian Restaurant Bundoora,"5 Janefield Drive #Shop T01 Bundoora, VIC 3083",https://www.eventbrite.com.au/e/roccella-pizza-masterclass-bundoora-april-26-tickets-1145146507029?aff=ebdssbdestsearch,-37.6826088,145.0714715,
SABOR & FLOW CRUISE PARTY - Salsa VS Reggaeton,2025-04-26,19:00,131 Harbour Esplanade,"131 Harbour Esplanade Docklands, VIC 3008",https://www.eventbrite.com.au/e/sabor-flow-cruise-party-salsa-vs-reggaeton-tickets-1307517974459?aff=ebdssbdestsearch,-37.81707129999999,144.9453813,
"Forest Therapy Experience: Urban Forest Reserve, Malvern East",2025-04-26,09:30,463 Waverley Rd,"463 Waverley Road Malvern East, VIC 3145",https://www.eventbrite.com.au/e/forest-therapy-experience-urban-forest-reserve-malvern-east-tickets-1100681240219?aff=ebdssbdestsearch,-37.8797628,145.0717499,
Melbourne/Naarm Netrunner District Championship 2025,2025-04-26,10:00,Plenty of Games,"278 Collins Street #L1 Melbourne, VIC 3000",https://www.eventbrite.ca/e/melbournenaarm-netrunner-district-championship-2025-tickets-1227222709159?aff=ebdssbdestsearch,-37.8158089,144.9648431,
Summer Breaks pres. Local Breaks !!! ANZAC Long Weekend Special.,2025-04-26,14:00,Howler,"7-11 Dawson Street Brunswick, VIC 3056",https://www.eventbrite.com.au/e/summer-breaks-pres-local-breaks-anzac-long-weekend-special-tickets-1292049317289?aff=ebdssbdestsearch,-37.771511,144.959539,
Electrique,2025-04-26,16:00,Joey Smalls,"284 Sydney Road Brunswick, VIC 3056",https://www.eventbrite.com.au/e/electrique-tickets-1297740188839?aff=ebdssbdestsearch,-37.7710648,144.9616319,
Vlogging Workshop (Full Day): Your Blueprint To Finding Success on YouTube!,2025-04-26,10:00,Chillpreneur Creative Studio,"91 Moreland Street #39b Footscray, VIC 3011",https://www.eventbrite.com.au/e/vlogging-workshop-full-day-your-blueprint-to-finding-success-on-youtube-tickets-1288241106829?aff=ebdssbdestsearch,-37.8084371,144.9044271,
Roccella Pizza Masterclass | Learn pizza secrets from the best | April 26,2025-04-26,11:00,Roccella,"158 Clarendon Street East Melbourne, VIC 3002",https://www.eventbrite.com.au/e/roccella-pizza-masterclass-learn-pizza-secrets-from-the-best-april-26-tickets-1145142304459?aff=ebdssbdestsearch,-37.8119868,144.9835065,
Dutch Kingsday in Melbourne (koningsnacht),2025-04-26,07:00,Jekyll & Hyde,"175 Acland Street St Kilda, VIC 3182",https://www.eventbrite.nl/e/dutch-kingsday-in-melbourne-koningsnacht-tickets-1307150946669?aff=ebdssbdestsearch,-37.8694545,144.9802042,
MELBOURNE WRESTLEMANIA PARTY,2025-04-26,20:00,Deluxe Bar,"595 Mount Alexander Road Moonee Ponds, VIC 3039",https://www.eventbrite.com.au/e/melbourne-wrestlemania-party-tickets-1298273253249?aff=ebdssbdestsearch,-37.768313,144.925046,
"Nektar Records Pres. Luke Alessi (AU), Kellie Allen (ESP) & Artmann (NL)",2025-04-26,14:00,Bourke Street Courtyard,"629 Bourke Street Melbourne, VIC 3004",https://www.eventbrite.com.au/e/nektar-records-pres-luke-alessi-au-kellie-allen-esp-artmann-nl-tickets-1280405179359?aff=ebdssbdestsearch,-37.8168528,144.9552468,
MSA Trips: Puffing Billy Day Trip,2025-04-26,10:30,Robert Blackwood Hall,"49 Scenic Boulevard Monash University, VIC 3800",https://www.eventbrite.com.au/e/msa-trips-puffing-billy-day-trip-tickets-1247714049309?aff=ebdssbdestsearch,-37.9127953,145.1352488,
Urban Cocktail Trail | Prahran (VIC),2025-04-26,13:00,Prahran,"Prahran Prahran, VIC 3181",https://www.eventbrite.com/e/urban-cocktail-trail-prahran-vic-tickets-1238287805159?aff=ebdssbdestsearch,-37.8495201,144.9899575,
"Casa’s Reunion- Bring Back The Funk- Sat April 26th, LOEV Moorabbin",2025-04-26,19:00,LOEV,"77 Keys Road Moorabbin, VIC 3189",https://www.eventbrite.com.au/e/casas-reunion-bring-back-the-funk-sat-april-26th-loev-moorabbin-tickets-1252647585649?aff=ebdssbdestsearch,-37.9484271,145.067727,
Floral Meditation Spanish Event,2025-04-26,11:00,The Hub at Docklands,"80 Harbour Esplanade Docklands, VIC 3008",https://www.eventbrite.com.au/e/floral-meditation-spanish-event-tickets-1270076074729?aff=ebdssbdestsearch,-37.8195389,144.9472509,
Solana Collective. Presents: SOLANA'S DAY OUT,2025-04-26,14:00,The Penny Black,"420 Sydney Road Brunswick, VIC 3056",https://www.eventbrite.com/e/solana-collective-presents-solanas-day-out-tickets-1266898931809?aff=ebdssbdestsearch,-37.7680486,144.9623452,
"People Eat Soul: Sound Healing, Theatre and Inquiry",2025-04-26,11:00,226 Kooyong Rd,"226 Kooyong Road Toorak, VIC 3142",https://www.eventbrite.com/e/people-eat-soul-sound-healing-theatre-and-inquiry-tickets-1269991120629?aff=ebdssbdestsearch,-37.8405019,145.0238136,
Conscious Connection | Communal Dining Brunch (Gals aged 25-35),2025-04-26,12:00,Bridge Hotel,"642 Bridge Road Richmond, VIC 3121",https://www.eventbrite.com.au/e/conscious-connection-communal-dining-brunch-gals-aged-25-35-tickets-1300795788219?aff=ebdssbdestsearch,-37.8202131,145.0134924,
“她是你我”-女性拼盘墨尔本,2025-04-26,19:30,Building 16 (Storey Hall) - RMIT University,"348 Swanston Street #Building 16 336 Melbourne, VIC 3000",https://www.eventbrite.com/e/1273369154419?aff=ebdssbdestsearch,-37.8091922,144.9639727,
Mad Hatter's High Tea at Stamford Plaza Melbourne,2025-04-26,11:30,Stamford Plaza Melbourne,"111 Little Collins Street Melbourne, VIC 3000",https://www.eventbrite.com.au/e/mad-hatters-high-tea-at-stamford-plaza-melbourne-tickets-1278776939249?aff=ebdssbdestsearch,-37.8135512,144.9699174,
SHADY NASTY - 'TREK' ALBUM TOUR | MELBOURNE,2025-04-26,19:30,280 Sydney Rd,"280 Sydney Road Brunswick, VIC 3056",https://www.eventbrite.com.au/e/shady-nasty-trek-album-tour-melbourne-tickets-1224325322999?aff=ebdssbdestsearch,-37.7711488,144.9616353,
AMARI GALA 2025,2025-04-26,17:00,Plaza Ballroom,"191 Collins Street Melbourne, VIC 3000",https://www.eventbrite.com.au/e/amari-gala-2025-tickets-1232458740269?aff=ebdssbdestsearch,-37.8154895,144.9675461,
Queer Lesbian Daytime  Speed Dating: Melbourne 42-60+yrs,2025-04-27,13:30,Melbourne CBD Outside,"Melbourne CBD Melbourne, VIC 3000",https://www.eventbrite.com.au/e/queer-lesbian-daytime-speed-dating-melbourne-42-60yrs-tickets-1299527755499?aff=ebdssbdestsearch,-37.8152065,144.963937,
POST RAMADAN WORKSHOP,2025-04-27,14:00,North Melbourne Community Centre,"49-53 Buncle Street North Melbourne, VIC 3051",https://www.eventbrite.com/e/post-ramadan-workshop-tickets-1298649338129?aff=ebdssbdestsearch,-37.7932051,144.9403529,
Sound Circle - Enjoy a deeply relaxing and rebalancing Journey inwards,2025-04-27,16:00,level 1/14 Pakington St,"14 Pakington Street #level 1 St Kilda, VIC 3182",https://www.eventbrite.com.au/e/sound-circle-enjoy-a-deeply-relaxing-and-rebalancing-journey-inwards-tickets-1302718699699?aff=ebdssbdestsearch,-37.8655601,144.9873231,
"The Space Between- TaKeTiNa, Dance and Deep Rest",2025-04-27,13:00,Community Church of ST Mark (Baptist),"100 Hodgkinson Street Clifton Hill, VIC 3068",https://www.eventbrite.com/e/the-space-between-taketina-dance-and-deep-rest-tickets-1290514847649?aff=ebdssbdestsearch,-37.7893582,144.9912201,
Sunday Singles - Local Love and Friendship,2025-04-27,14:00,Bad Shepherd Brewing Co.,"386 Reserve Road Cheltenham, VIC 3192",https://www.eventbrite.com.au/e/sunday-singles-local-love-and-friendship-tickets-1295510409509?aff=ebdssbdestsearch,-37.95669150000001,145.0390577,
CBD Rooftop Sunday Session | Zodiac | Live Readings | Singles 40+,2025-04-27,13:00,Club Retro,"383 Lonsdale Street Melbourne, VIC 3000",https://www.eventbrite.com.au/e/cbd-rooftop-sunday-session-zodiac-live-readings-singles-40-tickets-1274920755299?aff=ebdssbdestsearch,-37.8128025,144.9611855,
Friends On Purpose: Breathwork & Connection,2025-04-27,11:30,No Name Studios | Breathwork,"298 Victoria Street #296 Brunswick, VIC 3056",https://www.eventbrite.com.au/e/friends-on-purpose-breathwork-connection-tickets-1298744683309?aff=ebdssbdestsearch,-37.7673128,144.963179,
Seb's La La Land: Love & Loss,2025-04-28,18:15,James Tatoulis Auditorium,"207 Barkers Road Kew, VIC 3101",https://www.eventbrite.com.au/e/sebs-la-la-land-love-loss-tickets-1291090529529?aff=ebdssbdestsearch,-37.8136453,145.0372491,
DAVINES - Red with Confidence Workshop VIC 2025,2025-04-28,10:00,shibui,"139 Toorak Road South Yarra, VIC 3141",https://www.eventbrite.com.au/e/davines-red-with-confidence-workshop-vic-2025-tickets-1119408875079?aff=ebdssbdestsearch,-37.8386846,144.991012,
Fashion Edit - Melbourne | Style by Wesson: Spring Summer 2025,2025-04-28,18:00,Park Hyatt Melbourne,"Parliament Place Melbourne, VIC 3002",https://www.eventbrite.com.au/e/fashion-edit-melbourne-style-by-wesson-spring-summer-2025-tickets-1119541050419?aff=ebdssbdestsearch,-37.8112922,144.9754806,
COGNITIVE BEHAVIOURAL THERAPY INTERVENTIONS FOR PSYCHOSIS,2025-04-28,09:30,Orygen Colonial  Foundation Innovation Centre,"35 Poplar Road Parkville, VIC 3052",https://www.eventbrite.com.au/e/cognitive-behavioural-therapy-interventions-for-psychosis-tickets-1104146294289?aff=ebdssbdestsearch,-37.7801959,144.9478953,
Fashion Runway - Melbourne | Style by Wesson: Spring Summer 2025,2025-04-28,18:00,Park Hyatt Melbourne,"Parliament Place Melbourne, VIC 3002",https://www.eventbrite.com.au/e/fashion-runway-melbourne-style-by-wesson-spring-summer-2025-tickets-1119541050419?aff=ebdssbdestsearch,-37.8112922,144.9754806,
Thrive Together - NDIS Event,2025-04-29,11:00,Anglers Tavern,"2 Anglers Way Maribyrnong, VIC 3032",https://www.eventbrite.com.au/e/thrive-together-ndis-event-tickets-1247699586049?aff=ebdssbdestsearch,-37.7690157,144.9014911,
Thrive Together - NDIS Business Network,2025-04-29,11:00,Anglers Tavern,"2 Anglers Way Maribyrnong, VIC 3032",https://www.eventbrite.com.au/e/thrive-together-ndis-business-network-tickets-1247699586049?aff=ebdssbdestsearch,-37.7690157,144.9014911,
LUX VIP MELB : Co-Working Day at the Terminus Hotel,2025-04-29,09:00,Terminus Hotel Fitzroy North,"492 Queens Parade Fitzroy North, VIC 3068",https://www.eventbrite.com.au/e/lux-vip-melb-co-working-day-at-the-terminus-hotel-tickets-1295251464999?aff=ebdssbdestsearch,-37.7853246,144.994443,
2025 ANZAC Oration: Sir Peter Cosgrove | Vietnam,2025-04-29,17:30,Old Quadrangle,"University of Melbourne Victoria Parkville, VIC 3010",https://www.eventbrite.com.au/e/2025-anzac-oration-sir-peter-cosgrove-vietnam-tickets-1259114006889?aff=ebdssbdestsearch,-37.7983459,144.960974,
Hans Zimmer,2025-04-29,12:00,Rod Laver Arena,"200 Batman Ave, Melbourne VIC 3000, Australia",https://premier.ticketek.com.au/shows/show.aspx?sh=HANSZIMM25,-37.8216161,144.9785584,
ClimateTech & AgTech Pitch Night,2025-04-29,18:00,The Commons Gipps St,"38 Gipps St Collingwood, VIC 3066",https://www.eventbrite.com.au/e/climatetech-agtech-pitch-night-tickets-1088682250919?aff=ebdssbdestsearch,-37.8041282,144.9882914,
Shure Advanced Wireless Training- Melbourne,2025-04-29,09:00,Jands Melbourne,"Unit 11 21 Sabre Drive Port Melbourne, VIC 3207",https://www.eventbrite.com.au/e/shure-advanced-wireless-training-melbourne-tickets-1111093593849?aff=ebdssbdestsearch,-37.826561,144.9069598,
Racial Dignity Framework Official Launch,2025-04-30,16:00,level 2/355 Spencer St,"355 Spencer Street #level 2 West Melbourne, VIC 3003",https://www.eventbrite.com/e/racial-dignity-framework-official-launch-tickets-1220443492339?aff=ebdssbdestsearch,-37.8119391,144.950558,
IPS Core Training - Face to face,2025-04-30,09:00,"Self Help Addiction Resource Centre Inc, 140 Grange Rd","140 Grange Road Carnegie, VIC 3163",https://www.eventbrite.com.au/e/ips-core-training-face-to-face-tickets-1269962565219?aff=ebdssbdestsearch,-37.8918097,145.0459116,
Ai Tools to Market your Small Business,2025-04-30,18:00,iHarvest Coworking Sunshine,"301 Hampshire Road #Level 4 Sunshine, VIC 3020",https://www.eventbrite.com.au/e/ai-tools-to-market-your-small-business-tickets-1138982079059?aff=ebdssbdestsearch,-37.783111,144.8321327,
HTRK,2025-04-30,12:00,Forum Melbourne,"150 Flinders St, Melbourne VIC 3000, Australia",https://premier.ticketek.com.au/shows/show.aspx?sh=HTRK25,-37.8166268,144.9695761,
Chris de Burgh,2025-05-01,12:00,Hamer Hall,"100 St Kilda Rd, Southbank VIC 3004, Australia",https://premier.ticketek.com.au/shows/show.aspx?sh=CHRISDE25,-37.8201455,144.9679946,
SHE RISES SUMMIT: Leadership & The Future of Multicultural Women,2025-05-01,17:30,The Capitol,"113 Swanston Street Melbourne, VIC 3000",https://www.eventbrite.com.au/e/she-rises-summit-leadership-the-future-of-multicultural-women-tickets-1244588350259?aff=ebdssbdestsearch,-37.8150033,144.9659584,
ABBY GOVINDAN - How To Embarrass Your Immigrant Parents - MELBOURNE,2025-05-01,19:00,The Comic's Lounge,"26 Errol Street #1 North Melbourne, VIC 3051",https://www.eventbrite.com.au/e/abby-govindan-how-to-embarrass-your-immigrant-parents-melbourne-tickets-1245568772729?aff=ebdssbdestsearch,-37.8045082,144.9495239,
Depression as an invitation to wholeness,2025-05-01,06:30,Elie - 27 Royal Parade Parkville (Gestalt Centre Training Campus),"27 Royal Parade Parkville, VIC 3052",https://www.eventbrite.com.au/e/depression-as-an-invitation-to-wholeness-tickets-1103972865559?aff=ebdssbdestsearch,-37.7962081,144.9574069,
Speed Dating Meets Paint by Numbers | 28-39 yr | Nth Melb,2025-05-01,18:30,Twang Brewing,"21 Melrose Street North Melbourne, VIC 3051",https://www.eventbrite.com.au/e/speed-dating-meets-paint-by-numbers-28-39-yr-nth-melb-tickets-1290666300649?aff=ebdssbdestsearch,-37.7951293,144.9415481,
Australian Nurses and Midwives Conference,2025-05-01,08:00,Melbourne Convention and Exhibition Centre,"1 Convention Centre Place South Wharf, VIC 3006",https://www.eventbrite.com/e/australian-nurses-and-midwives-conference-tickets-1059272224739?aff=ebdssbdestsearch,-37.82520299999999,144.952251,
SHE RISES: Latina & Hispanic Leadership Summit,2025-05-01,17:30,The Capitol,"113 Swanston Street Melbourne, VIC 3000",https://www.eventbrite.com.au/e/she-rises-latina-hispanic-leadership-summit-tickets-1244588350259?aff=ebdssbdestsearch,-37.8149747,144.9658948,
Life After I Left,2025-05-01,06:30,LOEV,"77 Keys Road Moorabbin, VIC 3189",https://www.eventbrite.com.au/e/life-after-i-left-tickets-1253924625309?aff=ebdssbdestsearch,-37.9484271,145.067727,
Australian Fatherhood Research Symposium 2025,2025-05-01,08:45,Deakin Downtown,"727 Collins Street Tower 2, Level 12 Melbourne, VIC 3008",https://www.eventbrite.com.au/e/australian-fatherhood-research-symposium-2025-tickets-1038639126587?aff=ebdssbdestsearch,-37.8206847,144.949995,
TOMMY MOOM$ X LIDO CINEMAS TAKEOVER ~ ONE NIGHT ONLY!,2025-05-02,18:00,Lido Cinemas,"675 Glenferrie Road Hawthorn, VIC 3122",https://www.eventbrite.com.au/e/tommy-moom-x-lido-cinemas-takeover-one-night-only-tickets-1298855484719?aff=ebdssbdestsearch,-37.820536,145.0353953,
SPEED DATING EVENT FOR BLACK WOMEN AND BLACK MEN IN MELBOURNE AGED 25-50YRS,2025-05-02,19:00,Oliva Social,"102-104 High Street Preston, VIC 3072",https://www.eventbrite.com.au/e/speed-dating-event-for-black-women-and-black-men-in-melbourne-aged-25-50yrs-tickets-1259133515239?aff=ebdssbdestsearch,-37.7483057,145.0025296,
Conceptions of Nature Symposium,2025-05-02,09:00,La Trobe University City Campus,"360 Collins Street Level 2, Room 2.11 Melbourne, VIC 3000",https://www.eventbrite.com.au/e/conceptions-of-nature-symposium-tickets-1246687990339?aff=ebdssbdestsearch,-37.8165456,144.9623103,
Next Steps in Responsive Teaching,2025-05-02,09:00,City of Melbourne Bowls Club Inc.,"Dudley Street West Melbourne, VIC 3003",https://www.eventbrite.com.au/e/next-steps-in-responsive-teaching-tickets-1066643983869?aff=ebdssbdestsearch,-37.810393,144.9494184,
Mentor Walks Melbourne: Get guidance and grow your network,2025-05-02,07:10,"Under King Edward VII Monument (behind the floral clock), Queen Victoria Gardens","Saint Kilda Road Melbourne, VIC 3004",https://www.eventbrite.com.au/e/mentor-walks-melbourne-get-guidance-and-grow-your-network-tickets-1117509333499?aff=ebdssbdestsearch,-37.8371405,144.9756536,
Pika Pika Latin Cuban Festival,2025-05-03,10:00,277 Queensberry St,"277 Queensberry Street Melbourne, VIC 3000",https://www.eventbrite.com.au/e/pika-pika-latin-cuban-festival-tickets-1105389833749?aff=ebdssbdestsearch,-37.8043429,144.9593929,
"Clayton Childbirth education-Labour, Birth & Baby: 3rd May, 2025",2025-05-03,08:30,246 Clayton Rd,"246 Clayton Road Clayton, VIC 3168",https://www.eventbrite.com/e/clayton-childbirth-education-labour-birth-baby-3rd-may-2025-tickets-1247656627559?aff=ebdssbdestsearch,-37.9105091,145.122742,
Mother’s Day Bloom Vase Workshop by Alula Fox at Handmade Market,2025-05-03,10:00,Coburg Town Hall,"90 Bell Street Coburg, VIC 3058",https://www.eventbrite.com/e/mothers-day-bloom-vase-workshop-by-alula-fox-at-handmade-market-tickets-1127507327769?aff=ebdssbdestsearch,-37.7408943,144.9695726,
Lucha Fantastica: The Anniversary (Melbourne Family Show),2025-05-03,13:00,Collingwood Town Hall,"140 Hoddle Street Abbotsford, VIC 3067",https://www.eventbrite.com.au/e/lucha-fantastica-the-anniversary-melbourne-family-show-tickets-1281962236559?aff=ebdssbdestsearch,-37.8039527,144.9929394,
King's Day Party Melbourne 2025,2025-05-03,19:00,Dutch Club Abel Tasman,"60 Rosstown Road Carnegie, VIC 3163",https://www.eventbrite.com.au/e/kings-day-party-melbourne-2025-tickets-1244609513559?aff=ebdssbdestsearch,-37.8864139,145.0568365,
Intercell Indoor | Naarm/Melbourne,2025-05-03,13:00,Rosella Carpark,"7 Palmer Cremorne, VIC 3121",https://www.eventbrite.com.au/e/intercell-indoor-naarmmelbourne-tickets-1249000276449?aff=ebdssbdestsearch,-37.831769,144.9930391,
Melbourne May the 4th Star Wars Rave,2025-05-03,22:00,Ballers Clubhouse,"2 Coverlid Place Melbourne, VIC 3000",https://www.eventbrite.com.au/e/melbourne-may-the-4th-star-wars-rave-tickets-1297486279389?aff=ebdssbdestsearch,-37.812117,144.9685963,
Lucha Fantastica: The Anniversary (Melbourne Adult Show),2025-05-03,19:00,Collingwood Town Hall,"140 Hoddle Street Abbotsford, VIC 3067",https://www.eventbrite.com.au/e/lucha-fantastica-the-anniversary-melbourne-adult-show-tickets-1281948816419?aff=ebdssbdestsearch,-37.8039527,144.9929394,
DIVORCED DAD ROCK NIGHT,2025-05-03,23:00,Stay Gold,"133 Sydney Road Brunswick, VIC 3056",https://www.eventbrite.com.au/e/divorced-dad-rock-night-tickets-1232752027499?aff=ebdssbdestsearch,-37.77435880000001,144.9606103,
Dive Bar Disco presents Das Diskothek,2025-05-03,19:00,Bad Decisions Bar,"46 Johnston Street Fitzroy, VIC 3065",https://www.eventbrite.com.au/e/dive-bar-disco-presents-das-diskothek-tickets-1257407633079?aff=ebdssbdestsearch,-37.7982299,144.9762933,
SARBEL LIVE IN AUSTRALIA - MELBOURNE  - (AGES 16+),2025-05-03,20:00,QRoom,"371 Settlement Road Thomastown, VIC 3074",https://www.eventbrite.com.au/e/sarbel-live-in-australia-melbourne-ages-16-tickets-1296471423929?aff=ebdssbdestsearch,-37.6885361,145.016133,
TR!P 31 | 8th Anniversary | 03.05.25 @ 24 Moons,2025-05-03,20:00,24 Moons,"2 Arhurton Road Northcote, VIC 3070",https://www.eventbrite.com.au/e/trp-31-8th-anniversary-030525-24-moons-tickets-1290804022579?aff=ebdssbdestsearch,-37.7691172,144.9982721,
Beyond the binary towards radical respect,2025-05-03,09:30,Elie - 27 Royal Parade Parkville (Gestalt Centre Training Campus),"27 Royal Parade Parkville, VIC 3052",https://www.eventbrite.com.au/e/beyond-the-binary-towards-radical-respect-tickets-1082814119179?aff=ebdssbdestsearch,-37.7962081,144.9574069,
Yuvan Shankar Raja,2025-05-03,12:00,John Cain Arena,"35 Olympic Blvd, Melbourne VIC 3000, Australia",https://premier.ticketek.com.au/shows/show.aspx?sh=YUVANSR25,-37.8227725,144.9819687,
Retro 28s May - 5TH BIRTHDAY EXTRAVAGANZA! ft $3000 BARTAB,2025-05-03,20:30,Deluxe Bar,"595 Mount Alexander Road Moonee Ponds, VIC 3039",https://www.eventbrite.com.au/e/retro-28s-may-5th-birthday-extravaganza-ft-3000-bartab-tickets-945150529677?aff=ebdssbdestsearch,-37.768313,144.925046,
Beth Rivkah's 60's and 70's Reunion,2025-05-04,19:45,Beth Rivkah Ladies College - Solowiejczyk Hall,"14 Balaclava Road Saint Kilda East, VIC 3183",https://www.eventbrite.com.au/e/beth-rivkahs-60s-and-70s-reunion-tickets-1266675192599?aff=ebdssbdestsearch,-37.8693727,145.0009241,
"XChange Market | Vintage, Streetwear & Small Business Market",2025-05-04,10:00,Abbotsford Convent,"1 Saint Heliers Street Abbotsford, VIC 3067",https://www.eventbrite.com.au/e/xchange-market-vintage-streetwear-small-business-market-tickets-1265553808509?aff=ebdssbdestsearch,-37.8031791,145.0037812,
Foundation Training for Working with BPD in Non-Clinical Settings (1 day),2025-05-05,09:00,Spectrum,"110 Church Street Richmond, VIC 3121",https://www.eventbrite.com.au/e/foundation-training-for-working-with-bpd-in-non-clinical-settings-1-day-registration-1102667491149?aff=ebdssbdestsearch,-37.8142371,144.9995624,
Myles Smith,2025-05-05,12:00,Forum Melbourne,"180 Flinders St, Melbourne VIC 3000, Australia",https://premier.ticketek.com.au/shows/show.aspx?sh=MYLESSM24,-37.816602,144.9694678,
"WORKING WITH YOUNG PEOPLE WHO USE VIOLENCE, AGGRESSION OR  JUSTICE INVOLVED",2025-05-06,09:30,Orygen Colonial  Foundation Innovation Centre,"35 Poplar Road Parkville, VIC 3052",https://www.eventbrite.com.au/e/working-with-young-people-who-use-violence-aggression-or-justice-involved-tickets-1105959086399?aff=ebdssbdestsearch,-37.7801959,144.9478953,
"Carlton Fans '95 GF Reunion LIVE at Olympic Hotel, Preston.",2025-05-06,19:00,Olympic Hotel,"31 Albert Street Preston, VIC 3072",https://www.eventbrite.com.au/e/carlton-fans-95-gf-reunion-live-at-olympic-hotel-preston-tickets-1296534833589?aff=ebdssbdestsearch,-37.7465792,145.021604,
Blue Horizon 20th Anniversary - Melbourne,2025-05-07,18:30,The Astor Theatre,"1 Chapel Street St Kilda, VIC 3182",https://www.eventbrite.com.au/e/blue-horizon-20th-anniversary-melbourne-tickets-1248662004669?aff=ebdssbdestsearch,-37.857906,144.991994,
The Offspring,2025-05-07,12:00,Rod Laver Arena,"200 Batman Ave, Melbourne VIC 3000, Australia",https://premier.ticketek.com.au/shows/show.aspx?sh=OFFSPRIN25,-37.8216161,144.9785584,
ZZ Top,2025-05-07,12:00,Margaret Court Arena,"5XHH+G3 Melbourne VIC, Australia",https://premier.ticketek.com.au/shows/show.aspx?sh=ZZTOP25,-37.8211276,144.9776364,
RMH Critical Care Echocardiography Course (TTE) March-May 2025,2025-05-07,08:00,Royal Melbourne Hospital,"Intensive Care Unit Education Centre (Level B5) Grattan Street Parkville, VIC 3050",https://www.eventbrite.com.au/e/rmh-critical-care-echocardiography-course-tte-march-may-2025-tickets-1122638565169?aff=ebdssbdestsearch,-37.7995502,144.9563671,
Business Leaders' Breakfast,2025-05-07,07:00,RACV City Club,"Level 17 501 Bourke Street Melbourne, VIC 3000",https://www.eventbrite.com.au/e/business-leaders-breakfast-registration-1288901712719?aff=ebdssbdestsearch,-37.8158734,144.9596569,
Kindred  Singles (40s-60s) - A Speed Dating Event for Conscious Relating.,2025-05-08,18:30,Centre of You,"Upstairs, 217 Chapel St Prahran Melbourne, VIC 3181",https://www.eventbrite.com.au/e/kindred-singles-40s-60s-a-speed-dating-event-for-conscious-relating-tickets-1291042335379?aff=ebdssbdestsearch,-37.8509316,144.9933031,
Creating Social Media Plan and Content,2025-05-08,18:00,iHarvest Coworking Sunshine,"301 Hampshire Road #Level 4 Sunshine, VIC 3020",https://www.eventbrite.com.au/e/creating-social-media-content-tickets-1139363720559?aff=ebdssbdestsearch,-37.783111,144.8321327,
Chain Social Presents 'Facebook Ads Intensive' @ Chadstone Hotel,2025-05-09,09:30,Hotel Chadstone Melbourne - MGallery,"1341 Dandenong Road Chadstone, VIC 3148",https://www.eventbrite.com.au/e/chain-social-presents-facebook-ads-intensive-chadstone-hotel-tickets-1266659686219?aff=ebdssbdestsearch,-37.8859034,145.085521,
TAYLOR SWIFT FOREVER  PARTY MELBOURNE   | THE EMERSON,2025-05-09,20:30,The Emerson Rooftop Bar and Club,"141-145 Commercial Road South Yarra, VIC 3141",https://www.eventbrite.com.au/e/taylor-swift-forever-party-melbourne-the-emerson-tickets-1295639024199?aff=ebdssbdestsearch,-37.8462997,144.9911964,
Chris Lake,2025-05-09,12:00,PICA (Port Melbourne Industrial Centre for the Arts),"1 Thackray Rd, Port Melbourne VIC 3207, Australia",https://premier.ticketek.com.au/shows/show.aspx?sh=CHRISLA25,-37.8296148,144.9256488,
Gracie Abrams,2025-05-09,12:00,Rod Laver Arena,"200 Batman Ave, Melbourne VIC 3000, Australia",https://premier.ticketek.com.au/shows/show.aspx?sh=GRACIEAB25,-37.8216161,144.9785584,
GAMA Healthcare and ACIPC IPC Tour - Melbourne 2025,2025-05-09,08:30,Rendezvouz Hotel - The King Edward Ballroom,"328 Flinders Street Melbourne, VIC 3000",https://www.eventbrite.com.au/e/gama-healthcare-and-acipc-ipc-tour-melbourne-2025-tickets-1098457659429?aff=ebdssbdestsearch,-37.81831330000001,144.9636251,
GT Social Club Driving Range,2025-05-09,18:00,Melbourne Golf Park,"Aughtie Drive Albert Park, VIC 3206",https://www.eventbrite.com.au/e/gt-social-club-driving-range-tickets-1289103716919?aff=ebdssbdestsearch,-37.8468226,144.9662593,
Montell Fish,2025-05-10,12:00,Forum Melbourne,"150 Flinders St, Melbourne VIC 3000, Australia",https://premier.ticketek.com.au/shows/show.aspx?sh=MONTELLF25,-37.8166268,144.9695761,
"Clayton Childbirth education-Labour, Birth & Baby: 10th May, 2025",2025-05-10,08:30,246 Clayton Rd,"246 Clayton Road Clayton, VIC 3168",https://www.eventbrite.com/e/clayton-childbirth-education-labour-birth-baby-10th-may-2025-tickets-1247657630559?aff=ebdssbdestsearch,-37.9105091,145.122742,
House of Groove,2025-05-10,19:00,Joey Smalls,"284 Sydney Road Brunswick, VIC 3056",https://www.eventbrite.com/e/house-of-groove-tickets-1300250015799?aff=ebdssbdestsearch,-37.7710648,144.9616319,
Introduction to Blacksmithing for Women,2025-05-11,09:00,Waterside Metal Art Studio,"60 Maribyrnong Street Footscray, VIC 3011",https://www.eventbrite.com.au/e/introduction-to-blacksmithing-for-women-tickets-1243116608239?aff=ebdssbdestsearch,-37.8035424,144.9078967,
Mother's Day Luncheon 2025 - Reggio Calabria Club - Member's Lounge,2025-05-11,12:30,"Reggio Calabria Club - Italian Bistro, Restaurant & Multi Venue Function Centre","476 Brunswick Road Parkville, VIC 3052",https://www.eventbrite.com.au/e/mothers-day-luncheon-2025-reggio-calabria-club-members-lounge-tickets-1091807428409?aff=ebdssbdestsearch,-37.7751504,144.938016,
Mother's Day High Tea at Overnewton Castle,2025-05-11,13:00,Overnewton Castle,"51 Overnewton Road Keilor, VIC 3036",https://www.eventbrite.com.au/e/mothers-day-high-tea-at-overnewton-castle-tickets-1204274901649?aff=ebdssbdestsearch,-37.7048096,144.8209018,
Style Mastery With Noogie Thai,2025-05-12,11:00,365 Salon Group Education Studio,"1/610 Lorimer Street Port Melbourne, VIC 3207",https://www.eventbrite.com.au/e/style-mastery-with-noogie-thai-tickets-1117092406459?aff=ebdssbdestsearch,-37.8214775,144.9167993,
Clinical Ethics: Organ Transplantation,2025-05-12,08:30,Deakin Downtown,"727 Collins Street #tower 2 level 12 Melbourne, VIC 3008",https://www.eventbrite.com.au/e/clinical-ethics-organ-transplantation-tickets-1073863056309?aff=ebdssbdestsearch,-37.8206847,144.949995,
Max McNown,2025-05-13,12:00,Forum Melbourne,"150 Flinders St, Melbourne VIC 3000, Australia",https://premier.ticketek.com.au/shows/show.aspx?sh=MCNOWN25,-37.8166268,144.9695761,
SUBSTANCE USE & YOUTH MENTAL HEALTH: WORKING WITH REALITY,2025-05-13,09:30,Orygen Colonial  Foundation Innovation Centre,"35 Poplar Road Parkville, VIC 3052",https://www.eventbrite.com.au/e/substance-use-youth-mental-health-working-with-reality-tickets-1105993659809?aff=ebdssbdestsearch,-37.7801959,144.9478953,
2025 Plan to Profit Summit,2025-05-14,08:00,Pullman Melbourne Albert Park,"65 Queens Road Albert Park, VIC 3004",https://www.eventbrite.ca/e/2025-plan-to-profit-summit-tickets-1087542552049?aff=ebdssbdestsearch,-37.8500935,144.978566,
An Introduction to Dialectical Behaviour Therapy (DBT) - 2-day,2025-05-15,09:00,Spectrum,"110 Church Street Richmond, VIC 3121",https://www.eventbrite.com.au/e/an-introduction-to-dialectical-behaviour-therapy-dbt-2-day-registration-1015760536107?aff=ebdssbdestsearch,-37.8142371,144.9995624,
Yächtley Crëw,2025-05-16,12:00,Northcote Theatre,"216 High St, Northcote VIC 3070, Australia",https://premier.ticketek.com.au/shows/show.aspx?sh=YACHTL25,-37.7737671,144.9985775,
Ball Park Music,2025-05-16,12:00,Forum Melbourne,"150 Flinders St, Melbourne VIC 3000, Australia",https://premier.ticketek.com.au/shows/show.aspx?sh=BALLPAR25,-37.8166268,144.9695761,
The Butterfly Brand 10 Year Anniversary,2025-05-16,19:00,All Smiles Melbourne Waterfront,"55 Newquay Promenade Docklands, VIC 3008",https://www.eventbrite.com.au/e/the-butterfly-brand-10-year-anniversary-tickets-1200627562359?aff=ebdssbdestsearch,-37.8152957,144.9413315,
Artist Talks - 2025 Blacksmiths Gathering,2025-05-16,18:00,Waterside Metal Art Studio,"60 Maribrynong St. Footscray, VIC 3011",https://www.eventbrite.com.au/e/artist-talks-2025-blacksmiths-gathering-tickets-1243293407049?aff=ebdssbdestsearch,-37.8035424,144.9078967,
Women In Business Lunch,2025-05-16,11:00,The Centre Ivanhoe,"275 Upper Heidelberg Road Ivanhoe, VIC 3079",https://www.eventbrite.com.au/e/women-in-business-lunch-tickets-1266631411649?aff=ebdssbdestsearch,-37.7662297,145.0455745,
Artist Talks - 2025 Blacksmiths Festival,2025-05-16,18:00,Waterside Metal Art Studio,"60 Maribrynong St. Footscray, VIC 3011",https://www.eventbrite.com.au/e/artist-talks-2025-blacksmiths-festival-tickets-1243293407049?aff=ebdssbdestsearch,-37.8035424,144.9078967,
MPW Movie Night 2025,2025-05-16,17:30,Moonee Ponds West Primary School,"150 Athol Street Moonee Ponds, VIC 3039",https://www.eventbrite.com.au/e/mpw-movie-night-2025-tickets-1266667750339?aff=ebdssbdestsearch,-37.7687611,144.9087706,
Ace it!,2025-05-16,09:00,Carson Conference Centre,"535 Elizabeth Street Melbourne, VIC 3000",https://www.eventbrite.com/e/ace-it-registration-998108568597?aff=ebdssbdestsearch,-37.805634,144.9587234,
PAKKA LOCAL CH 7 FT BABY JEAN Melbourne,2025-05-16,21:00,Royal Melbourne Hotel,"629 Bourke Street Melbourne, VIC 3000",https://www.eventbrite.com.au/e/pakka-local-ch-7-ft-baby-jean-melbourne-tickets-1288043084539?aff=ebdssbdestsearch,-37.8168528,144.9552468,
The Mad Hatters UV Party!,2025-05-16,19:00,24 Moons,"2 Arthurton Road Northcote, VIC 3070",https://www.eventbrite.com.au/e/the-mad-hatters-uv-party-tickets-1246859523399?aff=ebdssbdestsearch,-37.7691172,144.9982721,
Landscape in Schools - a 'Children-First' Approach,2025-05-16,08:30,City of Melbourne Bowls Club,"Flagstaff Gardens Dudley Street West Melbourne, VIC 3003",https://www.eventbrite.com.au/e/landscape-in-schools-a-children-first-approach-tickets-1204476554799?aff=ebdssbdestsearch,-37.8105577,144.9545199,
Tex Walker & Rory Sloane LIVE in Melbourne!,2025-05-17,19:00,Carlton Brewhouse,"24 Thompson Street Abbotsford, VIC 3067",https://www.eventbrite.com.au/e/tex-walker-rory-sloane-live-in-melbourne-tickets-1236817768239?aff=ebdssbdestsearch,-37.8096501,145.0041255,
JOE DAYMOND - HOPE I MADE YOU PROUD - MELBOURNE,2025-05-17,19:30,The Comic's Lounge,"26 Errol Street #1 North Melbourne, VIC 3051",https://www.eventbrite.com.au/e/joe-daymond-hope-i-made-you-proud-melbourne-tickets-1220184477619?aff=ebdssbdestsearch,-37.8045082,144.9495239,
MCW High Stakes 2025,2025-05-17,19:00,Thornbury Theatre,"859 High Street Thornbury, VIC 3071",https://www.eventbrite.com.au/e/mcw-high-stakes-2025-tickets-1236841589489?aff=ebdssbdestsearch,-37.7547501,145.0010877,
Urban Wine Walk // Northcote (VIC),2025-05-17,12:00,Northcote,"Multiple Venues Northcote, VIC 3070",https://www.eventbrite.com/e/urban-wine-walk-northcote-vic-tickets-1247751200429?aff=ebdssbdestsearch,-37.7736132,144.9997396,
Perioperative Cardiac Nursing Group,2025-05-17,08:00,Epworth Richmond,"89 Bridge Road Richmond, VIC 3121",https://www.eventbrite.com.au/e/perioperative-cardiac-nursing-group-tickets-1277403561439?aff=ebdssbdestsearch,-37.8176308,144.9928415,
Holy Holy - A Grand Hiatus - 2025 Australian Tour,2025-05-17,12:00,Forum Melbourne,"150 Flinders St, Melbourne VIC 3000, Australia",https://premier.ticketek.com.au/shows/show.aspx?sh=HOLY25,-37.8166268,144.9695761,
Melbourne's Annual Wedding Expo 2025 - Wedding Expos Australia,2025-05-18,10:00,Melbourne Convention and Exhibition Centre (MCEC),"1 Convention Centre Place South Wharf, VIC 3006",https://www.eventbrite.com.au/e/melbournes-annual-wedding-expo-2025-wedding-expos-australia-tickets-919854117427?aff=ebdssbdestsearch,-37.82520299999999,144.952251,
"Colour + decoration: the Paterson Bros., interiors and art: 1875 - 1915",2025-05-18,02:30,Villa Alba Museum,"44 Walmer Street Kew, VIC 3101",https://www.eventbrite.com.au/e/colour-decoration-the-paterson-bros-interiors-and-art-1875-1915-tickets-1268098720409?aff=ebdssbdestsearch,-37.8051441,145.0112191,
Mastering Couples Photography with Mike Jeffrey,2025-05-18,14:30,Carlton Gardens,"1-111 Carlton St, Carlton VIC 3053 Carlton, VIC 3053",https://www.eventbrite.com.au/e/mastering-couples-photography-with-mike-jeffrey-tickets-1260234357889?aff=ebdssbdestsearch,-37.8024658,144.9714632,
INTRODUCTION TO COGNITIVE BEHAVOURAL THERAPY(CBT) FOR YOUTH MH CLINICIANS,2025-05-20,09:30,Orygen Colonial  Foundation Innovation Centre,"35 Poplar Road Parkville, VIC 3052",https://www.eventbrite.com.au/e/introduction-to-cognitive-behavoural-therapycbt-for-youth-mh-clinicians-tickets-1105996287669?aff=ebdssbdestsearch,-37.7801959,144.9478953,
DMN Past President Lunch,2025-05-20,13:00,Kooyong Lawn Tennis Club,"489 Glenferrie Road Kooyong, VIC 3144",https://www.eventbrite.com.au/e/dmn-past-president-lunch-tickets-1247975210449?aff=ebdssbdestsearch,-37.8390686,145.0318075,
Highlighting the Exceeding themes in your Quality Improvement Plan,2025-05-21,09:30,Hilton Double Tree,"270 Flinders St Melbourne, VIC",https://www.eventbrite.com.au/e/highlighting-the-exceeding-themes-in-your-quality-improvement-plan-tickets-1215801638429?aff=ebdssbdestsearch,-37.8178608,144.9654542,
Foodpreneurs Festival 2025,2025-05-22,17:00,Abbotsford Convent,"1 Saint Heliers Street Abbotsford, VIC 3067",https://www.eventbrite.com.au/e/foodpreneurs-festival-2025-tickets-1109918138029?aff=ebdssbdestsearch,-37.8031791,145.0037812,
The Red Clay Strays,2025-05-22,12:00,Forum Melbourne,"180 Flinders St, Melbourne VIC 3000, Australia",https://premier.ticketek.com.au/shows/show.aspx?sh=REDCLAY25,-37.816602,144.9694678,
Chelsea Wolfe,2025-05-23,12:00,Forum Melbourne,"180 Flinders St, Melbourne VIC 3000, Australia",https://premier.ticketek.com.au/shows/show.aspx?sh=CWOLFE25,-37.816602,144.9694678,
"Murder, She Investigates: Sisters in Crime’s 19th Law Week event",2025-05-23,18:30,"Sir Zelman Cowen Centre, Victoria University, Queen Street Campus, Lecture Theatre G02","295 Queen Street Upstairs - no lift Melbourne, VIC 3000",https://www.eventbrite.com.au/e/murder-she-investigates-sisters-in-crimes-19th-law-week-event-tickets-1280398218539?aff=ebdssbdestsearch,-37.8118041,144.9589656,
Setting the Stage: Preparing for the National Lung Cancer Screening Program,2025-05-23,09:00,The Florey Institute of Neuroscience and Mental Health,"30 Royal Parade Parkville, VIC 3010",https://www.eventbrite.com.au/e/setting-the-stage-preparing-for-the-national-lung-cancer-screening-program-tickets-1115148883329?aff=ebdssbdestsearch,-37.7982843,144.9585746,
"2025 CPN Professional Advisors' Conference | Friday, 23 May 2025",2025-05-23,08:30,Collins Square Business & Events Centre,"Tower 2 727 Collins St Docklands, VIC 3008",https://www.eventbrite.com.au/e/2025-cpn-professional-advisors-conference-friday-23-may-2025-registration-1290787914399?aff=ebdssbdestsearch,-37.8206978,144.9499668,
Floodlights,2025-05-24,12:00,Forum Melbourne,"150 Flinders St, Melbourne VIC 3000, Australia",https://premier.ticketek.com.au/shows/show.aspx?sh=FLOODLI25,-37.8166268,144.9695761,
Urban Wine Walk // Footscray & Seddon (VIC),2025-05-24,12:00,Footscray,"Multiple Venues Footscray, VIC 3011",https://www.eventbrite.com/e/urban-wine-walk-footscray-seddon-vic-tickets-1247813847809?aff=ebdssbdestsearch,-37.7988987,144.892357,
Working with Co-occurring BPD and Complex Trauma,2025-05-27,09:00,Spectrum Personality Disorder and Complex Trauma Service,"110 Church Street Richmond, VIC 3121",https://www.eventbrite.com.au/e/working-with-co-occurring-bpd-and-complex-trauma-tickets-1108736463609?aff=ebdssbdestsearch,-37.8142371,144.9995624,
1Spatial World Tour 2025 - Melbourne,2025-05-27,08:30,Cargo Hall,"39 South Wharf Promenade South Wharf, VIC 3006",https://www.eventbrite.com.au/e/1spatial-world-tour-2025-melbourne-tickets-1215686263339?aff=ebdssbdestsearch,-37.8241781,144.9508272,
Ichiko Aoba,2025-05-27,12:00,Forum Melbourne,"150 Flinders St, Melbourne VIC 3000, Australia",https://premier.ticketek.com.au/shows/show.aspx?sh=ICHIKO25,-37.8166268,144.9695761,
Ado,2025-05-27,12:00,Rod Laver Arena,"200 Batman Ave, Melbourne VIC 3000, Australia",https://premier.ticketek.com.au/shows/show.aspx?sh=ADO25,-37.8216161,144.9785584,
Batshit,2025-05-28,12:00,Fairfax Studio,"100 St Kilda Rd, Southbank VIC 3006, Australia",https://premier.ticketek.com.au/shows/show.aspx?sh=BATSHIT25,-37.8217698,144.9683587,
Ezra Collective,2025-05-29,12:00,Forum Melbourne,"150 Flinders St, Melbourne VIC 3000, Australia",https://premier.ticketek.com.au/shows/show.aspx?sh=EZRACOL25,-37.8166268,144.9695761,
Mr. McClelland's Finishing School - 80s night,2025-05-30,21:00,Stay Gold,"133 Sydney Road Brunswick, VIC 3056",https://www.eventbrite.com.au/e/mr-mcclellands-finishing-school-80s-night-tickets-1246764509209?aff=ebdssbdestsearch,-37.77435880000001,144.9606103,
BFD25,2025-05-31,07:00,Pullman Melbourne On The Park,"192 Wellington Parade East Melbourne, VIC 3002",https://www.eventbrite.com.au/e/bfd25-tickets-910196952587?aff=ebdssbdestsearch,-37.8158404,144.9833174,
Power Up Classic,2025-05-31,08:00,Iron Revolution Gym,"22 Disney Avenue #Unit 11 Keilor East, VIC 3033",https://www.eventbrite.com.au/e/power-up-classic-tickets-1261901514399?aff=ebdssbdestsearch,-37.73328900000001,144.8546905,
Alison Moyet,2025-06-01,12:00,Plenary,"1 Convention Centre Pl, South Wharf VIC 3006, Australia",https://premier.ticketek.com.au/shows/show.aspx?sh=ALISONMO25,-37.8256376,144.9512239,
Introductory Sommelier Certificate MELBOURNE 2025,2025-06-01,07:00,DoubleTree by Hilton Hotel Melbourne - Flinders Street,"270 Flinders Street Melbourne, VIC 3000",https://www.eventbrite.com.au/e/introductory-sommelier-certificate-melbourne-2025-registration-1068704115779?aff=ebdssbdestsearch,-37.8178608,144.9654542,
MBT Basic Training for BPD (3-days),2025-06-02,09:00,Spectrum,"110 Church Street Richmond, VIC 3121",https://www.eventbrite.com.au/e/mbt-basic-training-for-bpd-3-days-tickets-1105953640109?aff=ebdssbdestsearch,-37.8142371,144.9995624,
Certified Sommelier Certificate Examination MELBOURNE 2025,2025-06-03,07:00,DoubleTree by Hilton Hotel Melbourne - Flinders Street,"270 Flinders Street Melbourne, VIC 3000",https://www.eventbrite.com.au/e/certified-sommelier-certificate-examination-melbourne-2025-registration-1068821657349?aff=ebdssbdestsearch,-37.8178608,144.9654542,
Mount Kimbie,2025-06-05,12:00,Forum Melbourne,"150 Flinders St, Melbourne VIC 3000, Australia",https://premier.ticketek.com.au/shows/show.aspx?sh=MOUNTK25,-37.8166268,144.9695761,
Supergrass,2025-06-07,19:00,Forum Melbourne,"180 Flinders St, Melbourne VIC 3000, Australia",https://premier.ticketek.com.au/shows/show.aspx?sh=SUPERGRA25,-37.816602,144.9694678,
Inhaler,2025-06-09,12:00,Forum Melbourne,"180 Flinders St, Melbourne VIC 3000, Australia",https://premier.ticketek.com.au/shows/show.aspx?sh=INHALER25,-37.816602,144.9694678,
Daniel Seavey,2025-06-12,12:00,Forum Melbourne,"150 Flinders St, Melbourne VIC 3000, Australia",https://premier.ticketek.com.au/shows/show.aspx?sh=SEAVEY25,-37.8166268,144.9695761,
Katy Perry,2025-06-12,12:00,Rod Laver Arena,"200 Batman Ave, Melbourne VIC 3000, Australia",https://premier.ticketek.com.au/shows/show.aspx?sh=KATYPERR25,-37.8216161,144.9785584,
Soccer Mommy,2025-06-13,12:00,Forum Melbourne,"150 Flinders St, Melbourne VIC 3000, Australia",https://premier.ticketek.com.au/shows/show.aspx?sh=SOCCERM25,-37.8166268,144.9695761,
Short Stack,2025-06-14,12:00,Forum Melbourne,"180 Flinders St, Melbourne VIC 3000, Australia",https://premier.ticketek.com.au/shows/show.aspx?sh=SHORTSTA25,-37.816602,144.9694678,
Foil Arms & Hog,2025-06-16,12:00,Hamer Hall,"100 St Kilda Rd, Southbank VIC 3004, Australia",https://premier.ticketek.com.au/shows/show.aspx?sh=FOILARMH25,-37.8201455,144.9679946,
Torvill & Dean,2025-06-18,12:00,Rod Laver Arena,"200 Batman Ave, Melbourne VIC 3000, Australia",https://premier.ticketek.com.au/shows/show.aspx?sh=TANDD25,-37.8216161,144.9785584,
Skegss - Top Heavy Aus Tour,2025-06-20,12:00,Forum Melbourne,"150 Flinders St, Melbourne VIC 3000, Australia",https://premier.ticketek.com.au/shows/show.aspx?sh=SKEGGS25,-37.8166268,144.9695761,
Celestial Events  Fantasy Book Signing and Merchandise Day,2025-06-20,12:30,Sherwood Room Brisbane City Hall,"64 Adelaide Street Brisbane, QLD 4000",https://www.eventbrite.com.au/e/celestial-events-fantasy-book-signing-and-merchandise-day-tickets-1075648025199?aff=ebdssbdestsearch,-27.468943,153.0234041,
Kisschasy,2025-06-21,12:00,Forum Melbourne,"150 Flinders St, Melbourne VIC 3000, Australia",https://premier.ticketek.com.au/shows/show.aspx?sh=KISSCHAS25,-37.8166268,144.9695761,
Bliss n Eso,2025-06-28,12:00,Forum Melbourne,"150 Flinders St, Melbourne VIC 3000, Australia",https://premier.ticketek.com.au/shows/show.aspx?sh=BLISSNE25,-37.8166268,144.9695761,
Chris Hadfield,2025-07-01,12:00,Hamer Hall,"32 Southgate Ave, Southbank VIC 3006, Australia",https://premier.ticketek.com.au/shows/show.aspx?sh=CHRISHAD25,-37.8201455,144.9679946,
Faye Webster,2025-07-12,12:00,Forum Melbourne,"150 Flinders St, Melbourne VIC 3000, Australia",https://premier.ticketek.com.au/shows/show.aspx?sh=FAYEWEB25,-37.8166268,144.9695761,
Lisa Simone,2025-07-13,12:00,Hamer Hall,"32 Southgate Ave, Southbank VIC 3006, Australia",https://premier.ticketek.com.au/shows/show.aspx?sh=LISAVHH25,-37.8201455,144.9679946,
2025 Maths Symposium: Inspiring Fluency Through Mathematical Curiosity,2025-07-17,08:30,The University High School,"77 Story Street Elizabeth Blackburn School of Sciences Parkville, VIC 3052",https://www.eventbrite.com/e/2025-maths-symposium-inspiring-fluency-through-mathematical-curiosity-tickets-741134301647?aff=ebdssbdestsearch,-37.7969639,144.9544532,
360,2025-07-18,12:00,Forum Melbourne,"150 Flinders St, Melbourne VIC 3000, Australia",https://premier.ticketek.com.au/shows/show.aspx?sh=THREESIX25,-37.8166268,144.9695761,
The Hives,2025-07-19,12:00,Forum Melbourne,"150 Flinders St, Melbourne VIC 3000, Australia",https://premier.ticketek.com.au/shows/show.aspx?sh=HIVES25,-37.8166268,144.9695761,
Bear McCreary,2025-07-23,12:00,Forum Melbourne,"150 Flinders St, Melbourne VIC 3000, Australia",https://premier.ticketek.com.au/shows/show.aspx?sh=BEARMC25,-37.8166268,144.9695761,
The Legends of Rugby,2025-07-25,12:00,Grand Hyatt Melbourne,"123 Collins St, Melbourne VIC 3000, Australia",https://premier.ticketek.com.au/shows/show.aspx?sh=LEGRUGBY25,-37.8152075,144.9698275,
DOPE LEMON,2025-07-25,12:00,Forum Melbourne,"150 Flinders St, Melbourne VIC 3000, Australia",https://premier.ticketek.com.au/shows/show.aspx?sh=DOPELEM25,-37.8166268,144.9695761,
"Tyler, The Creator",2025-08-20,19:30,Rod Laver Arena,"200 Batman Ave, Melbourne VIC 3000, Australia",https://premier.ticketek.com.au/shows/show.aspx?sh=TYLERTHE25,-37.8216161,144.9785584,
Keith Urban,2025-08-25,12:00,Rod Laver Arena,"200 Batman Ave, Melbourne VIC 3000, Australia",https://premier.ticketek.com.au/shows/show.aspx?sh=KEITHURB25,-37.8216161,144.9785584,
Alex Warren,2025-08-25,12:00,Forum Melbourne,"150 Flinders St, Melbourne VIC 3000, Australia",https://premier.ticketek.com.au/shows/show.aspx?sh=WARREN25,-37.8166268,144.9695761,
Paul Kelly,2025-09-02,12:00,MyState Bank Arena,"601 Brooker Hwy, Glenorchy TAS 7010, Australia",https://premier.ticketek.com.au/shows/show.aspx?sh=PAULKELL25&v=MYB,-42.82416569999999,147.2827222,
Ray Chen in Recital,2025-09-08,12:00,Hamer Hall,"100 St Kilda Rd, Southbank VIC 3004, Australia",https://premier.ticketek.com.au/shows/show.aspx?sh=RAYCHEN25,-37.8201455,144.9679946,
LeAnn Rimes,2025-09-16,12:00,John Cain Arena,"35 Olympic Blvd, Melbourne VIC 3000, Australia",https://premier.ticketek.com.au/shows/show.aspx?sh=LEANN25,-37.8227725,144.9819687,
The Mary Wallopers,2025-09-19,12:00,Forum Melbourne,"150 Flinders St, Melbourne VIC 3000, Australia",https://premier.ticketek.com.au/shows/show.aspx?sh=MARYWALL25,-37.8166268,144.9695761,
Anastacia,2025-09-24,12:00,Forum Melbourne,"150 Flinders St, Melbourne VIC 3000, Australia",https://premier.ticketek.com.au/shows/show.aspx?sh=ANASNTK25,-37.8166268,144.9695761,
Marcia Sings Summer,2025-10-05,12:00,Hamer Hall,"32 Southgate Ave, Southbank VIC 3006, Australia",https://premier.ticketek.com.au/shows/show.aspx?sh=MARCIASI25,-37.8201455,144.9679946,
Zac Brown Band,2025-10-06,12:00,Margaret Court Arena,"5XHH+G3 Melbourne VIC, Australia",https://premier.ticketek.com.au/shows/show.aspx?sh=ZACBROWN25,-37.8211276,144.9776364,
Damiano David,2025-10-24,12:00,Forum Melbourne,"150 Flinders St, Melbourne VIC 3000, Australia",https://premier.ticketek.com.au/shows/show.aspx?sh=DAMIANO25,-37.8166268,144.9695761,
Damien Leith,2025-11-01,12:00,Hamer Hall,"100 St Kilda Rd, Southbank VIC 3004, Australia",https://premier.ticketek.com.au/shows/show.aspx?sh=DAMIENLE25,-37.8201455,144.9679946,
The Church,2025-11-08,12:00,Forum Melbourne,"150 Flinders St, Melbourne VIC 3000, Australia",https://premier.ticketek.com.au/shows/show.aspx?sh=CHURCH25,-37.8166268,144.9695761,
RÜFÜS DU SOL,2025-11-13,12:00,Rod Laver Arena,"200 Batman Ave, Melbourne VIC 3000, Australia",https://premier.ticketek.com.au/shows/show.aspx?sh=RUFUS25,-37.8216161,144.9785584,
Carmen,2025-11-15,12:00,Regent Theatre,"191 Collins St, Melbourne VIC 3000, Australia",https://premier.ticketek.com.au/shows/show.aspx?sh=CARMEN25,-37.8158988,144.9679107,
Hybrid Theory,2025-11-21,12:00,PICA (Port Melbourne Industrial Centre for the Arts),"1 Thackray Rd, Port Melbourne VIC 3207, Australia",https://premier.ticketek.com.au/shows/show.aspx?sh=HTHEORY25,-37.8296148,144.9256488,
The Fray,2025-12-07,12:00,Forum Melbourne,"150 Flinders St, Melbourne VIC 3000, Australia",https://premier.ticketek.com.au/shows/show.aspx?sh=THEFRAY25,-37.8166268,144.9695761,
CATS,2025-12-21,12:00,Hamer Hall,"32 Southgate Ave, Southbank VIC 3006, Australia",https://premier.ticketek.com.au/shows/show.aspx?sh=CATS25,-37.8201455,144.9679946,
Yuvan Shankar Raja,2025-12-31,12:00,John Cain Arena,"35 Olympic Blvd, Melbourne VIC 3000, Australia",https://premier.ticketek.com.au/shows/show.aspx?sh=YUVANS24,-37.8227725,144.9819687,
The Plot in You Australian Tour 2026,2026-01-25,12:00,Forum Melbourne,"150 Flinders St, Melbourne VIC 3000, Australia",https://premier.ticketek.com.au/shows/show.aspx?sh=THEPLOT26,-37.8166268,144.9695761,
