Event_Title,Date,Time,Venue,Address,url,Latitude,Longitude
Lace Dress Debut Gig ,2025-01-09,19:00,The Workers Club,"51 Brunswick St, Fitzroy VIC 3065, Australia",https://www.facebook.com/events/1575401489813747/,-37.8055776,144.9769450659087
Meditation Thursday Morning Class January 2025 term,2025-01-09,09:30,Tranquil Yoga,"69 Moore Road Airport West, VIC 3042",https://www.eventbrite.com.au/e/meditation-thursday-morning-class-january-2025-term-tickets-1057787333389?aff=ebdssbdestsearch,-37.7166005,144.8859728
Pentridge Prison - H Division Night Tours December 2024 - February 2025,2025-01-09,18:30,Pentridge Prison,"1 Champ Street Coburg, VIC 3058",https://www.eventbrite.com.au/e/pentridge-prison-h-division-night-tours-december-2024-february-2025-tickets-909558482907?aff=ebdssbdestsearch,-37.7370508,144.9677596
City LOVE Scavenger Hunt Date Night For Couples - Melbourne Vic Area,2025-01-09,13:00,**Recommended starting point or another city spot of your choice! (MUST USE PDF TICKETS-NO QR CODES),"33 Lincoln Square South Carlton, VIC 3053",https://www.eventbrite.com/e/city-love-scavenger-hunt-date-night-for-couples-melbourne-vic-area-tickets-910283571667?aff=ebdssbdestsearch,-37.8033885,144.9623452
Adult Beginner Jazz,2025-01-09,07:30,Dance Factory,"225 Swan Street Richmond, VIC 3121",https://www.eventbrite.com.au/e/adult-beginner-jazz-tickets-1118430749479?aff=ebdssbdestsearch,-37.8257354,144.9998261
"Basement Comedy Club: Thur/Fri/Sat, January 9/10/11",2025-01-09,20:00,Basement Comedy Club,"120 Exhibition Street Melbourne, VIC 3000",https://www.eventbrite.com.au/e/basement-comedy-club-thurfrisat-january-91011-tickets-1111022200309?aff=ebdssbdestsearch,-37.8128722,144.9712049
Stoned Ape Theory live at The Retreat Hotel Brunswick w/ Blue Melon Trio,2025-01-09,19:30,280 Sydney Rd,"280 Sydney Road Brunswick, VIC 3056",https://www.eventbrite.com.au/e/stoned-ape-theory-live-at-the-retreat-hotel-brunswick-w-blue-melon-trio-tickets-1122311075639?aff=ebdssbdestsearch,-37.7711488,144.9616353
Adult Beginner Ballet,2025-01-09,06:30,Dance Factory,"225 Swan Street Richmond, VIC 3121",https://www.eventbrite.com.au/e/adult-beginner-ballet-tickets-1118426155739?aff=ebdssbdestsearch,-37.8257354,144.9998261
Plate Lithography,2025-01-09,10:00,Australian Print Workshop,"210 Gertrude Street Fitzroy, VIC 3065",https://www.eventbrite.com.au/e/plate-lithography-tickets-1023080971727?aff=ebdssbdestsearch,-37.8064244,144.9815567
CIGARETTES & ALCOHOL,2025-01-09,19:00,The Old Bar,"74-76 Johnston Street Fitzroy, VIC 3065",https://www.eventbrite.com/e/cigarettes-alcohol-tickets-1106000620629?aff=ebdssbdestsearch,-37.798362,144.977083
"Bottomless Cocktails at Top Yard, Melb CBD",2025-01-09,17:00,Top Yard Rooftop,"2 Geddes Lane Melbourne, VIC 3000",https://www.eventbrite.com.au/e/bottomless-cocktails-at-top-yard-melb-cbd-tickets-859288333537?aff=ebdssbdestsearch,-37.8189705,144.957155
#SwiftTok,2025-01-09,19:00,The Butterfly Club,"5 Carson Place Melbourne, VIC 3000",https://www.eventbrite.co.uk/e/swifttok-tickets-1043372744967?aff=ebdssbdestsearch,-37.8154472,144.9652725
"FeelGoodFlows - Sunrise Yoga Thursdays - Meditation, Breathwork, & Mobility",2025-01-09,06:30,South Melbourne Life Saving Club,"72B Beaconsfield Parade Albert Park, VIC 3206",https://www.eventbrite.com.au/e/feelgoodflows-sunrise-yoga-thursdays-meditation-breathwork-mobility-tickets-1044511310447?aff=ebdssbdestsearch,-37.8471341,144.9466738
Paint in the Dark© - UV Light Disco Party,2025-01-09,19:00,Paint for Fun,"252 Graham Street #Unit 1 Port Melbourne, VIC 3207",https://www.eventbrite.com.au/e/paint-in-the-dark-uv-light-disco-party-tickets-1042590575477?aff=ebdssbdestsearch,-37.8386895,144.9385483
The Tennis Podcast - Live in Melbourne,2025-01-09,19:00,Fringe Common Rooms,"Victoria Street Carlton, VIC 3053",https://www.eventbrite.co.uk/e/the-tennis-podcast-live-in-melbourne-tickets-1106170649189?aff=ebdssbdestsearch,-37.8070051,144.9658001
Spirit HAPPY HOUR + Spin to WIN!,2025-01-09,00:00,Inkerman Hotel,"375 Inkerman St, St Kilda East VIC 3183, Australia",https://www.facebook.com/events/508452218649178/?event_time_id=508452298649170,-37.866444,144.99799715146656
Outdoor Cinema: Techno Thrillers. Tron Legacy (2010) and Spider-Man: Across the Spider-Verse (2023),2025-01-09,18:30,Fed Square,"Swanston St &, Flinders St, Melbourne VIC 3000, Australia",https://www.facebook.com/events/922469390088055/,-37.81767355,144.9667825800355
No Regrets - The Edith Piaf Story (Paris Cat Jazz Club),2025-01-09,0:00,Paris Cat Jazz Club,"6 Goldie Pl, Melbourne VIC 3000, Australia",https://www.facebook.com/events/918127910185251/,-37.8133262,144.96060714767358
Suck it Up @ BAR OUSSOU!,2025-01-09,20:00,Bar Oussou,"653 Sydney Rd, Brunswick VIC 3056, Australia",https://www.facebook.com/events/1947876812402827/,-37.7618155,144.9628753
Mark Ferrie's Instant Noodles // Thur Arvo Gig Series,2025-01-09,14:00,Kindred Bandroom,"3 Harris St, Footscray VIC 3011, Australia",https://www.facebook.com/events/1940861699739612/,-37.8119001,144.9008247
"GUERNS THURS - $4 Pots, Seltzers $6 Vodkas!",2025-01-09,00:00,New Guernica,"64 Smith St, Collingwood VIC 3066, Australia",https://www.facebook.com/events/534336262977662/,-37.80624775,144.98331211946754
Connor Callahan ‘All this time’ Single Launch,2025-01-09,19:30,Bergy Bandroom,"64 Sydney Rd, Brunswick VIC 3056, Australia",https://www.facebook.com/events/615118797621988/,-37.776327,144.9607158
Legends in Concert ,2025-01-09,00:00,Palladium at Crown,"Level 1 Crown Towers, Crown Melbourne, 8 Whiteman St, Southbank VIC 3006, Australia",https://www.facebook.com/events/1154047275692684/,-37.822181,144.959875
TGC - LIVE SUMMER 24/25,2025-01-09,19:00,Forum Melbourne,"154 Flinders St, Melbourne VIC 3000, Australia",https://www.facebook.com/events/559398269906514/,-37.81644145,144.9693768124984
Creeping Jenny - 'Milquebox' EP Launch Tour | Melbourne,2025-01-09,00:00,Bad Decisions Bar,"46 Johnston St, Fitzroy VIC 3065, Australia",https://www.facebook.com/events/1112331930357321/,-37.798246,144.9762881
Erin Buku | Live at Punters Club,2025-01-09,21:00,Punters Club,"376 Brunswick St, Fitzroy VIC 3065, Australia",https://www.facebook.com/events/1303209797483000/,-37.7960561,144.9790327
Wonderland Thursdays | 2nd January,2025-01-09,00:00,StoryVille,"185 Lonsdale St, Melbourne VIC 3000, Australia",https://www.facebook.com/events/1522643401781677/,-37.81117675,144.9668442406415
2025 NYE Party,2025-01-10,18:00,Chapel Street,"Chapel Street South Yarra, VIC 3141",https://www.eventbrite.com/e/2025-nye-party-tickets-1121083112769?aff=ebdssbdestsearch,-37.8418555,144.9951407
Speed Dating | Melbourne Friday Event | Ages 27-49 | Fancy A Go?,2025-01-10,19:00,The Metropolitan Hotel,"265 William Street Melbourne, VIC 3000",https://www.eventbrite.com/e/speed-dating-melbourne-friday-event-ages-27-49-fancy-a-go-tickets-1097826531709?aff=ebdssbdestsearch,-37.812902,144.9566615
Vida Melbourne Latin Festival 2025 - Three Days Festival - FREE EVENT,2025-01-10,16:00,"Tom's Block, Kings Domain","Tom's Block, Kings Domain MELBOURNE, VIC 3004",https://www.eventbrite.com.au/e/vida-melbourne-latin-festival-2025-three-days-festival-free-event-tickets-1096764274469?aff=ebdssbdestsearch,-37.8239883,144.9711199
"BANG BANG BHANGRA at Crown, Melbourne",2025-01-10,21:30,Crown Melbourne,"8 Whiteman Street Southbank, VIC 3006",https://www.eventbrite.com.au/e/bang-bang-bhangra-at-crown-melbourne-tickets-1122783899869?aff=ebdssbdestsearch,-37.82343669999999,144.9580861
WHERE LOVE LIVES feat. BIRDEE (ITALY),2025-01-10,20:00,The Osborne Rooftop & Bar,"119 Commercial Road South Yarra, VIC 3141",https://www.eventbrite.com.au/e/where-love-lives-feat-birdee-italy-tickets-1092796877879?aff=ebdssbdestsearch,-37.8460714,144.9900667
KAP Go Deep with Live Music -  Life Force Activation Melbourne,2025-01-10,19:30,Little Mandarin Yoga & Pilates (Camberwell),"576 Burke Road #Level 1 Camberwell, VIC 3124",https://www.eventbrite.com.au/e/kap-go-deep-with-live-music-life-force-activation-melbourne-tickets-1116346435239?aff=ebdssbdestsearch,-37.8307489,145.0570843
Loose News,2025-01-10,20:30,The Butterfly Club,"5 Carson Place Melbourne, VIC 3000",https://www.eventbrite.co.uk/e/loose-news-tickets-991601275107?aff=ebdssbdestsearch,-37.8154472,144.9652725
Como House Guided Tour - January-February 2025,2025-01-10,13:30,Como House and Garden,"Cnr Wiliams Road and Lechlade Ave South Yarra, VIC",https://www.eventbrite.com.au/e/como-house-guided-tour-january-february-2025-tickets-1091865472019?aff=ebdssbdestsearch,-37.8385449,145.0050826
Melbourne Mingle | Singles Mingle,2025-01-10,19:00,Champagne Problems,"238 Little Collins Street Melbourne, VIC 3000",https://www.eventbrite.com.au/e/melbourne-mingle-singles-mingle-tickets-1110061546969?aff=ebdssbdestsearch,-37.8142781,144.9666247
Majak Door - Single Launch @ Pockets Moorabbin,2025-01-10,20:00,Pockets Moorabbin,"168 Chesterville Road Cheltenham, VIC 3192",https://www.eventbrite.com.au/e/majak-door-single-launch-pockets-moorabbin-tickets-1081479487259?aff=ebdssbdestsearch,-37.9481004,145.059588
JUGNI (The Bewafa Boy) Live in Melbourne,2025-01-10,22:00,170 Russell St,"170 Russell Street Melbourne, VIC 3000",https://www.eventbrite.com.au/e/jugni-the-bewafa-boy-live-in-melbourne-tickets-1089799623009?aff=ebdssbdestsearch,-37.8119107,144.9680341
Comedy On Tap - January 10th. St Luja - St Kilda,2025-01-10,07:30,St LuJa | Cocktail Bar,"9 Fitzroy Street St Kilda, VIC 3182",https://www.eventbrite.com/e/comedy-on-tap-january-10th-st-luja-st-kilda-tickets-1107760484429?aff=ebdssbdestsearch,-37.8627907,144.9733795
Melbourne Speed Dating | Friday Event | Ages 27-49 | Do You Relish?,2025-01-10,19:00,The Metropolitan Hotel,"265 William Street Melbourne, VIC 3000",https://www.eventbrite.com/e/melbourne-speed-dating-friday-event-ages-27-49-do-you-relish-tickets-1097822289019?aff=ebdssbdestsearch,-37.812902,144.9566615
Unidos Vol.3: Kizomba & Bachata Festival Melbourne,2025-01-10,09:00,Second Story Studios,"222A Johnston Street Collingwood, VIC 3066",https://www.eventbrite.com/e/unidos-vol3-kizomba-bachata-festival-melbourne-tickets-897738278357?aff=ebdssbdestsearch,-37.799574,144.9924468
Random Things,2025-01-10,19:00,The Butterfly Club,"5 Carson Place Melbourne, VIC 3000",https://www.eventbrite.co.uk/e/random-things-tickets-1038627692387?aff=ebdssbdestsearch,-37.8154472,144.9652725
Como House Guided Tour - January 2025,2025-01-10,13:30,Como House and Garden,"Cnr Wiliams Road and Lechlade Ave South Yarra, VIC",https://www.eventbrite.com.au/e/como-house-guided-tour-january-2025-tickets-1091865472019?aff=ebdssbdestsearch,-37.8385449,145.0050826
FADS: Queer Rave,2025-01-10,21:00,Bad Decisions Bar,"46 Johnston Street Fitzroy, VIC 3065",https://www.eventbrite.com.au/e/fads-queer-rave-tickets-1116167951389?aff=ebdssbdestsearch,-37.7982682,144.9762913
Speed Dating |Melbourne Friday Event | Ages 27-49 | Do You Relish?,2025-01-10,19:00,The Metropolitan Hotel,"265 William Street Melbourne, VIC 3000",https://www.eventbrite.com/e/speed-dating-melbourne-friday-event-ages-27-49-do-you-relish-tickets-1097826561799?aff=ebdssbdestsearch,-37.812902,144.9566615
BNI QUANTUM - In Person Networking Event,2025-01-10,06:30,SNA CAFE,"480 Saint Kilda Road Melbourne, VIC 3004",https://www.eventbrite.com.au/e/bni-quantum-in-person-networking-event-tickets-1040236233577?aff=ebdssbdestsearch,-37.8427264,144.9773176
DJ JUGNI (The Bewafa Boy) Live in Melbourne,2025-01-10,22:00,170 Russell St,"170 Russell Street Melbourne, VIC 3000",https://www.eventbrite.com.au/e/dj-jugni-the-bewafa-boy-live-in-melbourne-tickets-1089799623009?aff=ebdssbdestsearch,-37.8119107,144.9680341
The Bogan Polyglot,2025-01-10,20:30,The Butterfly Club,"5 Carson Place Melbourne, VIC 3000",https://www.eventbrite.co.uk/e/the-bogan-polyglot-tickets-1080176740709?aff=ebdssbdestsearch,-37.8154472,144.9652725
Melbourne Speed Dating | Friday Event | Ages 27-49 | Fancy A Go?,2025-01-10,19:00,The Metropolitan Hotel,"265 William Street Melbourne, VIC 3000",https://www.eventbrite.com/e/melbourne-speed-dating-friday-event-ages-27-49-fancy-a-go-tickets-1097809661249?aff=ebdssbdestsearch,-37.812902,144.9566615
"Melbourne Language Exchange | Make Friends, Learn Languages & Culture",2025-01-10,17:30,215 Queen's Restaurant and Bar Melbourne,"215 Queen Street Melbourne, VIC 3000",https://www.eventbrite.com.au/e/melbourne-language-exchange-make-friends-learn-languages-culture-tickets-1059091584439?aff=ebdssbdestsearch,-37.8137882,144.9598785
"Clutch 4 - feat. NAM-KHAR (Germany - Cyclic Law, Zazen Sound, Winter-Light)",2025-01-10,20:00,Nighthawks,"136 Johnston Street Collingwood, VIC 3066",https://www.eventbrite.com/e/clutch-4-feat-nam-khar-germany-cyclic-law-zazen-sound-winter-light-tickets-1090838540439?aff=ebdssbdestsearch,-37.799333,144.989527
Bottomless Cocktails Chapel St,2025-01-10,17:00,"Three Monkeys, 210 Chapel Street, Prahran VIC, Australia","210 Chapel Street Prahran, VIC 3181",https://www.eventbrite.com.au/e/bottomless-cocktails-chapel-st-tickets-1109923604379?aff=ebdssbdestsearch,-37.851041,144.993681
Melbourne Job Fair - Melbourne Career Fair (Employer Registration),2025-01-10,11:00,Melbourne,"Virtual Job Fair Melbourne, VIC",https://www.eventbrite.com/e/melbourne-job-fair-melbourne-career-fair-employer-registration-registration-1050404818087?aff=ebdssbdestsearch,-37.8136276,144.9630576
Data Science & Analytics meetup and chat Melbourne,2025-01-10,17:30,215 Queen's Restaurant and Bar Melbourne,"215 Queen Street Melbourne, VIC 3000",https://www.eventbrite.com.au/e/data-science-analytics-meetup-and-chat-melbourne-tickets-951030536937?aff=ebdssbdestsearch,-37.8137882,144.9598785
Melbourne Speed Dating | Friday Event | Ages 27-49 | SpeedAustralia,2025-01-10,19:00,The Metropolitan Hotel,"265 William Street Melbourne, VIC 3000",https://www.eventbrite.com/e/melbourne-speed-dating-friday-event-ages-27-49-speedaustralia-tickets-1097802740549?aff=ebdssbdestsearch,-37.812902,144.9566615
Meet People Social Melbourne | Cultural International Party,2025-01-10,17:30,215 Queen's Restaurant and Bar Melbourne,"215 Queen Street Melbourne, VIC 3000",https://www.eventbrite.com.au/e/meet-people-social-melbourne-cultural-international-party-tickets-951030677357?aff=ebdssbdestsearch,-37.8137882,144.9598785
"FREE SPEED FRIENDING, language exchange, karaoke, boardgames & open mic",2025-01-10,17:30,215 Queen's Bar,"215 Queen Street Melbourne, VIC 3000",https://www.eventbrite.com.au/e/free-speed-friending-language-exchange-karaoke-boardgames-open-mic-tickets-1108456777059?aff=ebdssbdestsearch,-37.8137882,144.9598785
Teen Holiday Showbags - For young people  aged 12-18,2025-01-10,16:00,Valley Youth Space,"3 Matthews Avenue Niddrie, VIC 3042",https://www.eventbrite.com.au/e/teen-holiday-showbags-for-young-people-aged-12-18-tickets-1049196704587?aff=ebdssbdestsearch,-37.7347718,144.8888723
Sundown with Birdsnake (improv set) + Mozë (soul set) + Jay Jerome,2025-01-10,19:30,280 Sydney Rd,"280 Sydney Road Brunswick, VIC 3056",https://www.eventbrite.com.au/e/sundown-with-birdsnake-improv-set-moze-soul-set-jay-jerome-tickets-1127155415189?aff=ebdssbdestsearch,-37.7711488,144.9616353
Volleyball training for 8 - 20 year old male and females 10 and 17 January,2025-01-10,05:30,Camberwell High School,"100A Prospect Hill Road Canterbury, VIC 3126",https://www.eventbrite.com.au/e/volleyball-training-for-8-20-year-old-male-and-females-10-and-17-january-tickets-1126439824839?aff=ebdssbdestsearch,-37.8300983,145.0726321
"DYNASTY live at Cherry Bar, Saturday Jan 10th",2025-01-10,20:00,"Cherry Bar, Little Collins Street, Melbourne VIC, Australia","68 Little Collins Street Melbourne, VIC 3000",https://www.eventbrite.com.au/e/dynasty-live-at-cherry-bar-saturday-jan-10th-tickets-1127132887809?aff=ebdssbdestsearch,-37.8129293,144.9714986
Melbourne singles mixer for ages 26-44 by Cheeky Events Australia,2025-01-10,19:00,Mt View Hotel,"70 Bridge Road Richmond Melbourne, VIC 3121",https://www.eventbrite.com.au/e/melbourne-singles-mixer-for-ages-26-44-by-cheeky-events-australia-tickets-1036457340807?aff=ebdssbdestsearch,-37.817951,144.992169
Young IT Professionals in Melbourne Social,2025-01-10,17:30,215 Queen's Restaurant and Bar Melbourne,"215 Queen Street Melbourne, VIC 3000",https://www.eventbrite.com.au/e/young-it-professionals-in-melbourne-social-tickets-951030446667?aff=ebdssbdestsearch,-37.8137882,144.9598785
Vida Melbourne Latin Festival 2025,2025-01-10,16:00,"Tom's Block, Kings Domain","Tom's Block, Kings Domain MELBOURNE, VIC 3004",https://www.eventbrite.com.au/e/vida-melbourne-latin-festival-2025-tickets-1096764274469?aff=ebdssbdestsearch,-37.8239883,144.9711199
Melbourne Magic Show - Impossible Occurrences,2025-01-10,21:30,Melbourne Marriott Hotel,"Cnr Lonsdale & Exhibition St Melbourne, VIC 3000",https://www.eventbrite.com.au/e/melbourne-magic-show-impossible-occurrences-tickets-947627648807?aff=ebdssbdestsearch,-37.8100597,144.9697004
"IT Social Melbourne | Data, Technology, Cybersecurity, IT",2025-01-10,17:30,215 Queen's Restaurant and Bar Melbourne,"215 Queen Street Melbourne, VIC 3000",https://www.eventbrite.com.au/e/it-social-melbourne-data-technology-cybersecurity-it-tickets-951030647267?aff=ebdssbdestsearch,-37.8137882,144.9598785
"Onsite: Friday  09:30-13:30.  Jan 10+17, 2025 (English)",2025-01-10,09:30,The Royal Women's Hospital,"20 Flemington Road Parkville, VIC 3052",https://www.eventbrite.com.au/e/onsite-friday-0930-1330-jan-1017-2025-english-tickets-1086544627229?aff=ebdssbdestsearch,-37.7989848,144.9550748
Mary Miller Cafe - Dinner and Drinks Package,2025-01-10,17:30,Mary Miller Cafe,"55-63 Nicholson Street Brunswick East, VIC 3057",https://www.eventbrite.com.au/e/mary-miller-cafe-dinner-and-drinks-package-tickets-1106882107179?aff=ebdssbdestsearch,-37.7757399,144.9786127
Pentridge Prison - The Night Watch Tour | December 2024 - February 2025,2025-01-10,20:30,Pentridge Prison,"1 Champ Street Coburg, VIC 3058",https://www.eventbrite.com.au/e/pentridge-prison-the-night-watch-tour-december-2024-february-2025-tickets-1098498451439?aff=ebdssbdestsearch,-37.7370508,144.9677596
Bliss Fridays- Bottomless Bliss Drinks Package at Morris Jones,2025-01-10,19:00,Inca | Morris Jones Restaurant & Cocktail Bar,"163 Chapel Street Windsor, VIC 3181",https://www.eventbrite.com/e/bliss-fridays-bottomless-bliss-drinks-package-at-morris-jones-tickets-1095914282119?aff=ebdssbdestsearch,-37.8523323,144.9930063
Effective Communication Skills & Strategies Session for your Team-Melbourne,2025-01-10,09:00,"Training at your own premises or your preferred venue. Reach us at ""corporate@mangates.com"" for more details.","PH: + 61(0) 2 80155605 Melbourne, VIC 3000",https://www.eventbrite.com/e/effective-communication-skills-strategies-session-for-your-team-melbourne-tickets-840083962747?aff=ebdssbdestsearch,-37.8152065,144.963937
'25 Hip Hop,2025-01-10,21:00,Laundry Bar,"50 Johnston Street Fitzroy, VIC 3065",https://www.eventbrite.com.au/e/25-hip-hop-tickets-1113371256399?aff=ebdssbdestsearch,-37.79831,144.976368
"BOLLYWOOD CLUB Presents Friday Night at Crown, Melbourne",2025-01-10,21:30,Crown Melbourne,"8 Whiteman Street Southbank, VIC 3006",https://www.eventbrite.com.au/e/bollywood-club-presents-friday-night-at-crown-melbourne-tickets-999153042647?aff=ebdssbdestsearch,-37.82343669999999,144.9580861
Flamingo Club,2025-01-10,21:00,Pawn & Co,"177 Greville Street Prahran, VIC 3181",https://www.eventbrite.com.au/e/flamingo-club-tickets-934233155517?aff=ebdssbdestsearch,-37.8493266,144.9926289
Melbourne Beach Tennis International '25,2025-01-10,07:00,West Beach Pavilion,"330A Beaconsfield Parade Saint Kilda West, VIC 3182",https://www.eventbrite.com/e/melbourne-beach-tennis-international-25-registration-1090402235439?aff=ebdssbdestsearch,-37.8582372,144.9682824
DUCK! Comedy: The Great Debate,2025-01-10,19:30,Stay Gold,"133 Sydney Rd, Brunswick VIC 3056, Australia",https://www.facebook.com/events/2581252665413261/,-37.7743469,144.9607404
BODIES at THE OLDIE w/ FUTURE TONGUES + COMEDY + ANOTHER ROTTING CORPSE,2025-01-10,20:00,The Old Bar,"74-76 Johnston St, Fitzroy VIC 3065, Australia",https://www.facebook.com/events/1812446449582174/,-37.79833,144.97711
 FREE EVENT | Peter Thackrah | From 5pm,2025-01-10,00:00,arcobar heatherton,"8 Arco Ln, Heatherton VIC 3202, Australia",https://www.facebook.com/events/442143728836835/,-37.94673685,145.07837928457485
MH & U//D pres: Azu Tiwaline + DJ Plead + Special Guest (UK),2025-01-10,23:00,Sub Club Melbourne,"Flinders Ct, Melbourne VIC 3000, Australia",https://www.facebook.com/events/932658422109253/,-37.81776587,144.96433104920948
AC2ZZ (and everything in between),2025-01-10,00:00,Musicland Melbourne,"1359 Sydney Rd, Fawkner VIC 3060, Australia",https://www.facebook.com/events/1944708452682046/,-37.6916774,144.9585701581541
MANGO CLUB | 10.01.25 ,2025-01-10,00:00,Mango Club,"577 Little Bourke St Docklands VIC 3000, Australia",https://www.facebook.com/events/1149512773543357/,-37.81578222,144.95396129427266
BLACK NOIR x SURGE x PRO TECHNO presents: MUGLI PROJECT  [GER] & LESTRANGE [NSW],2025-01-10,00:00,Rubix Warehouse,"36 Phoenix St, Brunswick VIC 3056, Australia",https://www.facebook.com/events/2081888638936004/,-37.7698629,144.95727340490248
Live Show For Projects Panda,2025-01-10,00:00,The Penny Black,"420 Sydney Rd, Brunswick VIC 3056, Australia",https://www.facebook.com/events/518637357846137/,-37.7679775,144.9621651
Hook N' Sling! *Soul Dance Party* - Fri 10 JAN,2025-01-10,00:00,Punters Club,"376 Brunswick St, Fitzroy VIC 3065, Australia",https://www.facebook.com/events/1299312324551321/,-37.7960561,144.9790327
Rufus Wainwright,2025-01-10,00:00,Melbourne Recital Centre,"31 Sturt St, Southbank VIC 3006, Australia",https://www.facebook.com/events/2477068575834143/,-37.82408485,144.96758763141432
ASCENSION EVENTS presents B2B,2025-01-10,00:00,New Guernica,"64 Smith St, Collingwood VIC 3066, Australia",https://www.facebook.com/events/1322942128709953/,-37.80624775,144.98331211946754
Bebe's Bar - Real Deal Cover Band,2025-01-10,00:00,Musicland Melbourne,"1359 Sydney Rd, Fawkner VIC 3060, Australia",https://www.facebook.com/events/1100836994883284/,-37.6916774,144.9585701581541
The Great Gig in The Sky - A Pink Floyd Celebration | MEMO Music Hall,2025-01-10,00:00,MEMO Music Hall,"88 Acland St, St Kilda VIC 3182, Australia",https://www.facebook.com/events/485598940633892/?event_time_id=485598947300558,-37.8671902,144.9786817
The Robbies single launch @ Mamma Chens,2025-01-10,19:45,Mamma Chen's,"42A Albert St, Footscray VIC 3011, Australia",https://www.facebook.com/events/515808414944608/,-37.8047552,144.89727240000002
Stephen Magnusson Trio !,2025-01-10,19:30,Uptown Jazz Cafe,"1/177 Brunswick St, Fitzroy VIC 3065, Australia",https://www.facebook.com/events/3626938480783673/,-37.79705404,144.97869049756974
Rufus Wainwright,2025-01-10,0:00,Melbourne Recital Centre,"31 Sturt St, Southbank VIC 3006, Australia",https://www.facebook.com/events/2477068575834143/?event_time_id=2477068579167476,-37.82408485,144.96758763141432
Lucy Harrington Band + Claude + April May @ The Curtin Hotel ,2025-01-10,19:00,THE CURTIN (John Curtin hotel),"29 Lygon St, Carlton VIC 3053, Australia",https://www.facebook.com/events/1243847063534662/,-37.8061581,144.9657057
Sing Sing: Advance Screening,2025-01-10,18:45,Cinema Nova,"380 Lygon St, Carlton VIC 3053, Australia",https://www.facebook.com/events/580161774636911/,-37.7978092,144.9680124
Fads: Queer Rave,2025-01-10,00:00,Bad Decisions Bar,"46 Johnston St, Fitzroy VIC 3065, Australia",https://www.facebook.com/events/966470075527520/,-37.798246,144.9762881
"Don Glori with AKA Zeb (live), Samira x Locus, bbsanii & more",2025-01-10,19:00,Kindred Bandroom,"3 Harris St, Footscray VIC 3011, Australia",https://www.facebook.com/events/1096832298560017/,-37.8119001,144.9008247
Water Bugs of Merri Creek w' Rob Imlach,2025-01-10,20:30,The Merri Creek Tavern,"111 High St, Northcote VIC 3070, Australia",https://www.facebook.com/events/2940546656244898/,-37.7794356,144.996838
'25 Hip Hop,2025-01-10,00:00,Laundry Bar,"50 Johnston St, Fitzroy VIC 3065, Australia",https://www.facebook.com/events/8875048629244945/,-37.7983139,144.9764962
23 Red,2025-01-10,00:00,Altona Sports Club,"11 Altona Rd, Altona VIC 3018, Australia",https://www.facebook.com/events/1129501641894296/,-37.85754867,144.85121805353086
"Primal Scream at The Forum, Melbourne (18+)",2025-01-10,19:00,Forum Melbourne,"154 Flinders St, Melbourne VIC 3000, Australia",https://www.facebook.com/events/1262517484751470/,-37.81644145,144.9693768124984
Masikuna @ BAR OUSSOU!,2025-01-10,22:00,Bar Oussou,"653 Sydney Rd, Brunswick VIC 3056, Australia",https://www.facebook.com/events/941711844069040/,-37.7618155,144.9628753
Outer Worlds Invades! - Ojay Australian Tour 2025,2025-01-11,19:00,Stay Gold,"133 Sydney Rd, Brunswick VIC 3056, Australia",https://www.facebook.com/events/568513235592171/,-37.7743469,144.9607404
Ready New Gang @ BAR OUSSOU!,2025-01-11,22:00,Bar Oussou,"653 Sydney Rd, Brunswick VIC 3056, Australia",https://www.facebook.com/events/882886027044820/,-37.7618155,144.9628753
Tumbleweed + Smoked Salmon + JJ McCann Transmission,2025-01-11,20:00,Brunswick Ballroom,"314 Sydney Rd, Brunswick VIC 3056, Australia",https://www.facebook.com/events/2007545509708592/,-37.7704205,144.9617083
"THE FLYING SO HIGH-O'S GRANDIOSO RETURN! W ALEX ELBERY, KATIE DEY & RATFINK",2025-01-11,15:00,The Last Chance,"238 Victoria St, Melbourne VIC 3000, Australia",https://www.facebook.com/events/1552059992141810/,-37.8059962,144.9585654
Things Of Stone & Wood at The Brunswick Ballroom,2025-01-11,00:00,Brunswick Ballroom,"314 Sydney Rd, Brunswick VIC 3056, Australia",https://www.facebook.com/events/528985956807717/,-37.7704205,144.9617083
This Is Me (Inclusion & Disability Friendly Event),2025-01-11,19:30,Retreat Hotel,"Level 1/280 Sydney Rd, Brunswick VIC 3056, Australia",https://www.facebook.com/events/1273313553992492/,-37.7711487,144.9615949
Steppers | Live at Punters Club,2025-01-11,23:00,Punters Club,"376 Brunswick St, Fitzroy VIC 3065, Australia",https://www.facebook.com/events/1597360274480991/,-37.7960561,144.9790327
BUNT,2025-01-11,22:00,The Night Cat,"137-141 Johnston St, Fitzroy VIC 3065, Australia",https://www.facebook.com/events/1226332331959831/,-37.7982971,144.978128
Jay Mothman EP launch w/Fleeting Persuasion (solo),2025-01-11,15:30,The Old Bar,"74-76 Johnston St, Fitzroy VIC 3065, Australia",https://www.facebook.com/events/1831186170952249/,-37.79833,144.97711
Natalie Jane - Sick To My Stomach Tour | Naarm / Melbourne,2025-01-11,20:00,Northcote Theatre,"216 High St, Northcote VIC 3070, Australia",https://www.facebook.com/events/3866748593568961/,-37.7737068,144.9982706
"DIMENSIONLESS UNITY (BERLIN), CARLY FOXX (UK), MAX HAMMUR (GLASGOW)",2025-01-11,13:00,Howler,"7-11 Dawson St, Brunswick VIC 3056, Australia",https://www.facebook.com/events/1323981228954780/,-37.7720304,144.9596527
ProTechno & Pulsar Presents - Jon Connor [Sonaxx Records],2025-01-11,21:00,Inflation Entertainment Complex,"60 King Street Melbourne, VIC 3000",https://www.eventbrite.com.au/e/protechno-pulsar-presents-jon-connor-sonaxx-records-tickets-1108875970879?aff=ebdssbdestsearch,-37.8188863,144.9571605
"Paint and Sip Classes Melbourne : Acrylic Art, Canvas & Wine Fun",2025-01-11,18:00,"555 Flinders Ln, Melbourne VIC 3000, Australia","555 Flinders Ln Melbourne, VIC 3008",https://www.eventbrite.com.au/e/paint-and-sip-classes-melbourne-acrylic-art-canvas-wine-fun-tickets-1053155599749?aff=ebdssbdestsearch,-37.819944,144.955791
"Hypnobirthing, Monash Clayton, Saturday January 11th & 18th, 2025",2025-01-11,09:30,"Monash Medical Centre, Clayton Road, Clayton","246 Clayton Road Clayton, VIC 3168",https://www.eventbrite.com/e/hypnobirthing-monash-clayton-saturday-january-11th-18th-2025-tickets-1105970731229?aff=ebdssbdestsearch,-37.9205757,145.1227608
"Fast Friending: New Year, New Friends! (25-50/Happy Hour/Hosted)MEL",2025-01-11,19:00,La Di Da,"577 Little Bourke Street Melbourne, VIC 3000",https://www.eventbrite.co.uk/e/fast-friending-new-year-new-friends-25-50happy-hourhostedmel-tickets-1127408813109?aff=ebdssbdestsearch,-37.8153739,144.955644
Cliftonia | Punters DJ Sessions,2025-01-11,23:59,Punters Club,"376 Brunswick St, Fitzroy VIC 3065, Australia",https://www.facebook.com/events/1575114489797710/,-37.7960561,144.9790327
Arborists: Live at Bad Decisions,2025-01-11,00:00,Bad Decisions Bar,"46 Johnston St, Fitzroy VIC 3065, Australia",https://www.facebook.com/events/965484638975652/,-37.798246,144.9762881
"Julien Wilson's ""One Flight Up"" Quartet with special guest Sam Anning",2025-01-11,19:30,Uptown Jazz Cafe,"1/177 Brunswick St, Fitzroy VIC 3065, Australia",https://www.facebook.com/events/559579823559414/,-37.79705404,144.97869049756974
On Repeat: $uicideboy$ Night - Melbourne,2025-01-11,23:00,Stay Gold,"133 Sydney Rd, Brunswick VIC 3056, Australia",https://www.facebook.com/events/2506921159646868/,-37.7743469,144.9607404
(Last Tickets!) Madder Lake & Spectrum | TWO OF AUSTRALIA'S TRULY LEGENDARY BANDS | Dinner & Show,2025-01-11,00:00,arcobar heatherton,"8 Arco Ln, Heatherton VIC 3202, Australia",https://www.facebook.com/events/1250555619475643/,-37.94673685,145.07837928457485
Mr Anderson,2025-01-11,00:00,Altona Sports Club,"11 Altona Rd, Altona VIC 3018, Australia",https://www.facebook.com/events/968575998500088/,-37.85754867,144.85121805353086
Eat The Beat ft. JON CONNOR & LESTRANGE,2025-01-11,00:00,New Guernica,"64 Smith St, Collingwood VIC 3066, Australia",https://www.facebook.com/events/602631209008012/,-37.80624775,144.98331211946754
The Space Lady (USA) - Live in Melbourne ,2025-01-11,00:00,Northcote Social Club,"301 High St, Northcote VIC 3070, Australia",https://www.facebook.com/events/562402983047027/,-37.771471,144.998414
BCR* (Brunswick City Radio) feat. Moopie,2025-01-11,20:00,Howler,"7-11 Dawson St, Brunswick VIC 3056, Australia",https://www.facebook.com/events/524075580648872/,-37.7720304,144.9596527
Sweetie & Friends | Rooftop Vinyl Sessions,2025-01-11,17:00,Punters Club,"376 Brunswick St, Fitzroy VIC 3065, Australia",https://www.facebook.com/events/9035464989903442/,-37.7960561,144.9790327
ØTRERA @ MAMMA CHENS w/ Select All + Volt Jolt,2025-01-11,19:30,Mamma Chen's,"42A Albert St, Footscray VIC 3011, Australia",https://www.facebook.com/events/618802517246263/,-37.8047552,144.89727240000002
Mark Hall Trio Album Release with Special Guest Brian Morley and Sharaz Cavernet,2025-01-11,14:00,Mamma Chen's,"42A Albert St, Footscray VIC 3011, Australia",https://www.facebook.com/events/548045671397068/,-37.8047552,144.89727240000002
"GOLD CHISEL - 25th Anniversary with Special Guests, Alan Barnes and Rat Pack",2025-01-11,00:00,Musicland Melbourne,"1359 Sydney Rd, Fawkner VIC 3060, Australia",https://www.facebook.com/events/1279844356483298/,-37.6916774,144.9585701581541
24 Moons pres. 10 Year of Sound Metaphors (GER),2025-01-11,00:00,24 Moons,"2 Arthurton Rd, Northcote VIC 3070, Australia",https://www.facebook.com/events/2334069856938801/,-37.7691418,144.9982614
Outdoor Cinema: Best in Show (2000),2025-01-11,18:00,Fed Square,"Swanston St &, Flinders St, Melbourne VIC 3000, Australia",https://www.facebook.com/events/585166804099819/,-37.81767355,144.9667825800355
Music Victoria presents 100 MOODS,2025-01-11,00:00,The Thornbury Local,"635 High St, Thornbury VIC 3071, Australia",https://www.facebook.com/events/469496642802361/,-37.76165125,144.99987967655426
†† The New Order † Saturday 11 January 2025 ††,2025-01-11,22:00,Sub Club Melbourne,"Flinders Ct, Melbourne VIC 3000, Australia",https://www.facebook.com/events/865242305812083/,-37.81776587,144.96433104920948
TRVE KVLT - HEAVY & HARDCORE,2025-01-11,00:00,Laundry Bar,"50 Johnston St, Fitzroy VIC 3065, Australia",https://www.facebook.com/events/884030757053556/,-37.7983139,144.9764962
‘Easy On Me’ launch show @Cactus Room,2025-01-11,20:30,Cactus Room,"614 High St, Thornbury VIC 3071, Australia",https://www.facebook.com/events/557948283671637/,-37.76125825,145.00041662186553
Lorcana Weekly Limited - Sealed,2025-01-11,00:00,The Gaming Arena,"123 Bakers Rd, Coburg North VIC 3058, Australia",https://www.facebook.com/events/529361729949752/,-37.72715826,144.96115535488718
Great Ocean Road Day Trip | Melbourne Working Holiday Girls,2025-01-11,07:30,"St Paul's Cathedral, Melbourne","Flinders Street Melbourne, VIC 3000",https://www.eventbrite.com.au/e/great-ocean-road-day-trip-melbourne-working-holiday-girls-tickets-1129161896629?aff=ebdssbdestsearch,-37.8185815,144.9637799
Anime and manga digital and traditional illustrating club,2025-01-11,11:30,City Library,"253 Flinders Lane Melbourne, VIC 3000",https://www.eventbrite.com.au/e/anime-and-manga-digital-and-traditional-illustrating-club-tickets-1108971346149?aff=ebdssbdestsearch,-37.8171117,144.9660625
Eat The Beat ft. JON CONNOR & LESTRANGE,2025-01-11,22:00,New Guernica,"64 Smith Street Collingwood, VIC 3066",https://www.eventbrite.com.au/e/eat-the-beat-ft-jon-connor-lestrange-tickets-1119485093049?aff=ebdssbdestsearch,-37.8062529,144.9832565
Mindful Calligraphy Workshop for Beginners,2025-01-11,10:00,HEER POTTERY ART,"31 Clarice Road #unit3/29 Box Hill South, VIC 3128",https://www.eventbrite.com.au/e/mindful-calligraphy-workshop-for-beginners-tickets-1029466370627?aff=ebdssbdestsearch,-37.833062,145.1337404
Cancer and Cartwheels,2025-01-11,19:00,The Butterfly Club,"5 Carson Place Melbourne, VIC 3000",https://www.eventbrite.co.uk/e/cancer-and-cartwheels-tickets-1038644663147?aff=ebdssbdestsearch,-37.8154472,144.9652725
Social event for dog lovers in Melbourne,2025-01-11,17:00,Lulie Tavern,"225 Johnston Street Abbotsford, VIC 3067",https://www.eventbrite.com.au/e/social-event-for-dog-lovers-in-melbourne-tickets-1124875395589?aff=ebdssbdestsearch,-37.8000784,144.993596
DATES OR MATES - Queer/lesbian/trans/LGBTQIA+ speed dating/friending,2025-01-11,15:00,Beans Bar,"325 Smith Street Fitzroy, VIC 3065",https://www.eventbrite.com/e/dates-or-mates-queerlesbiantranslgbtqia-speed-datingfriending-tickets-1114258530259?aff=ebdssbdestsearch,-37.799338,144.984041
POOF DOOF Red Rave - Sat 11 Jan MELBOURNE,2025-01-11,22:00,Chasers Nightclub,"386 Chapel Street South Yarra, VIC 3141",https://www.eventbrite.com.au/e/poof-doof-red-rave-sat-11-jan-melbourne-tickets-1110979733289?aff=ebdssbdestsearch,-37.8459028,144.9947039
"Clayton Childbirth education-Labour, Birth & Baby: 11th of Jan, 2025",2025-01-11,08:30,246 Clayton Rd,"246 Clayton Road Clayton, VIC 3168",https://www.eventbrite.com/e/clayton-childbirth-education-labour-birth-baby-11th-of-jan-2025-tickets-1081484301659?aff=ebdssbdestsearch,-37.9205757,145.1227608
Burlesque Bingo,2025-01-11,16:00,Speakeasy Theatre,"522 Flinders Street Melbourne, VIC 3000",https://www.eventbrite.com.au/e/burlesque-bingo-tickets-1112184165779?aff=ebdssbdestsearch,-37.82029199999999,144.9569223
Ramadan workshop - WOMEN ONLY,2025-01-11,13:00,407-411 Racecourse Rd,"407-411 Racecourse Road Kensington, VIC 3031",https://www.eventbrite.com.au/e/ramadan-workshop-women-only-tickets-1095796770639?aff=ebdssbdestsearch,-37.78770480000001,144.9234995
Pirainia - Vibing Sounds,2025-01-11,17:00,Craftsman's Corner Bar & Kitchen,"313 Lygon Street Brunswick East, VIC 3057",https://www.eventbrite.com/e/pirainia-vibing-sounds-tickets-1095839558619?aff=ebdssbdestsearch,-37.7687672,144.971832
Butt Hole,2025-01-11,20:30,The Butterfly Club,"5 Carson Place Melbourne, VIC 3000",https://www.eventbrite.co.uk/e/butt-hole-tickets-952511015087?aff=ebdssbdestsearch,-37.8154472,144.9652725
Water safety day: Beach excursion with Lifesaving Victoria,2025-01-11,10:00,port melbourne beach,"Port Melbourne beach Melbourne, VIC 3207",https://www.eventbrite.com.au/e/water-safety-day-beach-excursion-with-lifesaving-victoria-tickets-1098411992839?aff=ebdssbdestsearch,-37.8470392,144.9455252
"Jaded State live at Cherry Bar, Saturday Jan 11th",2025-01-11,20:00,"Cherry Bar, Little Collins Street, Melbourne VIC, Australia","68 Little Collins Street Melbourne, VIC 3000",https://www.eventbrite.com.au/e/jaded-state-live-at-cherry-bar-saturday-jan-11th-tickets-1086600875469?aff=ebdssbdestsearch,-37.8129293,144.9714986
Paint and Sip: Paint in the Park,2025-01-11,16:00,Gasworks Garden Studios,"Pickles Street Entrance Albert Park, VIC 3206",https://www.eventbrite.com.au/e/paint-and-sip-paint-in-the-park-tickets-1042596774017?aff=ebdssbdestsearch,-37.8411555,144.9464085
"LOEV's Trivia Night Plus- Jan 11th, Moorabbin",2025-01-11,19:00,LOEV,"77 Keys Road Moorabbin, VIC 3189",https://www.eventbrite.com.au/e/loevs-trivia-night-plus-jan-11th-moorabbin-tickets-1100240281299?aff=ebdssbdestsearch,-37.9484271,145.067727
TRVE KVLT - HEAVY & HARDCORE,2025-01-11,20:30,Laundry Bar,"50 Johnston Street Fitzroy, VIC 3065",https://www.eventbrite.com.au/e/trve-kvlt-heavy-hardcore-tickets-1118442705239?aff=ebdssbdestsearch,-37.79831,144.976368
"Bollywood Saturdays at Decibles Nightclub, Melbourne",2025-01-11,22:00,Inflation Entertainment Complex,"60 King Street Melbourne, VIC 3000",https://www.eventbrite.com.au/e/bollywood-saturdays-at-decibles-nightclub-melbourne-tickets-1111921590409?aff=ebdssbdestsearch,-37.8188863,144.9571605
Live jazz at the VJC with Lightning Jazz band,2025-01-11,20:00,Clayton RSL,"171 Carinish Road Clayton, VIC 3168",https://www.eventbrite.com.au/e/live-jazz-at-the-vjc-with-lightning-jazz-band-tickets-1112159812939?aff=ebdssbdestsearch,-37.9253129,145.1225275
Capture 5th Birthday w Eastern Distributor & Farseer,2025-01-11,21:00,my aeon,"791 Sydney Road Brunswick, VIC 3056",https://www.eventbrite.com/e/capture-5th-birthday-w-eastern-distributor-farseer-tickets-1111155920269?aff=ebdssbdestsearch,-37.7581868,144.9633301
Make Cool Sh*t,2025-01-11,10:00,Chillpreneur Creative Studio,"91 Moreland Street #39b Footscray, VIC 3011",https://www.eventbrite.com.au/e/make-cool-sht-tickets-1114256153149?aff=ebdssbdestsearch,-37.8084371,144.9044271
SATURDAY - Fitzroy Market (January and February 2025),2025-01-11,09:00,Fitzroy Mills Market,"75 Rose Street Fitzroy, VIC 3065",https://www.eventbrite.com.au/e/saturday-fitzroy-market-january-and-february-2025-tickets-1095678938199?aff=ebdssbdestsearch,-37.7956693,144.9779514
BROOKLYN SATURDAYS - RNB HIPHOP THROWBACKS PARTY LATIN,2025-01-11,21:00,The Black Rabbit,"85 Queen Street Melbourne, VIC 3000",https://www.eventbrite.com/e/brooklyn-saturdays-rnb-hiphop-throwbacks-party-latin-tickets-932351106257?aff=ebdssbdestsearch,-37.81636779999999,144.9611486
Foss Presents  Day Party 01.,2025-01-11,16:00,Circus Bar,"199 Commercial Road South Yarra, VIC 3141",https://www.eventbrite.com.au/e/foss-presents-day-party-01-tickets-1095693140679?aff=ebdssbdestsearch,-37.8465589,144.993086
"Bollywood Hip Hop (Lohri Special) At Inflation, Melbourne",2025-01-11,22:00,Inflation Nightclub,"60 King Street Melbourne, VIC 3000",https://www.eventbrite.com.au/e/bollywood-hip-hop-lohri-special-at-inflation-melbourne-tickets-1119598231449?aff=ebdssbdestsearch,-37.8188863,144.9571605
All You Can Eat Afro Buffet,2025-01-11,16:00,350 Arden St,"350 Arden Street Kensington, VIC 3031",https://www.eventbrite.com.au/e/all-you-can-eat-afro-buffet-tickets-1118411190979?aff=ebdssbdestsearch,-37.7989143,144.9343983
Immersive Studio Ghibli Art Workshop by The Warehouse Melbourne,2025-01-11,02:30,Studio Take Care,"1 Pitt Street Brunswick, VIC 3056",https://www.eventbrite.com.au/e/immersive-studio-ghibli-art-workshop-by-the-warehouse-melbourne-tickets-1116347719079?aff=ebdssbdestsearch,-37.7711984,144.9711714
$69 Great Ocean Rd & 12 Apostles Adventure! (super low price!),2025-01-11,09:00,Old Melbourne Gaol,"377 Russell Street Melbourne, VIC 3000",https://www.eventbrite.com.au/e/69-great-ocean-rd-12-apostles-adventure-super-low-price-tickets-1104158470709?aff=ebdssbdestsearch,-37.8079389,144.9650674
Outer Worlds Invades! - Ojay Australian Tour 2025,2025-01-11,19:00,Stay Gold,"133 Sydney Rd Brunswick Melbourne, VIC 3056",https://www.eventbrite.com.au/e/outer-worlds-invades-ojay-australian-tour-2025-tickets-1068894354789?aff=ebdssbdestsearch,-37.7743822,144.9606172
Cabaret Ridiculous,2025-01-11,17:00,Speakeasy Theatre,"522 Flinders Street Melbourne, VIC 3000",https://www.eventbrite.com.au/e/cabaret-ridiculous-tickets-1114249944579?aff=ebdssbdestsearch,-37.82029199999999,144.9569223
Learn Reiki 1 | Discover the Power of Reiki Healing (in-person),2025-01-11,10:00,Templestowe,"Home address Templestowe, VIC 3106",https://www.eventbrite.com.au/e/learn-reiki-1-discover-the-power-of-reiki-healing-in-person-tickets-1098518441229?aff=ebdssbdestsearch,-37.7537669,145.1486206
Sunday Fundays - The HERBERTS,2025-01-12,00:00,Musicland Melbourne,"1359 Sydney Rd, Fawkner VIC 3060, Australia",https://www.facebook.com/events/899376239019197/,-37.6916774,144.9585701581541
Copy of Social Tennis Mix Single/Double  - All Level - January 12th,2025-01-12,16:00,Caulfield Park Tennis Centre,"280 Balaclava Road Caulfield North, VIC 3161",https://www.eventbrite.com.au/e/copy-of-social-tennis-mix-singledouble-all-level-january-12th-tickets-1116442572789?aff=ebdssbdestsearch,-37.8719411,145.0297196
Paint Your Dog | Melbourne Painting Class,2025-01-12,13:45,Paint for Fun's Studios,"252 Graham Street Port Melbourne, VIC 3207",https://www.eventbrite.com.au/e/paint-your-dog-melbourne-painting-class-tickets-1044637377517?aff=ebdssbdestsearch,-37.8386778,144.9385789
Manchester Unity Building Tour,2025-01-12,14:00,Manchester Unity Building,"Ground Floor 220 Collins Street Melbourne, VIC 3000",https://www.eventbrite.com.au/e/manchester-unity-building-tour-tickets-1004949459887?aff=ebdssbdestsearch,-37.8153781,144.9661231
Women's Meditation Circle,2025-01-12,17:00,State of Grace Collective - Moonee Ponds,"44 Puckle Street Moonee Ponds, VIC 3039",https://www.eventbrite.com.au/e/womens-meditation-circle-tickets-1105431969779?aff=ebdssbdestsearch,-37.7668258,144.9232257
Rosie Bray & Zednetta,2025-01-12,19:00,The Brunswick Green,"313-315 Sydney Road Brunswick, VIC 3056",https://www.eventbrite.com.au/e/rosie-bray-zednetta-tickets-1123779547879?aff=ebdssbdestsearch,-37.770138,144.9614257
Sounds of Swift - ALL AGES TAYLOR SWIFT COVER SHOW,2025-01-12,14:30,The Penny Black,"420 Sydney Rd, Brunswick VIC 3056, Australia",https://www.facebook.com/events/1115747469902422/,-37.7679775,144.9621651
The Burning Hell + Charlotte Le Lievre + Tanya Davis,2025-01-12,14:00,280 Sydney Rd,"280 Sydney Road Brunswick, VIC 3056",https://www.eventbrite.com.au/e/the-burning-hell-charlotte-le-lievre-tanya-davis-tickets-1049406130987?aff=ebdssbdestsearch,-37.7711488,144.9616353
The OPEN PLAY | Monthly PLAYER-led Events,2025-01-12,13:00,Moss Studios,"101 Evans Street Brunswick, VIC 3056",https://www.eventbrite.com.au/e/the-open-play-monthly-player-led-events-tickets-1078486956519?aff=ebdssbdestsearch,-37.77035559999999,144.9709215
Summer of Soul: Pop - Up Wellness,2025-01-12,12:00,The George Ballroom,"127-129 Fitzroy Street #1 St Kilda, VIC 3182",https://www.eventbrite.com.au/e/summer-of-soul-pop-up-wellness-tickets-1095695257009?aff=ebdssbdestsearch,-37.8595536,144.9779757
MTG - Summer Of Magic Chaos Sealed - Gameology BRUNSWICK - 12/01/2025,2025-01-12,11:00,Gameology Brunswick,"36 Hope Street Brunswick, VIC 3056",https://www.eventbrite.com.au/e/mtg-summer-of-magic-chaos-sealed-gameology-brunswick-12012025-tickets-1109721128769?aff=ebdssbdestsearch,-37.7636924,144.9595539
Sake Master Class,2025-01-12,12:00,KURA,"30 Lygon Street #Shop 1/22 Brunswick East, VIC 3057",https://www.eventbrite.com.au/e/sake-master-class-tickets-1095736129259?aff=ebdssbdestsearch,-37.7778396,144.970932
Manchester Unity Building Tour,2025-01-12,10:00,Manchester Unity Building,"Ground Floor 220 Collins Street Melbourne, VIC 3000",https://www.eventbrite.com.au/e/manchester-unity-building-tour-tickets-1004937845147?aff=ebdssbdestsearch,-37.8153781,144.9661231
Journal Making Workshop,2025-01-12,12:00,The District Docklands,"440 Docklands Drive Docklands, VIC 3008",https://www.eventbrite.com.au/e/journal-making-workshop-tickets-1114256775009?aff=ebdssbdestsearch,-37.8142926,144.9384995
(Un)plugged,2025-01-12,14:00,Sleepy's Cafe & Wine Bar,"787 Nicholson Street Carlton North, VIC 3054",https://www.eventbrite.com.au/e/unplugged-tickets-1119536567009?aff=ebdssbdestsearch,-37.7808956,144.9776301
Copy of Loba Soma ~ Women’s Circle,2025-01-12,04:30,Pioneer Women's Memorial Garden,"Alexandra Avenue Melbourne, VIC 3004",https://www.eventbrite.com.au/e/copy-of-loba-soma-womens-circle-tickets-1115086366339?aff=ebdssbdestsearch,-37.8263997,144.9791914
Open Day at La Trobe's Cottage,2025-01-12,13:00,La Trobe's Cottage,"Dallas Brooks Drive Melbourne, VIC 3004",https://www.eventbrite.com.au/e/open-day-at-la-trobes-cottage-tickets-911860357877?aff=ebdssbdestsearch,-37.8304573,144.9768439
2025 Melbourne Wedding & Bride Expo,2025-01-12,09:00,Melbourne Showgrounds,"Epsom Road Ascot Vale, VIC 3032",https://www.eventbrite.com.au/e/2025-melbourne-wedding-bride-expo-tickets-987478844807?aff=ebdssbdestsearch,-37.7805568,144.9146858
Melbourne women's cute arts & crafts club,2025-01-12,11:30,City Library,"253 Flinders Lane Melbourne, VIC 3000",https://www.eventbrite.com.au/e/melbourne-womens-cute-arts-crafts-club-tickets-1123426201009?aff=ebdssbdestsearch,-37.8171117,144.9660625
Netrunner Naarm Circuit Opener Standard,2025-01-12,10:00,Temple Arden,"135 Arden Street North Melbourne, VIC 3051",https://www.eventbrite.com.au/e/netrunner-naarm-circuit-opener-standard-tickets-1115189364409?aff=ebdssbdestsearch,-37.8006807,144.9454354
Kat Greta & Van 'Summer Daze' Tour w/ special guests Hilda Green & Renee Alison,2025-01-12,00:00,Mamma Chen's,"42A Albert St, Footscray VIC 3011, Australia",https://www.facebook.com/events/556546093412570/,-37.8047552,144.89727240000002
The Brutalist: Advance Screening,2025-01-12,14:00,Cinema Nova,"380 Lygon St, Carlton VIC 3053, Australia",https://www.facebook.com/events/889579516707254/,-37.7978092,144.9680124
South Yarra Puppy Pub Crawl,2025-01-12,0:00,Temperance Hotel,"426 Chapel St, South Yarra VIC 3141, Australia",https://www.facebook.com/events/476113771540134/,-37.84306185,144.99489592695178
The Punters | Every Sunday at Punters Club,2025-01-12,00:00,Punters Club,"376 Brunswick St, Fitzroy VIC 3065, Australia",https://www.facebook.com/events/2338349969876972/,-37.7960561,144.9790327
Groove Therapy Trio @ BAR OUSSOU!,2025-01-12,20:00,Bar Oussou,"653 Sydney Rd, Brunswick VIC 3056, Australia",https://www.facebook.com/events/638522341944167/,-37.7618155,144.9628753
MAYHEM | 40th Year Anniversary | Melbourne | Northcote Theatre,2025-01-12,0:00,Northcote Theatre,"216 High St, Northcote VIC 3070, Australia",https://www.facebook.com/events/1319565546117907/,-37.7737068,144.9982706
FREE EVENT | Alex Kyle Acoustic | From 2pm,2025-01-12,00:00,arcobar heatherton,"8 Arco Ln, Heatherton VIC 3202, Australia",https://www.facebook.com/events/1281373526473302/,-37.94673685,145.07837928457485
Soul Of Fitzroy | Rooftop Jazz & Soul Party | With Northside Records,2025-01-12,00:00,Punters Club,"376 Brunswick St, Fitzroy VIC 3065, Australia",https://www.facebook.com/events/1278260080188497/,-37.7960561,144.9790327
Inferno Duet,2025-01-12,00:00,Altona Sports Club,"11 Altona Rd, Altona VIC 3018, Australia",https://www.facebook.com/events/976096277781028/,-37.85754867,144.85121805353086
THE BRUTALIST | Awards Season Matinée Preview,2025-01-12,00:00,Palace Cinemas,"1 Champ St, Coburg VIC 3058, Australia",https://www.facebook.com/events/1598171751072529/,-37.736826,144.968318
Domingo Latino - Quarter Street,2025-01-12,18:45,The Night Cat,"137-141 Johnston St, Fitzroy VIC 3065, Australia",https://www.facebook.com/events/913534297602350/,-37.7982971,144.978128
Blue Nude Double Single Launch @ The Bergy,2025-01-12,16:00,Bergy Bandroom,"64 Sydney Rd, Brunswick VIC 3056, Australia",https://www.facebook.com/events/4015989315304453/,-37.776327,144.9607158
"Matinee gig - The Burning Hell, Charlotte Le Lievre, Tanya Davis",2025-01-12,13:30,Retreat Hotel,"Level 1/280 Sydney Rd, Brunswick VIC 3056, Australia",https://www.facebook.com/events/1983984342104482/,-37.7711487,144.9615949
Melbourne Renegades v Melbourne Stars,2025-01-12,19:15,Marvel Stadium,"740 Bourke St, Docklands VIC 3008, Australia",https://www.facebook.com/events/1075760594125925/,-37.816529,144.94751697668812
Learn Gourmet Cooking Fundamentals - Cooking Class by Cozymeal™,2025-01-13,11:00,Location provided after booking,"Carlton, VIC 3053",https://www.eventbrite.com/e/learn-gourmet-cooking-fundamentals-cooking-class-by-cozymealtm-tickets-1114574525409?aff=ebdssbdestsearch,-37.798389,144.9694441
PLAYAZ CLUB: LANEWAY HOOP SHOOTOUT,2025-01-13,00:00,Section 8,"27-29 Tattersalls Ln, Melbourne VIC 3000, Australia",https://www.facebook.com/events/1804239166982408/?event_time_id=1804239186982406,-37.8117457,144.965405
Funny Near The Brunny! - Free Live Comedy Every Monday,2025-01-13,00:00,Bergy Bandroom,"64 Sydney Rd, Brunswick VIC 3056, Australia",https://www.facebook.com/events/1068456871671985/?event_time_id=1068457788338560,-37.776327,144.9607158
Glory Down The Line,2025-01-13,19:00,The Butterfly Club,"5 Carson Place Melbourne, VIC 3000",https://www.eventbrite.co.uk/e/glory-down-the-line-tickets-1032962146587?aff=ebdssbdestsearch,-37.8154472,144.9652725
Ollie Dempsey 'The Rising Star' LIVE in Melbourne!,2025-01-13,19:00,Union Hotel,"252 Union Road Ascot Vale, VIC 3032",https://www.eventbrite.com.au/e/ollie-dempsey-the-rising-star-live-in-melbourne-tickets-1075292602119?aff=ebdssbdestsearch,-37.7719588,144.9163478
Killer Pool Comp - Mondays,2025-01-13,00:00,Inkerman Hotel,"375 Inkerman St, St Kilda East VIC 3183, Australia",https://www.facebook.com/events/1038406204674063/?event_time_id=1038406358007381,-37.866444,144.99799715146656
Restorative Resilience Clinical Supervision,2025-01-13,08:30,Ross House Association,"251 Flinders Lane #247 Melbourne, VIC 3000",https://www.eventbrite.com.au/e/restorative-resilience-clinical-supervision-registration-1085685467459?aff=ebdssbdestsearch,-37.817005,144.9662332
"Sound Healing, Full Moon in Cancer Ritual & Sound Bath",2025-01-13,19:30,Private Studio St Kilda East (see email for address),"Lansdowne street St Kilda East, VIC 3183",https://www.eventbrite.com.au/e/sound-healing-full-moon-in-cancer-ritual-sound-bath-tickets-1126573143599?aff=ebdssbdestsearch,-37.812027,144.9778953
Magic Masterclass,2025-01-13,17:30,The Butterfly Club,"5 Carson Place Melbourne, VIC 3000",https://www.eventbrite.co.uk/e/magic-masterclass-tickets-966961195967?aff=ebdssbdestsearch,-37.8154472,144.9652725
"‘Social Sanctuary’ with Al Speers, The Rayes + McKimmie",2025-01-13,19:00,Northcote Social Club,"301 High St, Northcote VIC 3070, Australia",https://www.facebook.com/events/4186377278299446/,-37.771471,144.998414
Creative Foundations,2025-01-14,10:30,Reservoir Library,"23 Edwardes Street Reservoir, VIC 3073",https://www.eventbrite.com.au/e/creative-foundations-tickets-1082736346559?aff=ebdssbdestsearch,-37.7165267,145.0056364
Manifest Your Year: Vision Board Workshop & Sound Bath Experience,2025-01-14,06:30,1/139 Nelson Pl,"139 Nelson Place #1 Williamstown, VIC 3016",https://www.eventbrite.com.au/e/manifest-your-year-vision-board-workshop-sound-bath-experience-tickets-1075547795409?aff=ebdssbdestsearch,-37.86339359999999,144.9046939
Acro Yoga - Flying High Acro,2025-01-14,19:00,St Kilda Botanical Gardens,"11 Herbert Street St Kilda, VIC 3182",https://www.eventbrite.com.au/e/acro-yoga-flying-high-acro-tickets-1123927279749?aff=ebdssbdestsearch,-37.8713506,144.9824183
Endgame Academy Soccer Clinic,2025-01-14,09:00,Mackie Road Neighbourhood House,"36 - 42 Mackie Road Mulgrave, VIC 3170",https://www.eventbrite.com.au/e/endgame-academy-soccer-clinic-registration-1066604285129?aff=ebdssbdestsearch,-37.9262514,145.16249
School Holiday Workshop - Safari Adventure (Afternoon Session),2025-01-14,12:30,Paint for Fun,"252 Graham Street #Unit 1 Port Melbourne, VIC 3207",https://www.eventbrite.com.au/e/school-holiday-workshop-safari-adventure-afternoon-session-tickets-1108851648129?aff=ebdssbdestsearch,-37.8386895,144.9385483
Etching #1 - Hard Ground & Soft Ground,2025-01-14,10:00,Australian Print Workshop,"210 Gertrude Street Fitzroy, VIC 3065",https://www.eventbrite.com.au/e/etching-1-hard-ground-soft-ground-tickets-1023090750977?aff=ebdssbdestsearch,-37.8064244,144.9815567
Lunar Whisper: The Wolf Moon Circle,2025-01-14,18:00,Kew,"Kew Kew, VIC 3101",https://www.eventbrite.com.au/e/lunar-whisper-the-wolf-moon-circle-tickets-1128375203609?aff=ebdssbdestsearch,-37.800782,145.038298
Full Moon Cacao Sound Journey,2025-01-14,18:30,Merkaba Studio,"15 Mills Street Cheltenham, VIC 3192",https://www.eventbrite.com.au/e/full-moon-cacao-sound-journey-tickets-1104905144029?aff=ebdssbdestsearch,-37.9560125,145.0740554
Harnessing AI for Marketing Innovation | Melbourne,2025-01-14,16:00,Melbourne,"Online Event Melbourne, VIC 3000",https://www.eventbrite.com.au/e/harnessing-ai-for-marketing-innovation-melbourne-tickets-1052300297517?aff=ebdssbdestsearch,-37.8152065,144.963937
"Sound Healing, Full Moon in Cancer Ritual & Sound Bath",2025-01-14,19:00,Private Studio St Kilda East (see email for address),"Lansdowne street St Kilda East, VIC 3183",https://www.eventbrite.com.au/e/sound-healing-full-moon-in-cancer-ritual-sound-bath-tickets-1100674219219?aff=ebdssbdestsearch,-37.812027,144.9778953
The Comics Lounge PROFESSIONAL COMEDIANS NEW MATERIAL - Session 1,2025-01-14,06:30,26 Errol St,"26 Errol Street North Melbourne, VIC 3051",https://www.eventbrite.com.au/e/the-comics-lounge-professional-comedians-new-material-session-1-tickets-1119686605779?aff=ebdssbdestsearch,-37.80456,144.9498312
SPEW BALLOON & OVERTHRONE ,2025-01-15,19:00,The Last Chance,"238 Victoria St, Melbourne VIC 3000, Australia",https://www.facebook.com/events/1735845747200428/,-37.8059962,144.9585654
Bakery Hill Distillery Tour & Tasting,2025-01-15,11:00,411 Macaulay Rd,"411 Macaulay Road Kensington, VIC 3031",https://www.eventbrite.com.au/e/bakery-hill-distillery-tour-tasting-tickets-800417238507?aff=ebdssbdestsearch,-37.7949212,144.9331042
Melbourne Speed Dating for ages 26-44 by Cheeky Events Australia,2025-01-15,19:00,Lona St Kilda,"66 Acland Street St Kilda Melbourne, VIC 3182",https://www.eventbrite.com.au/e/melbourne-speed-dating-for-ages-26-44-by-cheeky-events-australia-tickets-1098401822419?aff=ebdssbdestsearch,-37.8667192,144.9782504
Traditional Leatherwork: Dog Collar or Belt with Alison Berton,2025-01-15,10:00,Leffler Leather,"171 Kensington Road West Melbourne, VIC 3003",https://www.eventbrite.com.au/e/traditional-leatherwork-dog-collar-or-belt-with-alison-berton-tickets-1086663041409?aff=ebdssbdestsearch,-37.8000316,144.9177826
DBSC - Ultimate Battle Vol. 3 - Gameology CLAYTON SOUTH - 15/01/2025,2025-01-15,06:30,Gameology,"12 Eileen Road Clayton South, VIC 3169",https://www.eventbrite.com.au/e/dbsc-ultimate-battle-vol-3-gameology-clayton-south-15012025-tickets-1109797778029?aff=ebdssbdestsearch,-37.9512104,145.1347381
Speed Dating Melbourne | In-Person | Cityswoon | Ages  40-55,2025-01-15,19:00,Westside Ale Works,"36 Alfred St South Melbourne Melbourne, VIC 3205",https://www.eventbrite.com.au/e/speed-dating-melbourne-in-person-cityswoon-ages-40-55-tickets-1118314411509?aff=ebdssbdestsearch,-37.8320645,144.9494395
Hangman's Night Tour at the Old Melbourne Gaol 2024,2025-01-15,20:00,Old Melbourne Gaol,"377 Russell Street Melbourne, VIC 3000",https://www.eventbrite.com.au/e/hangmans-night-tour-at-the-old-melbourne-gaol-2024-tickets-928319688177?aff=ebdssbdestsearch,-37.8079389,144.9650674
The Craig Fermanis Trio!,2025-01-15,00:00,Uptown Jazz Cafe,"1/177 Brunswick St, Fitzroy VIC 3065, Australia",https://www.facebook.com/events/1745499355991999/?event_time_id=1745499365991998,-37.79705404,144.97869049756974
The Melbourne Moth StorySLAM: RESET,2025-01-15,19:30,Howler,"7-11 Dawson St, Brunswick VIC 3056, Australia",https://www.facebook.com/events/3959402144293699/,-37.7720304,144.9596527
Melbourne Speed Dating Event for Singles - Ages 26-39,2025-01-16,19:00,Holmes Hall,"15 Holmes Road Moonee Ponds, VIC 3039",https://www.eventbrite.com/e/melbourne-speed-dating-event-for-singles-ages-26-39-tickets-1114790210529?aff=ebdssbdestsearch,-37.7666595,144.9188633
Riot Underage ft Colin Hennerz + Alyssa (January 16th 2025),2025-01-16,17:00,Chasers Venue,"386 Chapel Street South Yarra, VIC 3141",https://www.eventbrite.com.au/e/riot-underage-ft-colin-hennerz-alyssa-january-16th-2025-tickets-1037681381947?aff=ebdssbdestsearch,-37.8459028,144.9947039
Melbourne Lesbian Singles Events | MyCheekyGayDate | Lesbian Speed Dating,2025-01-16,19:00,The Metropolitan Hotel,"265 William Street Melbourne, VIC 3000",https://www.eventbrite.com/e/melbourne-lesbian-singles-events-mycheekygaydate-lesbian-speed-dating-tickets-1123597854429?aff=ebdssbdestsearch,-37.812902,144.9566615
"SIERRA FERRELL - THE FORUM, MELBOURNE",2025-01-16,20:00,Forum Melbourne,"154 Flinders St, Melbourne VIC 3000, Australia",https://www.facebook.com/events/1745507616275541/,-37.81644145,144.9693768124984
Baby Safe Program:  Baby First Aid/Baby Basic Life Support Small Group 2025,2025-01-16,06:45,Prahran High School,"138 High Street Windsor, VIC 3181",https://www.eventbrite.com.au/e/baby-safe-program-baby-first-aidbaby-basic-life-support-small-group-2025-tickets-1095760853209?aff=ebdssbdestsearch,-37.8517906,144.991304
School Holiday Workshop - Kids in Space (Morning Session),2025-01-16,09:00,Paint for Fun,"252 Graham Street #Unit 1 Port Melbourne, VIC 3207",https://www.eventbrite.com.au/e/school-holiday-workshop-kids-in-space-morning-session-tickets-1108865559739?aff=ebdssbdestsearch,-37.8386895,144.9385483
Lesbian Speed Dating | Melbourne Singles Event | Fancy a Go?,2025-01-16,19:00,The Metropolitan Hotel,"265 William Street Melbourne, VIC 3000",https://www.eventbrite.com/e/lesbian-speed-dating-melbourne-singles-event-fancy-a-go-tickets-1123845465039?aff=ebdssbdestsearch,-37.812902,144.9566615
Embody 2025,2025-01-16,19:00,Beneath The Ferns,"12 Dight Street Collingwood, VIC 3066",https://www.eventbrite.com.au/e/embody-2025-tickets-1106829620189?aff=ebdssbdestsearch,-37.8035126,144.9885404
Melbourne Speed Dating Event for Singles - Ages 26-41,2025-01-16,19:00,Holmes Hall,"15 Holmes Road Moonee Ponds, VIC 3039",https://www.eventbrite.com.au/e/melbourne-speed-dating-event-for-singles-ages-26-41-tickets-1114790210529?aff=ebdssbdestsearch,-37.7666595,144.9188633
"Fields of Yarrow Natural Skincare Masterclass with Founder, Souhela Ferrah",2025-01-16,18:00,110 High St,"110 High Street Northcote, VIC 3070",https://www.eventbrite.com/e/fields-of-yarrow-natural-skincare-masterclass-with-founder-souhela-ferrah-tickets-1104190606829?aff=ebdssbdestsearch,-37.779483,144.997161
The Business of Art - CONFERENCE - 2025,2025-01-16,09:00,Zagame's House,"66 Lygon Street Carlton, VIC 3053",https://www.eventbrite.com.au/e/the-business-of-art-conference-2025-tickets-1039601575297?aff=ebdssbdestsearch,-37.8051997,144.9663893
"Queers, Femmes and Thems",2025-01-16,20:30,The Butterfly Club,"5 Carson Place Melbourne, VIC 3000",https://www.eventbrite.co.uk/e/queers-femmes-and-thems-tickets-1056368660099?aff=ebdssbdestsearch,-37.8154472,144.9652725
Sound Healing - NURTURE Sound Bath with Romy,2025-01-16,19:30,Private Studio in St Kilda East (see email for address),"Alma Road St Kilda East, VIC 3183",https://www.eventbrite.com.au/e/sound-healing-nurture-sound-bath-with-romy-tickets-1114218931819?aff=ebdssbdestsearch,-37.8626178,145.0005983
Charlie McCosh and Grace de Vos at the Merri Creek Tavern,2025-01-16,20:30,The Merri Creek Tavern,"111 High Street Northcote, VIC 3070",https://www.eventbrite.com.au/e/charlie-mccosh-and-grace-de-vos-at-the-merri-creek-tavern-tickets-1114999436329?aff=ebdssbdestsearch,-37.7794274,144.9966896
School Holiday Workshop - Kids in Space (Afternoon Session),2025-01-16,12:30,Paint for Fun,"252 Graham Street #Unit 1 Port Melbourne, VIC 3207",https://www.eventbrite.com.au/e/school-holiday-workshop-kids-in-space-afternoon-session-tickets-1108871086269?aff=ebdssbdestsearch,-37.8386895,144.9385483
LEGO Robotics School Holiday Camp - Camberwell,2025-01-16,09:30,Camberwell Community Centre,"35 Fairholm Grove #33 Camberwell, VIC 3124",https://www.eventbrite.com.au/e/lego-robotics-school-holiday-camp-camberwell-tickets-1112231738069?aff=ebdssbdestsearch,-37.8308989,145.059545
Beaded Jewellery Making Workshop for Beginners,2025-01-16,18:00,Abbotsford Convent,"1 Saint Heliers Street Abbotsford, VIC 3067",https://www.eventbrite.com.au/e/beaded-jewellery-making-workshop-for-beginners-tickets-1068847494629?aff=ebdssbdestsearch,-37.8026835,145.0027506
Etching #2 - Aquatint & Sugarlift,2025-01-16,10:00,Australian Print Workshop,"210 Gertrude St Fitzroy, VIC 3065",https://www.eventbrite.com.au/e/etching-2-aquatint-sugarlift-registration-1023096708797?aff=ebdssbdestsearch,-37.8064244,144.9815567
"FILLMORES, DOG DOOR & CHIMPANZEE AT LAST CHANCE",2025-01-16,19:30,The Last Chance,"238 Victoria St, Melbourne VIC 3000, Australia",https://www.facebook.com/events/543113905387456/,-37.8059962,144.9585654
"GUERNS THURS - $4 Pots, Seltzers $6 Vodkas!",2025-01-16,00:00,New Guernica,"64 Smith St, Collingwood VIC 3066, Australia",https://www.facebook.com/events/1123483302695205/,-37.80624775,144.98331211946754
Cherry Factory // Thur Arvo Gig Series,2025-01-16,14:00,Kindred Bandroom,"3 Harris St, Footscray VIC 3011, Australia",https://www.facebook.com/events/563080943183222/,-37.8119001,144.9008247
"Lili & James 'We, the Fools' tour- at the One2Three Bar in Melbourne",2025-01-16,19:00,One2three Bar,"123 Queens Parade, Clifton Hill VIC 3068, Australia",https://www.facebook.com/events/1292626048444199/,-37.7892833,144.9901391
Charlie McCosh with Grace de Vos.,2025-01-16,20:30,The Merri Creek Tavern,"111 High St, Northcote VIC 3070, Australia",https://www.facebook.com/events/8855328761210307/,-37.7794356,144.996838
Maria: Advance Screening ,2025-01-16,18:20,Cinema Nova,"380 Lygon St, Carlton VIC 3053, Australia",https://www.facebook.com/events/555577060583393/,-37.7978092,144.9680124
Benson Boone,2025-01-16,20:00,Festival Hall,"300 Dudley St, West Melbourne VIC 3003, Australia",https://www.facebook.com/events/3773086809629510/,-37.8098193,144.9508057
Echoes Across Eras,2025-01-16,18:00,Bird's Basement,"11 Singers Ln, Melbourne VIC 3000, Australia",https://www.facebook.com/events/1624802435121134/,-37.81114416,144.95680390283175
ALL-AGES TAYLOR SWIFT Tribute Show @MUSICLAND Fawkner,2025-01-16,00:00,Musicland Melbourne,"1359 Sydney Rd, Fawkner VIC 3060, Australia",https://www.facebook.com/events/1473899139988044/,-37.6916774,144.9585701581541
Jackie Bornstein’s Great Women of Jazz,2025-01-16,20:00,Paris Cat Jazz Club,"6 Goldie Pl, Melbourne VIC 3000, Australia",https://www.facebook.com/events/598374669389936/,-37.8133262,144.96060714767358
The Suicide Machines (USA) Live in Melbourne [18+],2025-01-16,00:00,Stay Gold,"133 Sydney Rd, Brunswick VIC 3056, Australia",https://www.facebook.com/events/882170863885150/,-37.7743469,144.9607404
"Femme Frenzy - Bernadette Novembre, Lunic & Tomalia",2025-01-16,00:00,Retreat Hotel,"Level 1/280 Sydney Rd, Brunswick VIC 3056, Australia",https://www.facebook.com/events/3897724827113114/,-37.7711487,144.9615949
Lemonade Stand Melbourne - The Business School For Kids (Jan '25 Holidays),2025-01-17,09:00,"Ground floor, 500 Bourke St","500 Bourke Street Melbourne, VIC 3000",https://www.eventbrite.com.au/e/lemonade-stand-melbourne-the-business-school-for-kids-jan-25-holidays-tickets-1094922786529?aff=ebdssbdestsearch,-37.81470059999999,144.9584657
The Powerpop Girls Party,2025-01-17,23:00,Stay Gold,"133 Sydney Road Brunswick, VIC 3056",https://www.eventbrite.com.au/e/the-powerpop-girls-party-tickets-1112294896979?aff=ebdssbdestsearch,-37.7743822,144.9606172
Bachata Corazon Anniversary Weekend 2025,2025-01-17,19:00,The Space Dance & Arts Centre,"318 Chapel Street Prahran, VIC 3181",https://www.eventbrite.com.au/e/bachata-corazon-anniversary-weekend-2025-tickets-944919277997?aff=ebdssbdestsearch,-37.847686,144.994213
Freestyle Dance Party,2025-01-17,21:00,"Wheat, Wine & Whisky","284 Smith Street Collingwood, VIC 3066",https://www.eventbrite.com.au/e/freestyle-dance-party-tickets-1125814283829?aff=ebdssbdestsearch,-37.8008428,144.9842391
Paint  And Sip: Painting Partners | Melbourne Painting Class,2025-01-17,18:45,Paint for Fun,"252 Graham Street #Unit 1 Port Melbourne, VIC 3207",https://www.eventbrite.com.au/e/paint-and-sip-painting-partners-melbourne-painting-class-tickets-1044637588147?aff=ebdssbdestsearch,-37.8386895,144.9385483
"Select All live at Cherry Bar,  FRI Jan 17th",2025-01-17,20:00,"Cherry Bar, Little Collins Street, Melbourne VIC, Australia","68 Little Collins Street Melbourne, VIC 3000",https://www.eventbrite.com.au/e/select-all-live-at-cherry-bar-fri-jan-17th-tickets-1117069678479?aff=ebdssbdestsearch,-37.8129293,144.9714986
"Baraki Reunion Vol. 2- Live at LOEV, Fri Jan 17th",2025-01-17,19:00,LOEV,"77 Keys Road Moorabbin, VIC 3189",https://www.eventbrite.com.au/e/baraki-reunion-vol-2-live-at-loev-fri-jan-17th-tickets-1116232063149?aff=ebdssbdestsearch,-37.9484271,145.067727
EMO NEVER SLEEPS: 2025 RESURRECTION,2025-01-17,22:00,Royal Melbourne Hotel,"629 Bourke Street Melbourne, VIC 3000",https://www.eventbrite.com.au/e/emo-never-sleeps-2025-resurrection-tickets-1117435061349?aff=ebdssbdestsearch,-37.8168528,144.9552468
Melbourne Pub Crawl!,2025-01-17,17:30,HOWM,"16 Degraves Street Melbourne, VIC 3000",https://www.eventbrite.com/e/melbourne-pub-crawl-tickets-1122711844349?aff=ebdssbdestsearch,-37.8175918,144.9660483
Paint in the Dark© - UV Light Disco Party,2025-01-17,19:00,Paint for Fun,"252 Graham Street #Unit 1 Port Melbourne, VIC 3207",https://www.eventbrite.com.au/e/paint-in-the-dark-uv-light-disco-party-tickets-1044639674387?aff=ebdssbdestsearch,-37.8386895,144.9385483
VPC 'SUMMA Program Launch Party,2025-01-17,18:00,Victorian Pride Centre,"81 Fitzroy Street #79 St Kilda, VIC 3182",https://www.eventbrite.com.au/e/vpc-summa-program-launch-party-tickets-1095832728189?aff=ebdssbdestsearch,-37.8607233,144.9762696
Paddy Pallin Melbourne- Stories with Tangles and Tail,2025-01-17,18:00,Paddy Pallin,"152 Bourke Street Melbourne, VIC 3000",https://www.eventbrite.com.au/e/paddy-pallin-melbourne-stories-with-tangles-and-tail-tickets-1066648015929?aff=ebdssbdestsearch,-37.8124467,144.9686115
Safari Zone Records Presents: Mind & Body,2025-01-17,21:00,my aeon,"791 Sydney Road Brunswick, VIC 3056",https://www.eventbrite.com.au/e/safari-zone-records-presents-mind-body-tickets-1100691169919?aff=ebdssbdestsearch,-37.7581868,144.9633301
"Friday Night With Aimee Francis- Live at LOEV, Jan 17th",2025-01-17,18:30,LOEV,"77 Keys Road Moorabbin, VIC 3189",https://www.eventbrite.com.au/e/friday-night-with-aimee-francis-live-at-loev-jan-17th-tickets-1050312622327?aff=ebdssbdestsearch,-37.9484271,145.067727
The Italian Boat Cruise Night | Victoria Star Cruises,2025-01-17,19:30,131 Harbour Esplanade,"131 Harbour Esplanade Docklands, VIC 3008",https://www.eventbrite.com.au/e/the-italian-boat-cruise-night-victoria-star-cruises-tickets-1109025277459?aff=ebdssbdestsearch,-37.81707129999999,144.9453813
Burn The Witch: Melbourne,2025-01-17,06:30,The Olsen Melbourne - Art Series,"641 Chapel Street South Yarra, VIC 3141",https://www.eventbrite.com/e/burn-the-witch-melbourne-tickets-1114250105059?aff=ebdssbdestsearch,-37.8379555,144.9957807
Moss Infestation at Bad Decisions Jan 17th 2025,2025-01-17,18:00,Bad Decisions Bar,"46 Johnston Street Fitzroy, VIC 3065",https://www.eventbrite.com.au/e/moss-infestation-at-bad-decisions-jan-17th-2025-tickets-1130212519069?aff=ebdssbdestsearch,-37.7982682,144.9762913
Arborists at The Retreat Hotel w/ Filthy McNastys & The Plot Twist,2025-01-17,19:30,280 Sydney Rd,"280 Sydney Road Brunswick, VIC 3056",https://www.eventbrite.com.au/e/arborists-at-the-retreat-hotel-w-filthy-mcnastys-the-plot-twist-tickets-1115006637869?aff=ebdssbdestsearch,-37.7711488,144.9616353
Full Moon Women's Circle,2025-01-17,19:00,DIVINE FEMININE CIRCLE,"53 Flemington Street Travancore, VIC 3032",https://www.eventbrite.com.au/e/full-moon-womens-circle-tickets-1121087064589?aff=ebdssbdestsearch,-37.7819697,144.9343114
RAMPAGE,2025-01-17,19:00,The Industrique,"5-7 Louvain Street Coburg North, VIC 3058",https://www.eventbrite.com/e/rampage-tickets-1096055093289?aff=ebdssbdestsearch,-37.7319668,144.9521663
A Complete Unknown: 'In Conversation' Screening,2025-01-17,18:20,Cinema Nova,"380 Lygon St, Carlton VIC 3053, Australia",https://www.facebook.com/events/1102819701027752/,-37.7978092,144.9680124
THE DAHLIAS live at Pockets,2025-01-17,07:30,Pockets Moorabbin,"168 Chesterville Road Moorabbin, VIC 3189",https://www.eventbrite.com.au/e/the-dahlias-live-at-pockets-tickets-1106018885259?aff=ebdssbdestsearch,-37.9481004,145.059588
"(Fri, Jan 17) JAD PINNONE",2025-01-17,00:00,George Lane St Kilda,"1 George Ln, St Kilda VIC 3182, Australia",https://www.facebook.com/events/964588072190150/,-37.85997305,144.9780306
An Evening with Steve Kilbey | MEMO Music Hall,2025-01-17,19:00,MEMO Music Hall,"88 Acland St, St Kilda VIC 3182, Australia",https://www.facebook.com/events/1581656089455510/,-37.8671902,144.9786817
RECALL THE 80's,2025-01-17,00:00,Musicland Melbourne,"1359 Sydney Rd, Fawkner VIC 3060, Australia",https://www.facebook.com/events/448378511280833/,-37.6916774,144.9585701581541
Benson Boone,2025-01-17,20:00,Festival Hall,"300 Dudley St, West Melbourne VIC 3003, Australia",https://www.facebook.com/events/1484740649070879/,-37.8098193,144.9508057
Judex Rose @ BAR OUSSOU!,2025-01-17,22:00,Bar Oussou,"653 Sydney Rd, Brunswick VIC 3056, Australia",https://www.facebook.com/events/1305526237137799/,-37.7618155,144.9628753
Sahul Sakti - Our Spanish Soul ,2025-01-17,20:00,Bar 303,"303 High St, Northcote VIC 3070, Australia",https://www.facebook.com/events/1869408887130345/,-37.7713296,144.99828116650363
CHARLIE IVAN (SOLO) & JACK SPENCER (SOLO),2025-01-17,20:30,The Merri Creek Tavern,"111 High St, Northcote VIC 3070, Australia",https://www.facebook.com/events/904661851822022/,-37.7794356,144.996838
"DISCOSTAN at Crown, Melbourne",2025-01-17,09:30,Crown Melbourne,"8 Whiteman Street Southbank, VIC 3006",https://www.eventbrite.com.au/e/discostan-at-crown-melbourne-tickets-1126145685059?aff=ebdssbdestsearch,-37.82343669999999,144.9580861
"MDC 15 Years w/ Fantastic Man, Sanctuary, Myles Mac & DJ Possum + more",2025-01-17,0:00,24 Moons,"2 Arthurton Rd, Northcote VIC 3070, Australia",https://www.facebook.com/events/593222526602147/,-37.7691418,144.9982614
"Gun Laws, Crankees, Fleeting Persuasion, and Gold Coast Leathers",2025-01-17,20:00,Cactus Room,"614 High St, Thornbury VIC 3071, Australia",https://www.facebook.com/events/1107883231053980/,-37.76125825,145.00041662186553
The Gaming Arena - Star Wars Unlimited: Weekly play-Draft,2025-01-17,00:00,The Gaming Arena,"123 Bakers Rd, Coburg North VIC 3058, Australia",https://www.facebook.com/events/859039736399794/,-37.72715826,144.96115535488718
This Never Happened 2025 | Naarm/Melbourne,2025-01-17,20:00,170 Russell,"170 Russell St, Melbourne VIC 3000, Australia",https://www.facebook.com/events/975953531218310/,-37.8120109,144.9679369
Shakewell & Fat Nick | Melbourne,2025-01-17,20:00,The Night Cat,"137-141 Johnston St, Fitzroy VIC 3065, Australia",https://www.facebook.com/events/1983077068802019/,-37.7982971,144.978128
 FREE EVENT | Millie Clifton & Michael Uberti Acoustic | From 5pm,2025-01-17,00:00,arcobar heatherton,"8 Arco Ln, Heatherton VIC 3202, Australia",https://www.facebook.com/events/613485484379892/,-37.94673685,145.07837928457485
EMO NEVER SLEEPS: 2025 RESURRECTION,2025-01-17,00:00,EMO NEVER SLEEPS,"629 Bourke St, Melbourne VIC 3004, Australia",https://www.facebook.com/events/1097093072197952/,-37.8167994,144.9552063
Burn City Classic Vol. 2,2025-01-17,16:00,"Sewell Reserve, Glenroy Road, Glenroy VIC, Australia","33 Glenroy Road Glenroy, VIC 3046",https://www.eventbrite.com/e/burn-city-classic-vol-2-tickets-1124222512799?aff=ebdssbdestsearch,-37.7077669,144.9335609
Natalie Cuomo and Dan LaMorte // Melbourne // Stay Gold | 18+,2025-01-17,19:00,Stay Gold,"133 Sydney Rd, Brunswick VIC 3056, Australia",https://www.facebook.com/events/1285985249481493/,-37.7743469,144.9607404
Cool Change,2025-01-17,18:00,Bird's Basement,"11 Singers Ln, Melbourne VIC 3000, Australia",https://www.facebook.com/events/904587421138393/,-37.81114416,144.95680390283175
Brickvention 2025 Convention Day,2025-01-17,8:00,Royal Exhibition Building,"9 Nicholson Street Carlton, VIC 3053",https://www.eventbrite.com.au/e/brickvention-2025-convention-day-tickets-942673029407?aff=ebdssbdestsearch,-37.8046864,144.9716488
Soothing Sounds: Sound Bath with Yoga  Nidra,2025-01-18,17:30,Wild Grace Studio,"4a Canterbury Rd Toorak, VIC 3142",https://www.eventbrite.com.au/e/soothing-sounds-sound-bath-with-yoga-nidra-tickets-1119488332739?aff=ebdssbdestsearch,-37.84860159999999,145.0094229
‘Victimised’ Tour (Melbourne//Naarm),2025-01-18,19:30,Cactus Room,"614 High Street Thornbury, VIC 3071",https://www.eventbrite.com/e/victimised-tour-melbournenaarm-tickets-1104897230359?aff=ebdssbdestsearch,-37.7612775,145.0003637
Stifle Joint Orthopaedics,2025-01-18,09:00,Veterinary Training Centre,"37 Keilor Park Drive #Unit 8 Keilor Park, VIC 3042",https://www.eventbrite.co.uk/e/stifle-joint-orthopaedics-tickets-1086880231029?aff=ebdssbdestsearch,-37.72153309999999,144.8497178
Women’s guided journeying + drumming circle,2025-01-18,16:00,Wild Grace Studio,"4a Canterbury Rd Toorak, VIC 3142",https://www.eventbrite.com.au/e/womens-guided-journeying-drumming-circle-tickets-1089407289529?aff=ebdssbdestsearch,-37.84860159999999,145.0094229
Nippon Night Melbourne  New Year,2025-01-18,18:00,16 Corrs Ln,"16 Corrs Lane Melbourne, VIC 3000",https://www.eventbrite.com.au/e/nippon-night-melbourne-new-year-tickets-1120357502449?aff=ebdssbdestsearch,-37.8111305,144.9684117
Manifestation 101,2025-01-18,13:00,"Oracle of Crystals, 228 Glenferrie Road, Malvern VIC, Australia","228 Glenferrie Road Malvern, VIC 3144",https://www.eventbrite.com.au/e/manifestation-101-tickets-1105128371709?aff=ebdssbdestsearch,-37.8585334,145.0292064
TERRASCEND,2025-01-18,21:30,24 Moons,"2 Arthurton Rd, Northcote VIC 3070, Australia",https://www.facebook.com/events/996316325848697/,-37.7691418,144.9982614
On Repeat: Linkin Park Night - Melbourne,2025-01-18,23:00,Stay Gold,"133 Sydney Rd, Brunswick VIC 3056, Australia",https://www.facebook.com/events/1107847997446311/,-37.7743469,144.9607404
Cold Snap @ 303,2025-01-18,00:00,Bar 303,"303 High St, Northcote VIC 3070, Australia",https://www.facebook.com/events/750764023915952/,-37.7713296,144.99828116650363
Breaknbread presents “Mono the Messenger”,2025-01-18,00:00,Wax Music Lounge,"250 Flinders St, Melbourne VIC 3000, Australia",https://www.facebook.com/events/2097828027336280/,-37.8176298,144.9661635
FREE SNOWY SHOW - beer garden - two sets,2025-01-18,01:30,Retreat Hotel,"Level 1/280 Sydney Rd, Brunswick VIC 3056, Australia",https://www.facebook.com/events/1697570417863646/,-37.7711487,144.9615949
THE PIANO MEN | The Songs of BILLY JOEL & ELTON JOHN | Dinner & Show,2025-01-18,00:00,arcobar heatherton,"8 Arco Ln, Heatherton VIC 3202, Australia",https://www.facebook.com/events/916642103292119/,-37.94673685,145.07837928457485
Jalen Ngonda Australia 2025 | Naarm / Melbourne,2025-01-18,19:00,Northcote Theatre,"216 High St, Northcote VIC 3070, Australia",https://www.facebook.com/events/423219557040073/,-37.7737068,144.9982706
"Lothario, R.U.B and Crankees | Matinee at the Last Chance",2025-01-18,14:30,The Last Chance,"238 Victoria St, Melbourne VIC 3000, Australia",https://www.facebook.com/events/497322339428411/,-37.8059962,144.9585654
T Break Presents- Phasmid (UK) @ Howler ,2025-01-18,00:00,Howler,"7-11 Dawson St, Brunswick VIC 3056, Australia",https://www.facebook.com/events/1129594562225649/,-37.7720304,144.9596527
"RANSOM REVUE & WHISPERHEAD, VAULT HILL, INHERIT NOTHING, AMAH",2025-01-18,07:00,Bad Decisions Bar,"46 Johnston St, Fitzroy VIC 3065, Australia",https://www.facebook.com/events/1706904659851694/,-37.798246,144.9762881
Dedication to Prince - Andrew De Silva,2025-01-18,00:00,Musicland Melbourne,"1359 Sydney Rd, Fawkner VIC 3060, Australia",https://www.facebook.com/events/1171068587911257/,-37.6916774,144.9585701581541
"(Sat, Jan 18) POP OFF! 2025 + SWEET DEATH MACHINE",2025-01-18,00:00,George Lane St Kilda,"1 George Ln, St Kilda VIC 3182, Australia",https://www.facebook.com/events/1764974717656154/,-37.85997305,144.9780306
Relax with Max is BACK! | MEMO Music Hall,2025-01-18,19:00,MEMO Music Hall,"88 Acland St, St Kilda VIC 3182, Australia",https://www.facebook.com/events/451439981107547/,-37.8671902,144.9786817
"Keggin ""Cheap Shots"" EP release party with The Trepids and The Ians",2025-01-18,20:00,The Workers Club,"51 Brunswick St, Fitzroy VIC 3065, Australia",https://www.facebook.com/events/516832831509082/,-37.8055776,144.9769450659087
Blondehouse / Special Guest / Memory Palace ,2025-01-18,14:00,Mamma Chen's,"42A Albert St, Footscray VIC 3011, Australia",https://www.facebook.com/events/566768472617982/,-37.8047552,144.89727240000002
Ohmega @ Max Watts - DnB Takeover ,2025-01-18,00:00,Max Watts,"125 Swanston St, Melbourne VIC 3000, Australia",https://www.facebook.com/events/426268790468010/,-37.8147557,144.9659879
"(Sat, Jan 18) DAVE GRANEY & THE MISTLY (George Lane Matinee Sessions)",2025-01-18,00:00,George Lane St Kilda,"1 George Ln, St Kilda VIC 3182, Australia",https://www.facebook.com/events/933556994861098/,-37.85997305,144.9780306
Taylor Sheridan,2025-01-18,18:00,Bird's Basement,"11 Singers Ln, Melbourne VIC 3000, Australia",https://www.facebook.com/events/1262637614738538/,-37.81114416,144.95680390283175
Brunswick Ballroom Presents Ramble Tamble,2025-01-18,18:30,Brunswick Ballroom,"314 Sydney Rd, Brunswick VIC 3056, Australia",https://www.facebook.com/events/1013387193805286/,-37.7704205,144.9617083
OUTCAST BOOKINGS PRESENTS: MYSTERY (The Victour @ Revolver Bandroom),2025-01-18,19:00,Revolver Upstairs,"Level 2/229 Chapel St, Prahran VIC 3181, Australia",https://www.facebook.com/events/3387064904762491/,-37.8505902,144.9933469
Carnegie Hall - Dutch Club,2025-01-18,0:00,Carnegie Hall,"60 Rosstown Rd, Carnegie VIC 3163, Australia",https://www.facebook.com/events/527728613533913/,-37.8864262,145.05686284914034
Melbourne Renegades v Brisbane Heat,2025-01-18,17:00,Marvel Stadium,"740 Bourke St, Docklands VIC 3008, Australia",https://www.facebook.com/events/1208951153488573/,-37.816529,144.94751697668812
 AUCTION  Trinkets and Bits  -an afternoon event and gathering ,2025-01-18,00:00,Open Studio,"204 High St, Northcote VIC 3070, Australia",https://www.facebook.com/events/1126816908999568/,-37.7742382,144.9981587
~Free Entry~ Barkin' Blue @Mr Boogie Man Bar,2025-01-18,00:00,Mr Boogie Man Bar,"160 Hoddle St, Abbotsford VIC 3067, Australia",https://www.facebook.com/events/1720168375501910/,-37.80245,144.99295304614787
Flesh Cherub Doom Groove EP Launch ,2025-01-18,19:00,The Merri Creek Tavern,"111 High St, Northcote VIC 3070, Australia",https://www.facebook.com/events/548237884864410/,-37.7794356,144.996838
The Strepitus,2025-01-18,21:00,CBD,"- Melbourne, VIC 3000",https://www.eventbrite.com/e/the-strepitus-tickets-1123495297679?aff=ebdssbdestsearch,-37.8152065,144.963937
WALK WITH PURPOSE: MONTHLY SERIES: January is Setting Goals and Intentions,2025-01-18,09:00,Bedggood & Co.,"137 Wellington Parade South East Melbourne, VIC 3002",https://www.eventbrite.com.au/e/walk-with-purpose-monthly-series-january-is-setting-goals-and-intentions-tickets-1129308214269?aff=ebdssbdestsearch,-37.8167784,144.9799796
Opening Night of Page One Gallery,2025-01-18,17:30,Mycelium Studios,"12 Moreland Road #Factory 1 10 Brunswick East, VIC 3057",https://www.eventbrite.com.au/e/opening-night-of-page-one-gallery-registration-1099607157609?aff=ebdssbdestsearch,-37.7578652,144.9788851
Connect & Elevate,2025-01-18,11:00,69 Butler St,"69 Butler Street Richmond, VIC 3121",https://www.eventbrite.com/e/connect-elevate-tickets-1071537309939?aff=ebdssbdestsearch,-37.81052469999999,144.9958353
EMO PIRATE PARTY 2 - EMO NIGHT MELBOURNE 2025,2025-01-18,20:00,Deluxe Bar,"595 Mt Alexander Rd Moonee Ponds, VIC 3039",https://www.eventbrite.com.au/e/emo-pirate-party-2-emo-night-melbourne-2025-tickets-1075312090409?aff=ebdssbdestsearch,-37.768313,144.925046
$76 Grampians & Kangaroos Bus Trip Adventure! (super low price!),2025-01-18,09:00,Old Melbourne Gaol,"377 Russell Street Melbourne, VIC 3000",https://www.eventbrite.com.au/e/76-grampians-kangaroos-bus-trip-adventure-super-low-price-tickets-1106034893139?aff=ebdssbdestsearch,-37.8079389,144.9650674
Summer Time Bottomless G&Ts,2025-01-18,15:00,Brogan's Way Distillery,"61 North Street Richmond, VIC 3121",https://www.eventbrite.com.au/e/summer-time-bottomless-gts-tickets-1054593219709?aff=ebdssbdestsearch,-37.816261,145.012048
Dima Murovanni Dominance MMA Seminar Melbourne,2025-01-18,13:00,Dominance MMA Abbotsford,"9 Harper Street Abbotsford, VIC 3067",https://www.eventbrite.com/e/dima-murovanni-dominance-mma-seminar-melbourne-tickets-1118611730799?aff=ebdssbdestsearch,-37.804372,144.998647
Tim Tszyu - At the Den with Ring Royalty,2025-01-18,15:00,Lionsden Boxing Academy Delahey,"181 Kings Road Delahey, VIC 3037",https://www.eventbrite.com/e/tim-tszyu-at-the-den-with-ring-royalty-tickets-1096944774349?aff=ebdssbdestsearch,-37.7254956,144.7811308
Xclusive  The Show | By MenXclusive Melbourne 18 JAN,2025-01-18,19:00,Platform One,"375 Flinders Street Melbourne, VIC 3000",https://www.eventbrite.com.au/e/xclusive-the-show-by-menxclusive-melbourne-18-jan-tickets-980932935817?aff=ebdssbdestsearch,-37.8191789,144.9621961
Paddy Pallin Melbourne- Stories with Tangles and Tail,2025-01-18,18:00,Paddy Pallin,"152 Bourke Street Melbourne, VIC 3000",https://www.eventbrite.com.au/e/paddy-pallin-melbourne-stories-with-tangles-and-tail-tickets-1128456516819?aff=ebdssbdestsearch,-37.8124467,144.9686115
Movies Under the Stars — The Sapphires,2025-01-18,06:30,Sir Douglas Nicholls Oval,"Watt Street Thornbury, VIC 3071",https://www.eventbrite.com.au/e/movies-under-the-stars-the-sapphires-tickets-1041537906917?aff=ebdssbdestsearch,-37.7534508,144.996446
VSA Lohri 2025,2025-01-18,17:00,Victorian Sikh Association (VSA) Club House,"Winbirra Parade Ashwood, VIC 3147",https://www.eventbrite.com.au/e/vsa-lohri-2025-tickets-1122649868979?aff=ebdssbdestsearch,-37.8697989,145.1002121
"Connect, Create, Collaborate: A Vision Board Experience",2025-01-18,15:30,Hap Cafe,"693 Rathdowne Street Carlton North, VIC 3054",https://www.eventbrite.com.au/e/connect-create-collaborate-a-vision-board-experience-tickets-1114817552309?aff=ebdssbdestsearch,-37.78865580000001,144.9717645
Introduction to reflexology 1,2025-01-18,09:30,St Joseph's,"16 Esplanade Williamstown, VIC 3016",https://www.eventbrite.com.au/e/introduction-to-reflexology-1-tickets-1123377986799?aff=ebdssbdestsearch,-37.869719,144.8987936
Factor B: Theatre of the Mind: Bloom,2025-01-18,22:00,Royal Melbourne Hotel,"629 Bourke St Melbourne VIC 3000, VIC 3000",https://www.eventbrite.com.au/e/factor-b-theatre-of-the-mind-bloom-tickets-1089560267089?aff=ebdssbdestsearch,-37.8168528,144.9552468
YUGIOH - Supreme Darkness PRE-RELEASE - Gameology CLAYTON SOUTH - 18/01/25,2025-01-18,01:30,Gameology,"12 Eileen Road Clayton South, VIC 3169",https://www.eventbrite.com.au/e/yugioh-supreme-darkness-pre-release-gameology-clayton-south-180125-tickets-1116000681079?aff=ebdssbdestsearch,-37.9512104,145.1347381
"Clayton Childbirth education-Labour, Birth & Baby: 18th of Jan, 2025",2025-01-18,08:30,246 Clayton Rd,"246 Clayton Road Clayton, VIC 3168",https://www.eventbrite.com/e/clayton-childbirth-education-labour-birth-baby-18th-of-jan-2025-tickets-1081489938519?aff=ebdssbdestsearch,-37.9205757,145.1227608
Wizard Tricks at The Retreat Hotel Bruswick w/ Bellhop + Lazerlips,2025-01-18,19:30,280 Sydney Rd,"280 Sydney Road Brunswick, VIC 3056",https://www.eventbrite.com.au/e/wizard-tricks-at-the-retreat-hotel-bruswick-w-bellhop-lazerlips-tickets-1115015253639?aff=ebdssbdestsearch,-37.7711488,144.9616353
Social Media for Small Businesses Workshop,2025-01-18,12:00,"Next Hotel Melbourne, Curio Collection by Hilton","103 Little Collins Street #Floor 3 Melbourne, VIC 3000",https://www.eventbrite.com.au/e/social-media-for-small-businesses-workshop-tickets-1115835958389?aff=ebdssbdestsearch,-37.8134213,144.9703466
Diploma in Reflexology,2025-01-18,09:30,St Joseph's,"16 Esplanade Williamstown, VIC 3016",https://www.eventbrite.com.au/e/diploma-in-reflexology-tickets-1123728364789?aff=ebdssbdestsearch,-37.869719,144.8987936
Energy In Motion - An Ecstatic Dance & Cacao Journey.,2025-01-18,18:30,Centre of You,"Upstairs, 217 Chapel St Prahran Melbourne, VIC 3181",https://www.eventbrite.com.au/e/energy-in-motion-an-ecstatic-dance-cacao-journey-tickets-1109946843889?aff=ebdssbdestsearch,-37.8509316,144.9933031
MTG - Summer Of Magic Chaos Sealed - Gameology CLAYTON SOUTH - 12/01/2025,2025-01-18,11:30,Gameology,"12 Eileen Road Clayton South, VIC 3169",https://www.eventbrite.com.au/e/mtg-summer-of-magic-chaos-sealed-gameology-clayton-south-12012025-tickets-1109884377049?aff=ebdssbdestsearch,-37.9512104,145.1347381
Another World | Psytrance - Techno - PsyTech,2025-01-18,21:00,my aeon,"791 Sydney Road Brunswick, VIC 3056",https://www.eventbrite.com.au/e/another-world-psytrance-techno-psytech-tickets-1130188266529?aff=ebdssbdestsearch,-37.7581868,144.9633301
"LOEV's Women Speed Dating- The Brunch Edition: Jan 18th, LOEV, Moorabbin",2025-01-18,12:30,LOEV,"77 Keys Road Moorabbin, VIC 3189",https://www.eventbrite.com.au/e/loevs-women-speed-dating-the-brunch-edition-jan-18th-loev-moorabbin-tickets-1111093232769?aff=ebdssbdestsearch,-37.9484271,145.067727
Living Salsa Night - Summer Edition,2025-01-18,21:30,The Nashaa Club,"8 Jackson Street Toorak, VIC 3142",https://www.eventbrite.com.au/e/living-salsa-night-summer-edition-tickets-1111013785139?aff=ebdssbdestsearch,-37.8401524,145.0079428
Urban Cocktail Trail // Melbourne (VIC),2025-01-18,13:00,Melbourne,"Melbourne Melbourne, VIC 3000",https://www.eventbrite.com/e/urban-cocktail-trail-melbourne-vic-tickets-1091792433559?aff=ebdssbdestsearch,-37.8152065,144.963937
SIDNEY PHILLIPS PENANCE (LIVE),2025-01-18,19:00,Stay Gold,"133 Sydney Road Brunswick, VIC 3056",https://www.eventbrite.com.au/e/sidney-phillips-penance-live-tickets-1119427922049?aff=ebdssbdestsearch,-37.7743822,144.9606172
SUMMER TIME MEDITATION CLASSES,2025-01-18,09:00,370 St Kilda Rd,"370 Saint Kilda Road Melbourne, VIC 3004",https://www.eventbrite.com.au/e/summer-time-meditation-classes-registration-1106754716149?aff=ebdssbdestsearch,-37.8317058,144.9710513
Geelong Beer Festival 2025,2025-01-18,12:00,Johnstone Park,"Gheringhap Street Geelong, VIC 3220",https://www.eventbrite.com.au/e/geelong-beer-festival-2025-tickets-1012545369457?aff=ebdssbdestsearch,-38.1488693,144.3571833
Introduction to reflexology for everyone,2025-01-18,09:30,St Joseph's,"16 Esplanade Williamstown, VIC 3016",https://www.eventbrite.com.au/e/introduction-to-reflexology-for-everyone-tickets-1123381296699?aff=ebdssbdestsearch,-37.869719,144.8987936
Vida  Rio Carnival - Latin Cruise,2025-01-18,19:00,Victoria Star Cruises,"30 Victoria Harbour Promenade Docklands, VIC 3008",https://www.eventbrite.com.au/e/vida-rio-carnival-latin-cruise-tickets-1109113009869?aff=ebdssbdestsearch,-37.8187053,144.9439326
Heretic Frequency presents Ransom Revue and Whisperhead,2025-01-18,19:00,Bad Decisions Bar,"46 Johnston Street Fitzroy, VIC 3065",https://www.eventbrite.com.au/e/heretic-frequency-presents-ransom-revue-and-whisperhead-tickets-1086561898889?aff=ebdssbdestsearch,-37.7982682,144.9762913
Squishface Comic Studio Summer Workshop Day!,2025-01-18,09:30,Squishface Studio,"317-329 Dorcas St Studio Hall South Melbourne, VIC 3025",https://www.eventbrite.com/e/squishface-comic-studio-summer-workshop-day-registration-1110912502199?aff=ebdssbdestsearch,-37.8345015,144.9563132
"9D Breathwork ""Letting Go""-StKilda",2025-01-18,16:00,infinite co studio,"14 Pakington Street St Kilda, VIC 3182",https://www.eventbrite.com.au/e/9d-breathwork-letting-go-stkilda-tickets-1116305944129?aff=ebdssbdestsearch,-37.8655601,144.9873231
FUEGO: Latin Summer Series,2025-01-19,00:00,Section 8,"27-29 Tattersalls Ln, Melbourne VIC 3000, Australia",https://www.facebook.com/events/2198789360516987/,-37.8117457,144.965405
Annaliese Rose and friends at the Merri Creek Tavern,2025-01-19,17:00,The Merri Creek Tavern,"111 High St, Northcote VIC 3070, Australia",https://www.facebook.com/events/2031978160581395/,-37.7794356,144.996838
CASH: A JOURNEY THROUGH THE AMERICAN RECORDINGS with Henry Wagons - Melbourne (matinee),2025-01-19,13:00,Brunswick Ballroom,"314 Sydney Rd, Brunswick VIC 3056, Australia",https://www.facebook.com/events/2417604931743048/,-37.7704205,144.9617083
Family Board Game Day,2025-01-19,00:00,Fortress Melbourne,"Shop 25/23 Caledonian Ln, Melbourne VIC 3000, Australia",https://www.facebook.com/events/3466454870325605/,-37.8120357,144.9642299
CAVALERA // Melbourne // Third World Trilogy // Northcote Theatre // 18+ // with Algor Mortis,2025-01-19,19:00,Northcote Theatre,"216 High St, Northcote VIC 3070, Australia",https://www.facebook.com/events/1953121468513620/,-37.7737068,144.9982706
"Sunday School: Rut, Cardiac, Oil Rig ",2025-01-19,16:00,Bergy Bandroom,"64 Sydney Rd, Brunswick VIC 3056, Australia",https://www.facebook.com/events/9008603459176292/,-37.776327,144.9607158
FREE EVENT | Rachel Sifris Live | From 2pm,2025-01-19,00:00,arcobar heatherton,"8 Arco Ln, Heatherton VIC 3202, Australia",https://www.facebook.com/events/1298721777937034/,-37.94673685,145.07837928457485
Domingo Latino - Sazón,2025-01-19,18:45,The Night Cat,"137-141 Johnston St, Fitzroy VIC 3065, Australia",https://www.facebook.com/events/3480207165617975/,-37.7982971,144.978128
Outdoor Cinema: Celebrating Dolly Parton. ,2025-01-19,18:00,Fed Square,"Swanston St &, Flinders St, Melbourne VIC 3000, Australia",https://www.facebook.com/events/1300200964568425/,-37.81767355,144.9667825800355
SUNDAY FUNDAY - BIG KAHUNA (Rock Hits),2025-01-19,00:00,Musicland Melbourne,"1359 Sydney Rd, Fawkner VIC 3060, Australia",https://www.facebook.com/events/2259889014393268/,-37.6916774,144.9585701581541
"Kirtan Immersion - A Full Day Workshop Exploring Music, Song & Mantra.",2025-01-19,09:30,Centre of You,"Upstairs, 217 Chapel St Prahran Melbourne, VIC 3181",https://www.eventbrite.com.au/e/kirtan-immersion-a-full-day-workshop-exploring-music-song-mantra-tickets-1057756200269?aff=ebdssbdestsearch,-37.8509316,144.9933031
Summer singles mingle - Ages 40+,2025-01-19,14:00,Pier Port Melbourne,"1 Bay Street Port Melbourne, VIC 3207",https://www.eventbrite.com.au/e/summer-singles-mingle-ages-40-tickets-1095733491369?aff=ebdssbdestsearch,-37.8428269,144.9380888
Create Your Vision - 2025,2025-01-19,10:00,Hypnotherapy HQ Roof top,"370 St Kilda Road Melbourne, VIC 3004",https://www.eventbrite.com.au/e/create-your-vision-2025-tickets-1083564042219?aff=ebdssbdestsearch,-37.8317058,144.9710513
Circling  & Authentic Relating with Michael Winnel & Vicky Turner,2025-01-19,02:30,The Mezzanine - Coworking space,"3 Merrifield Street Brunswick, VIC 3056",https://www.eventbrite.com.au/e/circling-authentic-relating-with-michael-winnel-vicky-turner-tickets-1110984918799?aff=ebdssbdestsearch,-37.7664073,144.9609769
Manchester Unity Building Tour,2025-01-19,12:00,Manchester Unity Building,"Ground Floor 220 Collins Street Melbourne, VIC 3000",https://www.eventbrite.com.au/e/manchester-unity-building-tour-tickets-1115080869899?aff=ebdssbdestsearch,-37.8153781,144.9661231
Vision Board Workshop,2025-01-19,12:00,Amanda Meryle Photography Studio,"Frensham Rd Macleod, VIC 3085",https://www.eventbrite.com/e/vision-board-workshop-tickets-1061940615969?aff=ebdssbdestsearch,-37.7167002,145.0850334
Radiant Connection's Women's Circle,2025-01-19,15:00,12 Acacia Pl,"12 Acacia Place Abbotsford, VIC 3067",https://www.eventbrite.com/e/radiant-connections-womens-circle-tickets-934234369147?aff=ebdssbdestsearch,-37.8117719,145.0141432
Manchester Unity Building Tour,2025-01-19,10:00,Manchester Unity Building,"Ground Floor 220 Collins Street Melbourne, VIC 3000",https://www.eventbrite.com.au/e/manchester-unity-building-tour-tickets-1115078603119?aff=ebdssbdestsearch,-37.8153781,144.9661231
Radiant Connection's Women's Circles 2026,2025-01-19,15:00,12 Acacia Pl,"12 Acacia Place Abbotsford, VIC 3067",https://www.eventbrite.com/e/radiant-connections-womens-circles-2026-tickets-1094754312619?aff=ebdssbdestsearch,-37.8117719,145.0141432
Creative Awakening: A Holistic Art Therapy Experience,2025-01-19,10:30,Prana House,"885 High Street #Level 1 Thornbury, VIC 3071",https://www.eventbrite.com.au/e/creative-awakening-a-holistic-art-therapy-experience-tickets-1117068514999?aff=ebdssbdestsearch,-37.7537691,145.0011906
Sound Healing - Vibro Acoustic Sound Bath with Romy,2025-01-19,18:00,Private Studio in St Kilda East (see email for address),"Alma Road St Kilda East, VIC 3183",https://www.eventbrite.com.au/e/sound-healing-vibro-acoustic-sound-bath-with-romy-tickets-1114241288689?aff=ebdssbdestsearch,-37.8626178,145.0005983
"Learn stand-up comedy in Melbourne this January, 2025",2025-01-19,06:30,Limerick Arms Hotel,"364 Clarendon Street South Melbourne, VIC 3205",https://www.eventbrite.com.au/e/learn-stand-up-comedy-in-melbourne-this-january-2025-tickets-1015928047137?aff=ebdssbdestsearch,-37.8354919,144.9614344
"International Hug Day: tea, chats and hugs.",2025-01-19,14:30,Melbourne Shiatsu Fitzroy,"43 Rose Street Fitzroy Melbourne, VIC 3065",https://www.eventbrite.com.au/e/international-hug-day-tea-chats-and-hugs-tickets-1049234638047?aff=ebdssbdestsearch,-37.7956163,144.9769211
Labassa Open Day 2025,2025-01-19,10:30,Labassa,"2 Manor Grove Caulfield North, VIC 3161",https://www.eventbrite.com.au/e/labassa-open-day-2025-tickets-946027151677?aff=ebdssbdestsearch,-37.8695166,145.0090308
LORCANA - Azurite Sea Store Championship - Gameology BRUNSWICK - 19/01/2025,2025-01-19,11:00,Gameology Brunswick,"36 Hope Street Brunswick, VIC 3056",https://www.eventbrite.com.au/e/lorcana-azurite-sea-store-championship-gameology-brunswick-19012025-tickets-1109724749599?aff=ebdssbdestsearch,-37.7636924,144.9595539
Lunch Club,2025-01-19,13:30,Old Palm Liquor,"133B Lygon Street Brunswick East, VIC 3057",https://www.eventbrite.com/e/lunch-club-tickets-1105143266259?aff=ebdssbdestsearch,-37.7739559,144.9709987
Suzanne Petersen Quartet  at The Lomond Hotel,2025-01-19,17:00,The Lomond Hotel,"225 Nicholson Street Brunswick East, VIC 3057",https://www.eventbrite.com.au/e/suzanne-petersen-quartet-at-the-lomond-hotel-tickets-1119488262529?aff=ebdssbdestsearch,-37.7670861,144.9800057
Club Sup - Book Swap,2025-01-19,10:00,Friends with Frank - Fitzroy,"120 Gertrude Street Fitzroy, VIC 3065",https://www.eventbrite.com/e/club-sup-book-swap-tickets-1117205203839?aff=ebdssbdestsearch,-37.80605190000001,144.9782003
POOF DOOF Midsumma Carnival After Party at The Bottom End,2025-01-19,21:00,The Bottom End,"579 Little Collins Street Melbourne, VIC 3000",https://www.eventbrite.com.au/e/poof-doof-midsumma-carnival-after-party-at-the-bottom-end-tickets-1127366145489?aff=ebdssbdestsearch,-37.8177944,144.955548
Bloom Seddon Melbourne -  Feminine Self Love Experience with Taryn Darlow,2025-01-19,11:00,77 Charles St,"77 Charles Street Seddon, VIC 3011",https://www.eventbrite.com.au/e/bloom-seddon-melbourne-feminine-self-love-experience-with-taryn-darlow-tickets-880700176937?aff=ebdssbdestsearch,-37.8068439,144.8917066
候场喜剧1月19日开放麦,2025-01-19,03:30,"Club Voltaire, Raglan Street, 北墨爾本 維多利亞省澳洲","14 Raglan Street #1st Floor North Melbourne, VIC 3051",https://www.eventbrite.com/e/119-tickets-1130209530129?aff=ebdssbdestsearch,-37.8042574,144.9501433
Radiant Connection's Women's Circles,2025-01-19,15:00,12 Acacia Pl,"12 Acacia Place Abbotsford, VIC 3067",https://www.eventbrite.com/e/radiant-connections-womens-circles-tickets-1094754312619?aff=ebdssbdestsearch,-37.8117719,145.0141432
LEGO Robotics School Holiday Camp,2025-01-20,10:00,Library at The Dock,"107 Victoria Harbour Promenade Docklands, VIC 3008",https://www.eventbrite.com.au/e/lego-robotics-school-holiday-camp-tickets-1108441792239?aff=ebdssbdestsearch,-37.8200128,144.9404861
Stage Door Academy Summer School,2025-01-20,09:00,Hampton East,"183-185 Wickham Rd Hampton East, VIC 3188",https://www.eventbrite.com/e/stage-door-academy-summer-school-tickets-1077101462469?aff=ebdssbdestsearch,-37.9451948,145.0464783
Creative Holiday Workshops,2025-01-20,10:00,LCI Melbourne,"150 Oxford Street Collingwood, VIC 3066",https://www.eventbrite.com.au/e/creative-holiday-workshops-tickets-1081472696949?aff=ebdssbdestsearch,-37.8027447,144.9852205
[20th January] AVC Womens Open Trials,2025-01-20,18:00,Mount Waverley Secondary College Senior Campus,"98-120 Stephensons Road Mount Waverley, VIC 3149",https://www.eventbrite.com/e/20th-january-avc-womens-open-trials-tickets-1129454471729?aff=ebdssbdestsearch,-37.867932,145.130695
Happy Little Accidents,2025-01-20,19:00,The Butterfly Club,"5 Carson Place Melbourne, VIC 3000",https://www.eventbrite.co.uk/e/happy-little-accidents-tickets-1096900190999?aff=ebdssbdestsearch,-37.8154472,144.9652725
Summer 2025 School Holidays Creative Workshop: Fashion,2025-01-20,10:00,The Masters Institute of Creative Education,"185 Spring Street #2 Melbourne, VIC 3000",https://www.eventbrite.com.au/e/summer-2025-school-holidays-creative-workshop-fashion-tickets-1086583613839?aff=ebdssbdestsearch,-37.810315,144.9722181
Summer Sangha for the Soul - 4 Day Immersion of Yoga & Tantric Philosophy.,2025-01-20,06:45,Centre of You,"Upstairs, 217 Chapel St Prahran Melbourne, VIC 3181",https://www.eventbrite.com.au/e/summer-sangha-for-the-soul-4-day-immersion-of-yoga-tantric-philosophy-tickets-1079124784279?aff=ebdssbdestsearch,-37.8509316,144.9933031
Stallions,2025-01-21,19:30,Theatre Works,"Saint Leonards Avenue St Kilda, VIC 3182",https://www.eventbrite.com.au/e/stallions-tickets-1089411131019?aff=ebdssbdestsearch,-37.8638328,144.9768976
Fresh Networking Bundoora - Guest Registration,2025-01-21,07:30,Mini Me Mango cafe,"24 Scholar Drive Bundoora, VIC 3083",https://www.eventbrite.com.au/e/fresh-networking-bundoora-guest-registration-tickets-894193967227?aff=ebdssbdestsearch,-37.6828007,145.0733016
Leveraging Robotics for Success | Melbourne,2025-01-21,16:00,Melbourne,"Online Event Melbourne, VIC 3000",https://www.eventbrite.com.au/e/leveraging-robotics-for-success-melbourne-tickets-1052301701717?aff=ebdssbdestsearch,-37.8152065,144.963937
Biz Growth Network - In Person - South Melbourne Networking Event,2025-01-21,07:45,The Deck Brighton,"212 Bay Street Brighton, VIC 3186",https://www.eventbrite.com.au/e/biz-growth-network-in-person-south-melbourne-networking-event-tickets-1010418086697?aff=ebdssbdestsearch,-37.9052818,144.999296
School Holiday Workshop - Eco-Art Explorers,2025-01-21,09:00,Paint for Fun,"252 Graham Street #Unit 1 Port Melbourne, VIC 3207",https://www.eventbrite.com.au/e/school-holiday-workshop-eco-art-explorers-tickets-1108871768309?aff=ebdssbdestsearch,-37.8386895,144.9385483
