Event_Title,Date,Time,Venue,Address,url,Latitude,Longitude
Royal Botanic Gardens Victoria﻿Verified account,2025-03-03,20:44,Botanic gardens,"Birdwood Ave Melbourne VIC 3004, Australia",https://www.facebook.com/events/879836830774737/,-37.82683271,144.97238679810675
Newborn Behavioural Observations (NBO) In Person Training -  March 2024,2025-03-03,09:00,Community Hub at The Dock,"912 Collins Street Docklands, VIC 3008",https://www.eventbrite.com.au/e/newborn-behavioural-observations-nbo-in-person-training-march-2024-tickets-1078965738569?aff=ebdssbdestsearch,-37.8201232,144.9398326
Newborn Behavioural Observations (NBO) In Person Training -  March 2025,2025-03-03,09:00,Community Hub at The Dock,"912 Collins Street Docklands, VIC 3008",https://www.eventbrite.com.au/e/newborn-behavioural-observations-nbo-in-person-training-march-2025-tickets-1078965738569?aff=ebdssbdestsearch,-37.8201232,144.9398326
The Sexy Chewbacca Cosplay,2025-03-03,19:00,The Butterfly Club,"5 Carson Place Melbourne, VIC 3000",https://www.eventbrite.co.uk/e/the-sexy-chewbacca-cosplay-tickets-1056374236779?aff=ebdssbdestsearch,-37.8154472,144.9652725
Monday Night Breathwork Class with Analu,2025-03-03,18:00,252 St Kilda Rd,"252 Saint Kilda Road St Kilda, VIC 3182",https://www.eventbrite.com.au/e/monday-night-breathwork-class-with-analu-tickets-1139178416309?aff=ebdssbdestsearch,-37.8633344,144.9858169
Kids Art Fun in Williamstown Library,2025-03-03,10:30,Williamstown Library,"104 Ferguson Street Williamstown, VIC 3016",https://www.eventbrite.com.au/e/kids-art-fun-in-williamstown-library-tickets-1123858634429?aff=ebdssbdestsearch,-37.85832,144.8961172
Speed dating over 50 at The King of Tonga St Kilda,2025-03-03,18:00,The King of Tonga,"164A Tennyson Street Elwood, VIC 3184",https://www.eventbrite.com/e/speed-dating-over-50-at-the-king-of-tonga-st-kilda-tickets-1210351567119?aff=ebdssbdestsearch,-37.8806338,144.9914765
The Most Of It,2025-03-03,20:30,The Butterfly Club,"5 Carson Place Melbourne, VIC 3000",https://www.eventbrite.co.uk/e/the-most-of-it-tickets-1080157192239?aff=ebdssbdestsearch,-37.8154472,144.9652725
LUX VIP MELB : Roxy’s Showcase Extravaganza,2025-03-03,18:00,2 Alfred Pl,"2 Alfred Place South Melbourne, VIC 3205",https://www.eventbrite.com.au/e/lux-vip-melb-roxys-showcase-extravaganza-tickets-1245587408469?aff=ebdssbdestsearch,-37.8314108,144.9592778
FROCK A WHANAUNGATANGA,2025-03-03,20:46,Asia TOPA ,Melbourne,https://www.facebook.com/events/1396840188393878/,-37.81817825,144.9670861
Tavern Trivia at The Home of Games | Pop Culture Trivia,2025-03-03,00:00,Fortress Melbourne,"Shop 25/23 Caledonian Ln, Melbourne VIC 3000, Australia",https://www.facebook.com/events/584700344451993/,-37.8120357,144.9642299
CIRCADIAN RHYTHMS,2025-03-03,18:50,Wax Music Lounge,"250 Flinders St, Melbourne VIC 3000, Australia",https://www.facebook.com/events/584862551173325/,-37.8176298,144.9661635
CIRCADIAN RHYTHMS,2025-03-03,18:51,Wax Music Lounge,"250 Flinders St, Melbourne VIC 3000, Australia",https://www.facebook.com/events/584862551173325/?event_time_id=584862677839979,-37.8176298,144.9661635
MRE2025 Conference,2025-03-03,08:30,ANZ Centre Melbourne,"833 Collins Street Docklands, VIC 3008",https://www.eventbrite.com.au/e/mre2025-conference-tickets-1032930662417?aff=ebdssbdestsearch,-37.8222465,144.9458007
Funny Near The Brunny! - Free Live Comedy Every Monday,2025-03-03,19:10,Bergy Bandroom,"64 Sydney Rd, Brunswick VIC 3056, Australia",https://www.facebook.com/events/1068456871671985/,-37.776327,144.9607158
Frock Enz Limited Edition and FrocktiVAtion,2025-03-03,20:47,Asia TOPA ,Melbourne,https://www.facebook.com/events/483859494775019/,-37.81817825,144.9670861
Process Lab: Asia TOPA,2025-03-03,20:46,Asia TOPA ,Melbourne,https://www.facebook.com/events/3857723414482541/,-37.81817825,144.9670861
Tavern Trivia - FREE Gaming & Pop Culture Trivia,2025-03-03,20:01,Fortress Melbourne,"Shop 25/23 Caledonian Ln, Melbourne VIC 3000, Australia",https://www.facebook.com/events/584700344451993/?event_time_id=584700357785325,-37.8120357,144.9642299
PLAYAZ CLUB: LANEWAY HOOP SHOOTOUT,2025-03-03,19:20,Section 8,"27-29 Tattersalls Ln, Melbourne VIC 3000, Australia",https://www.facebook.com/events/1804239166982408/,-37.8117457,144.965405
Arts Centre Melbourne﻿Verified account,2025-03-03,19:16,Arts Centre Melbourne,"100 St Kilda Rd, Southbank VIC 3004, Australia",https://www.facebook.com/events/527914670197100/,-37.8216405,144.9683143
Killer Pool Comp - Mondays,2025-03-03,19:38,Inkerman Hotel,"375 Inkerman St, St Kilda East VIC 3183, Australia",https://www.facebook.com/events/1038406204674063/,-37.866444,144.99799715146656
TASTE OF IRELAND ,2025-03-03,19:39,Inkerman Hotel,"375 Inkerman St, St Kilda East VIC 3183, Australia",https://www.facebook.com/events/494748156796361/,-37.866444,144.99799715146656
"‘Social Sanctuary’ with El Tee, Imogen Cygler + Kisses",2025-03-03,19:00,Northcote Social Club,"301 High St, Northcote VIC 3070, Australia",https://www.facebook.com/events/894716675911341/,-37.771471,144.998414
March Residency @ Merri Creek Tavern,2025-03-03,00:00,The Merri Creek Tavern,"111 High St, Northcote VIC 3070, Australia",https://www.facebook.com/events/640456325149944/,-37.7794356,144.996838
The Old Bar﻿Verified account,2025-03-03,20:00,The Old Bar,"74-76 Johnston St, Fitzroy VIC 3065, Australia",https://www.facebook.com/events/1770660110455351/,-37.79833,144.97711
Killer Pool Comp - Mondays,2025-03-03,19:39,Inkerman Hotel,"375 Inkerman St, St Kilda East VIC 3183, Australia",https://www.facebook.com/events/1038406204674063/?event_time_id=1038406381340712,-37.866444,144.99799715146656
MIG Workshop: Single cell RNA-seq analysis,2025-03-04,09:30,University of Melbourne Building 184,"University of Melbourne Building 184 Parkville, VIC 3052",https://www.eventbrite.com/e/mig-workshop-single-cell-rna-seq-analysis-tickets-1129940003969?aff=ebdssbdestsearch,-37.79870349999999,144.9585355
Art Playgroup at Peachy Keen!,2025-03-04,10:00,Peachy Keen,"84 Ferguson Street #REAR of 82 Williamstown, VIC 3016",https://www.eventbrite.com.au/e/art-playgroup-at-peachy-keen-tickets-1123335088489?aff=ebdssbdestsearch,-37.8586376,144.8974715
Breathwork and Sound Immersion,2025-03-04,18:30,1/139 Nelson Pl,"139 Nelson Place #1 Williamstown, VIC 3016",https://www.eventbrite.com.au/e/breathwork-and-sound-immersion-tickets-1232809148349?aff=ebdssbdestsearch,-37.86339359999999,144.9046939
Art Playgroup in the Garden!,2025-03-04,10:00,Hobsons Bay Toy Library,"51 Maddox Road Newport, VIC 3015",https://www.eventbrite.com.au/e/art-playgroup-in-the-garden-tickets-1123335088489?aff=ebdssbdestsearch,-37.8456592,144.8677992
In Conversation with Stan Grant,2025-03-04,19:30,State Library Victoria,"328 Swanston St Conversation Quarter Melbourne, VIC 3000",https://www.eventbrite.com.au/e/in-conversation-with-stan-grant-tickets-1116203236929?aff=ebdssbdestsearch,-37.8097472,144.9654858
Spoken Word @ Bar Oussou!,2025-03-04,00:00,Bar Oussou,"653 Sydney Rd, Brunswick VIC 3056, Australia",https://www.facebook.com/events/807715171482397/,-37.7618155,144.9628753
Including students who are blind or have low vision in mathematics 2025,2025-03-04,08:45,Statewide Vision Resource Centre,"370 Springvale Road Donvale, VIC 3111",https://www.eventbrite.com.au/e/including-students-who-are-blind-or-have-low-vision-in-mathematics-2025-tickets-1119376909469?aff=ebdssbdestsearch,-37.8005729,145.1775198
Cinema Nova﻿Verified account,2025-03-04,19:00,Cinema Nova,"380 Lygon St, Carlton VIC 3053, Australia",https://www.facebook.com/events/950341436864693/,-37.7978092,144.9680124
"First Tuesday Book Club March 2025, with guest authors!",2025-03-04,18:15,Village Cinemas Rivoli,"200 Camberwell Road Hawthorn East, VIC 3123",https://www.eventbrite.com.au/e/first-tuesday-book-club-march-2025-with-guest-authors-tickets-1236721109129?aff=ebdssbdestsearch,-37.8306851,145.0554532
Destroy All Lines﻿Verified account,2025-03-04,19:00,Stay Gold,"133 Sydney Rd, Brunswick VIC 3056, Australia",https://www.facebook.com/events/1380082930040447/,-37.7743469,144.9607404
Cash Prize POOL COMP,2025-03-04,00:00,Inkerman Hotel,"375 Inkerman St, St Kilda East VIC 3183, Australia",https://www.facebook.com/events/1056315672649917/?event_time_id=1056315829316568,-37.866444,144.99799715146656
TRIVIA hosted by COMFORTABLY FUN,2025-03-04,00:00,Mamma Chen's,"42A Albert St, Footscray VIC 3011, Australia",https://www.facebook.com/events/609943708693275/?event_time_id=609943718693274,-37.8047552,144.89727240000002
BRAZLOMBIA,2025-03-04,00:00,Wax Music Lounge,"250 Flinders St, Melbourne VIC 3000, Australia",https://www.facebook.com/events/585678634285012/,-37.8176298,144.9661635
Weekly MTG Commander at The Gaming Arena,2025-03-04,00:00,The Gaming Arena,"123 Bakers Rd, Coburg North VIC 3058, Australia",https://www.facebook.com/events/1541838383370198/,-37.72715826,144.96115535488718
Condensed Milk Tuesdays,2025-03-04,00:00,Section 8,"27-29 Tattersalls Ln, Melbourne VIC 3000, Australia",https://www.facebook.com/events/3806429379629971/?event_time_id=3806429459629963,-37.8117457,144.965405
Gay-ming with Pride at The Gaming Arena!,2025-03-04,00:00,The Gaming Arena,"123 Bakers Rd, Coburg North VIC 3058, Australia",https://www.facebook.com/events/467533492828961/,-37.72715826,144.96115535488718
Sci fight comedy debate: We need a space government,2025-03-04,00:00,Howler,"7-11 Dawson St, Brunswick VIC 3056, Australia",https://www.facebook.com/events/605325818786906/,-37.7720304,144.9596527
Arts Centre Melbourne﻿Verified account,2025-03-04,00:00,Arts Centre Melbourne,"100 St Kilda Rd, Southbank VIC 3004, Australia",https://www.facebook.com/events/473885795706627/,-37.8216405,144.9683143
"3 Bucks Left - Live at Brunswick Ballroom, Melbourne",2025-03-04,00:00,Brunswick Ballroom,"314 Sydney Rd, Brunswick VIC 3056, Australia",https://www.facebook.com/events/926122829400075/,-37.7704205,144.9617083
Etran de L’Aïr,2025-03-04,19:30,Melbourne Recital Centre,"31 Sturt St, Southbank VIC 3006, Australia",https://www.facebook.com/events/925642719436874/,-37.82408485,144.96758763141432
FAT TUESDAY AT LULIE TAVERN ,2025-03-04,19:00,Lulie Tavern,"225 Johnston St, Abbotsford VIC 3067, Australia",https://www.facebook.com/events/605537442455847/,-37.8000264,144.9936498
Memo Music Hall﻿Verified account,2025-03-04,19:00,MEMO Music Hall,"88 Acland St, St Kilda VIC 3182, Australia",https://www.facebook.com/events/1085754569796248/,-37.8671902,144.9786817
Hawks Insiders LIVE Panel Show - March 2025,2025-03-05,18:30,"Glenferrie Hotel, Burwood Road, Hawthorn VIC, Australia","324 Burwood Road Hawthorn, VIC 3122",https://www.eventbrite.com/e/hawks-insiders-live-panel-show-march-2025-tickets-1234221231929?aff=ebdssbdestsearch,-37.82272,145.0343841
ACBC VIC | FLF Networking Drinks,2025-03-05,17:00,Radisson Hotel on Flagstaff Gardens Melbourne,"380 William Street Melbourne, VIC 3000",https://www.eventbrite.com.au/e/acbc-vic-flf-networking-drinks-tickets-1247646898459?aff=ebdssbdestsearch,-37.8102736,144.9561287
Snortcast Comedy Gala - 5th March,2025-03-05,19:30,StoryVille,"185 Lonsdale Street Melbourne, VIC 3000",https://www.eventbrite.com.au/e/snortcast-comedy-gala-5th-march-tickets-1209207053849?aff=ebdssbdestsearch,-37.811172,144.966828
BNI CBD International Women's Day Breakfast,2025-03-05,06:30,RACV City Club,"501 Bourke Street Melbourne, VIC 3000",https://www.eventbrite.com.au/e/bni-cbd-international-womens-day-breakfast-tickets-1100284904769?aff=ebdssbdestsearch,-37.8154838,144.9594302
Duty Lawyer Training (3 Day),2025-03-05,09:30,Melbourne CBD TBC,"Melbourne, VIC",https://www.eventbrite.com.au/e/duty-lawyer-training-3-day-tickets-1200584633959?aff=ebdssbdestsearch,-37.8136276,144.9630576
Understanding & Leveraging Bonded Warehousing,2025-03-05,18:00,The Wharf Hotel Melbourne,"38 Siddeley Street #18 Docklands, VIC 3008",https://www.eventbrite.com.au/e/understanding-leveraging-bonded-warehousing-tickets-1141963326049?aff=ebdssbdestsearch,-37.8224526,144.9538758
Capturing Princes Pier with Josh Beames,2025-03-05,17:00,Princes Pier,"Pier Street Port Melbourne, VIC 3207",https://www.eventbrite.com.au/e/capturing-princes-pier-with-josh-beames-tickets-1095797242049?aff=ebdssbdestsearch,-37.8393961,144.9274821
Women of Westpac - International Women's Day,2025-03-05,17:30,Kino Cinema,"45 Collins Street Melbourne, VIC 3000",https://www.eventbrite.com/e/women-of-westpac-international-womens-day-tickets-1246833736269?aff=ebdssbdestsearch,-37.8146251,144.9742631
Peach Pit,2025-03-05,12:00,Forum Melbourne,"180 Flinders St, Melbourne VIC 3000, Australia",https://premier.ticketek.com.au/shows/show.aspx?sh=PEACHPIT25,-37.816602,144.9694678
China National Symphony Orchestra Chorus,2025-03-05,12:00,Hamer Hall,"100 St Kilda Rd, Southbank VIC 3004, Australia",https://premier.ticketek.com.au/shows/show.aspx?sh=CHINASYM25,-37.8201455,144.9679946
In Conversation with Niall Williams,2025-03-05,19:30,State Library Victoria,"328 Swanston St Conversation Quarter Melbourne, VIC 3000",https://www.eventbrite.com.au/e/in-conversation-with-niall-williams-tickets-1113369511179?aff=ebdssbdestsearch,-37.8097472,144.9654858
Design Circus 2025 | Michael Anastassiades,2025-03-05,19:00,National Gallery of Victoria,"180 Saint Kilda Road Melbourne, VIC 3006",https://www.eventbrite.es/e/design-circus-2025-michael-anastassiades-tickets-1246644881399?aff=ebdssbdestsearch,-37.8227839,144.9688417
START OF SEMESTER Y2K NERD PARTY,2025-03-05,20:00,Electric Bar,"Unit 1/265-267 Chapel St Prahran, VIC 3181",https://www.eventbrite.com.au/e/start-of-semester-y2k-nerd-party-tickets-1216539766189?aff=ebdssbdestsearch,-37.8490897,144.9935222
Build Your Psychosocial Risk Assessment: A Hands-On Workshop,2025-03-05,09:00,TBC,"CBD Melbourne, VIC 3000",https://www.eventbrite.com/e/build-your-psychosocial-risk-assessment-a-hands-on-workshop-registration-1112230434169?aff=ebdssbdestsearch,-37.8152065,144.963937
Melbourne Sustainability Networking Event,2025-03-05,05:30,CreativeCubes.Co - South Melbourne,"Level 5 111 Cecil Street South Melbourne, VIC 3205",https://www.eventbrite.com.au/e/melbourne-sustainability-networking-event-tickets-1217253621349?aff=ebdssbdestsearch,-37.8305009,144.9570953
Svenson Barristers Wills & Estates CPD Day,2025-03-05,08:30,RACV City Club,"501 Bourke Street Melbourne, VIC 3000",https://www.eventbrite.com.au/e/svenson-barristers-wills-estates-cpd-day-tickets-1116109797449?aff=ebdssbdestsearch,-37.8154838,144.9594302
ALTO PRESENTS: CARLTON SPORTIVO - NETWORKING WITH THE STARS,2025-03-05,18:30,Il Gambero,"166 Lygon Street Carlton, VIC 3053",https://www.eventbrite.com.au/e/alto-presents-carlton-sportivo-networking-with-the-stars-tickets-1245759994679?aff=ebdssbdestsearch,-37.8032856,144.96675
OPEN MIC,2025-03-05,00:00,Mamma Chen's,"42A Albert St, Footscray VIC 3011, Australia",https://www.facebook.com/events/2193724607795225/,-37.8047552,144.89727240000002
Open Mic & Jam @ BAR OUSSOU!,2025-03-05,00:00,Bar Oussou,"653 Sydney Rd, Brunswick VIC 3056, Australia",https://www.facebook.com/events/2153427491795119/,-37.7618155,144.9628753
Think About You x Holly Records @ Brunswick Music Festival,2025-03-05,20:00,Bergy Bandroom,"64 Sydney Rd, Brunswick VIC 3056, Australia",https://www.facebook.com/events/1462720428041154/,-37.776327,144.9607158
Knotfest Australia﻿Verified account,2025-03-05,19:00,Stay Gold,"133 Sydney Rd, Brunswick VIC 3056, Australia",https://www.facebook.com/events/964470415892791/,-37.7743469,144.9607404
MELLOWDÍAS THUMP,2025-03-05,00:00,Wax Music Lounge,"250 Flinders St, Melbourne VIC 3000, Australia",https://www.facebook.com/events/1124371722195700/,-37.8176298,144.9661635
Peach Pit﻿Verified account,2025-03-05,19:00,Forum Melbourne,"154 Flinders St, Melbourne VIC 3000, Australia",https://www.facebook.com/events/1589023595345813/,-37.81644145,144.9693768124984
Piano Club #11,2025-03-05,20:00,Ragtime Tavern,"206 Tyler St, Preston VIC 3072, Australia",https://www.facebook.com/events/1818381575656861/,-37.7310367,145.0142411
Open Mic Ft TOBI & Numero Sub Sol @ BAR OUSSOU!,2025-03-05,19:00,Bar Oussou,"653 Sydney Rd, Brunswick VIC 3056, Australia",https://www.facebook.com/events/897370155684880/,-37.7618155,144.9628753
BUDGIE & REALNAME ,2025-03-05,19:00,The Last Chance,"238 Victoria St, Melbourne VIC 3000, Australia",https://www.facebook.com/events/2055045075002057/,-37.8059962,144.9585654
The Melbourne Moth StorySLAM: BEEF,2025-03-05,19:30,Howler,"7-11 Dawson St, Brunswick VIC 3056, Australia",https://www.facebook.com/events/547285991659351/,-37.7720304,144.9596527
Hump Day Variety Hour with Oceanique,2025-03-05,00:00,The Merri Creek Tavern,"111 High St, Northcote VIC 3070, Australia",https://www.facebook.com/events/1610818316195959/?event_time_id=1640368423240948,-37.7794356,144.996838
Knotfest Sideshow: Hatebreed | 170 Russell | Melbourne | 18+,2025-03-05,19:00,170 Russell,"170 Russell St, Melbourne VIC 3000, Australia",https://www.facebook.com/events/1629734314587250/,-37.8120109,144.9679369
Trivia Night,2025-03-05,00:00,Inkerman Hotel,"375 Inkerman St, St Kilda East VIC 3183, Australia",https://www.facebook.com/events/2779506008881959/,-37.866444,144.99799715146656
SINGSONGS | The Sing Along Tradition Returns To Arcobar!,2025-03-05,00:00,arcobar heatherton,"8 Arco Ln, Heatherton VIC 3202, Australia",https://www.facebook.com/events/1596133691266801/,-37.94673685,145.07837928457485
Peter O'Mara Prime Time,2025-03-05,00:00,The Jazz Lab,"27 Leslie St, Brunswick Melbourne, VIC, Australia, Victoria 3056",https://www.facebook.com/events/1633726567283527/,-37.76677279,144.9587122
Bird's Basement﻿Verified account,2025-03-05,18:00,Bird's Basement,"11 Singers Ln, Melbourne VIC 3000, Australia",https://www.facebook.com/events/558523227094487/,-37.81114416,144.95680390283175
[BMF 2025] Bonny Light Horseman (US) ,2025-03-05,00:00,Brunswick Ballroom,"314 Sydney Rd, Brunswick VIC 3056, Australia",https://www.facebook.com/events/587268960370033/,-37.7704205,144.9617083
Comedy House presents Dave Thornton,2025-03-05,20:00,Altona Sports Club,"11 Altona Rd, Altona VIC 3018, Australia",https://www.facebook.com/events/9651363511574710/,-37.85754867,144.85121805353086
Checkmates: FREE Social Board Gaming Event ,2025-03-05,00:00,Fortress Melbourne,"Shop 25/23 Caledonian Ln, Melbourne VIC 3000, Australia",https://www.facebook.com/events/2385724768449287/,-37.8120357,144.9642299
FRANKIE STEW & HARVEY GUNN | MELBOURNE | MAX WATTS,2025-03-05,21:00,Max Watts,"125 Swanston St, Melbourne VIC 3000, Australia",https://www.facebook.com/events/2087176775075940/,-37.8147557,144.9659879
Board Game Social Night,2025-03-05,00:00,Fortress Melbourne,"Shop 25/23 Caledonian Ln, Melbourne VIC 3000, Australia",https://www.facebook.com/events/2385724768449287/?event_time_id=2385724805115950,-37.8120357,144.9642299
Middle Of A Moment,2025-03-05,00:00,Asia TOPA ,Melbourne,https://www.facebook.com/events/1102080065052084/,-37.81817825,144.9670861
Hydrogen Code of Practice Workshop,2025-03-06,08:45,Marvel Stadium,"740 Bourke Street Docklands, VIC 3008",https://www.eventbrite.com.au/e/hydrogen-code-of-practice-workshop-tickets-1103090706999?aff=ebdssbdestsearch,-37.8165422,144.9463855
Mixed Bag Naarm March,2025-03-06,18:00,"Beans Bar, Smith Street, Fitzroy VIC, Australia","325 Smith Street 325 Fitzroy, VIC 3065",https://www.eventbrite.com/e/mixed-bag-naarm-march-tickets-1252485310279?aff=ebdssbdestsearch,-37.799338,144.984041
Career Development for Aged Carers & Nurses Australia 2025,2025-03-06,12:00,The Victoria Hotel,"215 Little Collins Street Melbourne, VIC 3000",https://www.eventbrite.co.uk/e/career-development-for-aged-carers-nurses-australia-2025-tickets-1021848936677?aff=ebdssbdestsearch,-37.8143634,144.9668522
Non Profit Grant Writing Training - Melbourne - March 2025,2025-03-06,11:00,Melbourne,"Online Melbourne, VIC 3000",https://www.eventbrite.com.au/e/non-profit-grant-writing-training-melbourne-march-2025-registration-1086618468089?aff=ebdssbdestsearch,-37.8152065,144.963937
Rescheduled; Galentines Moonlight Cinema - Melbourne - Welcome to Travel,2025-03-06,19:00,Moonlight Cinema Melbourne,"Birdwood Avenue Melbourne, VIC 3141",https://www.eventbrite.com.au/e/rescheduled-galentines-moonlight-cinema-melbourne-welcome-to-travel-tickets-1145105955739?aff=ebdssbdestsearch,-37.8325873,144.9782955
Fresh Networking Doncaster - Guest Registration,2025-03-06,07:30,Salted Caramel Cafe,"6 Macedon Road Templestowe Lower, VIC 3107",https://www.eventbrite.com.au/e/fresh-networking-doncaster-guest-registration-tickets-803814529897?aff=ebdssbdestsearch,-37.7728879,145.1127533
"Melbourne, AUS - Small99's People, Planet, Pint™: Sustainability Meetup",2025-03-06,18:00,Beer DeLuxe Fed Square,"Flinders Street Melbourne, VIC 3000",https://www.eventbrite.co.uk/e/melbourne-aus-small99s-people-planet-pinttm-sustainability-meetup-tickets-1209338587269?aff=ebdssbdestsearch,-37.8185815,144.9637799
Melbourne Networking Evening,2025-03-06,18:00,All Smiles Melbourne Waterfront,"55 Newquay Promenade Docklands, VIC 3008",https://www.eventbrite.com.au/e/melbourne-networking-evening-tickets-1100646616659?aff=ebdssbdestsearch,-37.8152957,144.9413315
SFE Victoria: 'The Importance of Facades in Passivhaus design’,2025-03-06,05:30,530 Collins St,"530 Collins Street Melbourne, VIC 3000",https://www.eventbrite.co.uk/e/sfe-victoria-the-importance-of-facades-in-passivhaus-design-tickets-1245838088259?aff=ebdssbdestsearch,-37.8180132,144.9569237
VANGELIS UNLEASHED!,2025-03-06,19:00,The Butterfly Club,"5 Carson Place Melbourne, VIC 3000",https://www.eventbrite.co.uk/e/vangelis-unleashed-tickets-1116069707539?aff=ebdssbdestsearch,-37.8154472,144.9652725
Josh Hannan - Dead Heart EP launch,2025-03-06,07:30,The Gasometer Hotel,"484 Smith Street Collingwood, VIC 3066",https://www.eventbrite.com/e/josh-hannan-dead-heart-ep-launch-tickets-1247518524489?aff=ebdssbdestsearch,-37.794263,144.9853576
"Happy Hour, Presented by Notice (Sports Industry Networking Event)",2025-03-06,15:00,Royal Saxon,"545 Church Street Richmond, VIC 3121",https://www.eventbrite.com/e/happy-hour-presented-by-notice-sports-industry-networking-event-tickets-1229484363829?aff=ebdssbdestsearch,-37.8298352,144.9973757
2025 State Library School Program,2025-03-06,10:00,State Library Victoria,"328 Swanston Street Melbourne, VIC 3000",https://www.eventbrite.com.au/e/2025-state-library-school-program-tickets-1081252839349?aff=ebdssbdestsearch,-37.8097472,144.9654858
ACBC VIC | International Women's Day Forum & Luncheon 2025,2025-03-06,12:30,Thomson Geer,"23/525 Collins Street Melbourne, VIC 3004",https://www.eventbrite.com.au/e/acbc-vic-international-womens-day-forum-luncheon-2025-tickets-1094837992909?aff=ebdssbdestsearch,-37.8153393,144.9688417
Nervous System Rewire - An Exploration of Grounding Regulation Practices.,2025-03-06,18:30,Centre of You,"Upstairs, 217 Chapel St Prahran Melbourne, VIC 3181",https://www.eventbrite.com.au/e/nervous-system-rewire-an-exploration-of-grounding-regulation-practices-tickets-1231863209019?aff=ebdssbdestsearch,-37.8509316,144.9933031
MOON PHASE JAM @ RETREAT HOTEL,2025-03-06,00:00,Retreat Hotel,"Level 1/280 Sydney Rd, Brunswick VIC 3056, Australia",https://www.facebook.com/events/937670788132566/,-37.7711487,144.9615949
The Courteeners﻿Verified account,2025-03-06,19:00,Forum Melbourne,"154 Flinders St, Melbourne VIC 3000, Australia",https://www.facebook.com/events/3417936318339567/,-37.81644145,144.9693768124984
Opelousas // Thur Arvo Gig Series,2025-03-06,14:00,Kindred Bandroom,"3 Harris St, Footscray VIC 3011, Australia",https://www.facebook.com/events/955722435916926/,-37.8119001,144.9008247
Flow Motion ~ Late Night Jams,2025-03-06,19:00,Kindred Bandroom,"3 Harris St, Footscray VIC 3011, Australia",https://www.facebook.com/events/1076299300849264/,-37.8119001,144.9008247
Peter O'Mara Prime Time,2025-03-06,00:00,The Jazz Lab,"27 Leslie St, Brunswick Melbourne, VIC, Australia, Victoria 3056",https://www.facebook.com/events/3869867653228213/,-37.76677279,144.9587122
Social Street @ BAR OUSSOU!,2025-03-06,20:00,Bar Oussou,"653 Sydney Rd, Brunswick VIC 3056, Australia",https://www.facebook.com/events/1818370575685105/,-37.7618155,144.9628753
Bird's Basement﻿Verified account,2025-03-06,18:00,Bird's Basement,"11 Singers Ln, Melbourne VIC 3000, Australia",https://www.facebook.com/events/496858400092231/,-37.81114416,144.95680390283175
TOM KAZAS - LIBIDINIZER EP LAUNCH with CLINTON GREEN & MARA MACDONALD,2025-03-06,00:00,Mamma Chen's,"42A Albert St, Footscray VIC 3011, Australia",https://www.facebook.com/events/1350374976276076/,-37.8047552,144.89727240000002
Memo Music Hall﻿Verified account,2025-03-06,19:00,MEMO Music Hall,"88 Acland St, St Kilda VIC 3182, Australia",https://www.facebook.com/events/548483374345778/,-37.8671902,144.9786817
REVERSE HAPPY HOUR THURSDAYS,2025-03-06,00:00,Inkerman Hotel,"375 Inkerman St, St Kilda East VIC 3183, Australia",https://www.facebook.com/events/416365071539239/,-37.866444,144.99799715146656
Live N Loud  | Melbourne,2025-03-06,00:00,Bad Decisions Bar,"46 Johnston St, Fitzroy VIC 3065, Australia",https://www.facebook.com/events/527399936503307/,-37.798246,144.9762881
"CAT POWER SINGS DYLAN with BUCK MEEK | FESTIVAL HALL, MELBOURNE",2025-03-06,19:00,Festival Hall,"300 Dudley St, West Melbourne VIC 3003, Australia",https://www.facebook.com/events/559308599857182/,-37.8098193,144.9508057
Vegan Pierogi Workshop,2025-03-06,00:00,CERES Environment Park,"Stewart St & Roberts St East, Brunswick VIC 3056, Australia",https://www.facebook.com/events/2915473361980423/,-37.765454,144.9831564
CAT POWER SINGS DYLAN: THE 1966 ROYAL ALBERT HALL CONCERT,2025-03-06,18:30,Festival Hall,"300 Dudley St, West Melbourne VIC 3003, Australia",https://www.facebook.com/events/901575531856275/,-37.8098193,144.9508057
Sun Ra Arkestra at The Night Cat | SECOND SHOW ADDED,2025-03-06,20:00,The Night Cat,"137-141 Johnston St, Fitzroy VIC 3065, Australia",https://www.facebook.com/events/903299105244531/,-37.7982971,144.978128
Destroy All Lines﻿Verified account,2025-03-06,19:00,Stay Gold,"133 Sydney Rd, Brunswick VIC 3056, Australia",https://www.facebook.com/events/1131194021868153/,-37.7743469,144.9607404
Carloua - Thursday Night Jam!,2025-03-06,00:00,Hume Blues Club Inc,"27 Ballantyne St, Thornbury VIC 3071, Australia",https://www.facebook.com/events/2061473201036911/,-37.7588241,144.9985126
Within Temptation﻿Verified account,2025-03-06,19:00,Max Watts,"125 Swanston St, Melbourne VIC 3000, Australia",https://www.facebook.com/events/1694488151449341/,-37.8147557,144.9659879
SHABAKA | MELBOURNE | NORTHCOTE THEATRE ,2025-03-06,19:00,Northcote Theatre,"216 High St, Northcote VIC 3070, Australia",https://www.facebook.com/events/593869042975268/,-37.7737068,144.9982706
Stormchasers,2025-03-06,00:00,Altona Sports Club,"11 Altona Rd, Altona VIC 3018, Australia",https://www.facebook.com/events/496142846877615/,-37.85754867,144.85121805353086
Uncomfortable Science | LIVE at Punters Club,2025-03-06,21:30,Punters Club,"376 Brunswick St, Fitzroy VIC 3065, Australia",https://www.facebook.com/events/597656529387241/,-37.7960561,144.9790327
Courteeners,2025-03-06,12:00,Forum Melbourne,"150 Flinders St, Melbourne VIC 3000, Australia",https://premier.ticketek.com.au/shows/show.aspx?sh=COURT25,-37.8166268,144.9695761
2025 For Future Reference Lecture: Dava Sobel,2025-03-07,19:30,State Library Victoria,"328 Swanston St Conversation Quarter Melbourne, VIC 3000",https://www.eventbrite.com.au/e/2025-for-future-reference-lecture-dava-sobel-tickets-1113337445269?aff=ebdssbdestsearch,-37.8097472,144.9654858
Shihad,2025-03-07,12:00,Forum Melbourne,"180 Flinders St, Melbourne VIC 3000, Australia",https://premier.ticketek.com.au/shows/show.aspx?sh=SHIHAD25,-37.816602,144.9694678
KYGO,2025-03-07,12:00,John Cain Arena,"35 Olympic Blvd, Melbourne VIC 3000, Australia",https://premier.ticketek.com.au/shows/show.aspx?sh=KYGO25,-37.8227725,144.9819687
International Women’s Day Brunch by Girls Gotta Work,2025-03-07,12:00,The Smith Prahran,"213 High Street Prahran, VIC 3181",https://www.eventbrite.com/e/international-womens-day-brunch-by-girls-gotta-work-tickets-1099530327809?aff=ebdssbdestsearch,-37.8519425,144.995176
Three Sisters,2025-03-07,19:30,Theatre Works,"Saint Leonards Avenue St Kilda, VIC 3182",https://www.eventbrite.com.au/e/three-sisters-tickets-1109890585619?aff=ebdssbdestsearch,-37.8638328,144.9768976
BAD BUNNY | On Repeat,2025-03-07,22:00,Laundry Bar,"50 Johnston Street Fitzroy, VIC 3065",https://www.eventbrite.com.au/e/bad-bunny-on-repeat-tickets-1236813485429?aff=ebdssbdestsearch,-37.79831,144.976368
International Women’s Day Summit 2025,2025-03-07,11:00,2 Clarendon St,"2 Clarendon Street South Wharf, VIC 3006",https://www.eventbrite.com.au/e/international-womens-day-summit-2025-tickets-885939598187?aff=ebdssbdestsearch,-37.82382339999999,144.9560068
Billie Eilish Melbourne Afterparty #1 Friday,2025-03-07,22:00,Ballers Clubhouse,"2 Coverlid Place Melbourne, VIC 3000",https://www.eventbrite.com.au/e/billie-eilish-melbourne-afterparty-1-friday-tickets-894110457447?aff=ebdssbdestsearch,-37.812117,144.9685963
"Buzz Kull, Kris Baha & Zanias – Melbourne Live Exclusive | DOOM GEN x Tilt",2025-03-07,21:00,Laundry Bar,"50 Johnston Street Fitzroy, VIC 3065",https://www.eventbrite.com.au/e/buzz-kull-kris-baha-zanias-melbourne-live-exclusive-doom-gen-x-tilt-tickets-1244273177569?aff=ebdssbdestsearch,-37.79831,144.976368
International Women's Day Luncheon!,2025-03-07,12:00,Kooyong Lawn Tennis Club,"489 Glenferrie Road Kooyong, VIC 3144",https://www.eventbrite.com.au/e/international-womens-day-luncheon-tickets-1013280558427?aff=ebdssbdestsearch,-37.8389092,145.0319836
Kindred Singles (20s - 40s) - A Speed Dating Event for Conscious Relating.,2025-03-07,18:30,Centre of You,"Upstairs, 217 Chapel St Prahran Melbourne, VIC 3181",https://www.eventbrite.com.au/e/kindred-singles-20s-40s-a-speed-dating-event-for-conscious-relating-tickets-1149040353629?aff=ebdssbdestsearch,-37.8509316,144.9933031
Melbourne speed dating Cheeky Events Australia in St. Kilda-ages 24-35,2025-03-07,06:45,Ellora St Kilda,"1 Fitzroy Street St Kilda Melbourne, VIC 3182",https://www.eventbrite.com.au/e/melbourne-speed-dating-cheeky-events-australia-in-st-kilda-ages-24-35-tickets-1055669157869?aff=ebdssbdestsearch,-37.8626946,144.9729238
:: Melbourne Wild Roots Vocal Journey 6 Days 2025 ::,2025-03-07,18:00,Ela Rose Studios,"20 Chingford St Fairfield, VIC 3078",https://www.eventbrite.com.au/e/melbourne-wild-roots-vocal-journey-6-days-2025-tickets-1118417790719?aff=ebdssbdestsearch,-37.7696884,145.0239564
Conscious Connection | Pour Decisions Club (ages 25-40),2025-03-07,19:00,Northside Wines,"543-545 High Street Northcote, VIC 3070",https://www.eventbrite.com.au/e/conscious-connection-pour-decisions-club-ages-25-40-tickets-1206394872539?aff=ebdssbdestsearch,-37.7642271,144.9994439
International Women's Day Breakfast 2025,2025-03-07,08:00,Amora Hotel Riverwalk Melbourne,"649 Bridge Road enter car park via River St Richmond, VIC 3121",https://www.eventbrite.com.au/e/international-womens-day-breakfast-2025-tickets-1238257885669?aff=ebdssbdestsearch,-37.8197495,145.0132556
LARGE MIRAGE with special guests: HOLiDAY  MYSTICS & Ramona Sky,2025-03-07,19:30,280 Sydney Rd,"280 Sydney Road Brunswick, VIC 3056",https://www.eventbrite.com.au/e/large-mirage-with-special-guests-holiday-mystics-ramona-sky-tickets-1118385564329?aff=ebdssbdestsearch,-37.7711488,144.9616353
A One-of-a-Kind Piano Experience in Elwood,2025-03-07,19:00,unit 8/14 Hennessy Ave,"14 Hennessy Avenue #unit 8 Elwood, VIC 3184",https://www.eventbrite.com.au/e/a-one-of-a-kind-piano-experience-in-elwood-tickets-1249812124709?aff=ebdssbdestsearch,-37.8723473,144.9875937
IDC Annual PCW Family Iftar 2025,2025-03-07,19:30,"Sirius College - Sunshine, Ibrahim Dellal Campus (Prep - Year 12)","515 Fitzgerald Road Sunshine West, VIC 3020",https://www.eventbrite.com/e/idc-annual-pcw-family-iftar-2025-tickets-1247680519019?aff=ebdssbdestsearch,-37.7855829,144.7907772
2025 International Women's Day Luncheon Sunflower Ladies 2nd Anniversary,2025-03-07,11:00,379-399 Whitehorse Rd,"379-399 Whitehorse Road Nunawading, VIC 3131",https://www.eventbrite.com.au/e/2025-international-womens-day-luncheon-sunflower-ladies-2nd-anniversary-tickets-1247580951209?aff=ebdssbdestsearch,-37.8176992,145.1816984
"Club Mayhem Celebrating Lady Gaga, FRI March 7th",2025-03-07,21:00,Yah Yahs,"99 Smith Street Fitzroy, VIC 3065",https://www.eventbrite.com.au/e/club-mayhem-celebrating-lady-gaga-fri-march-7th-tickets-1225874135539?aff=ebdssbdestsearch,-37.8058545,144.982966
Liquid Edition | Drum n Bass Party | DnB Melbourne,2025-03-07,19:00,Talk To Me,"153 Commercial Road South Yarra, VIC 3141",https://www.eventbrite.com/e/liquid-edition-drum-n-bass-party-dnb-melbourne-tickets-1244309716859?aff=ebdssbdestsearch,-37.846331,144.9915011
GGW Presents: International Women’s Day Brunch,2025-03-07,12:00,The Smith Prahran,"213 High Street Prahran, VIC 3181",https://www.eventbrite.com/e/ggw-presents-international-womens-day-brunch-tickets-1099530327809?aff=ebdssbdestsearch,-37.8519425,144.995176
Roxette,2025-03-07,12:00,Margaret Court Arena,"5XHH+G3 Melbourne VIC, Australia",https://premier.ticketek.com.au/shows/show.aspx?sh=ROXETT25&v=MCO,-37.8211276,144.9776364
韩大狗《正态分布》单口喜剧专场全球巡演澳大利亚 - 墨尔本站,2025-03-07,07:30,Library at The Dock,"107 Victoria Harbour Promenade Docklands, VIC 3008",https://www.eventbrite.com/e/1235472765299?aff=ebdssbdestsearch,-37.8200128,144.9404861
THE LAST CHANCE OF LAZERLIPS w/ FILTHY MCNASTY'S + BLUE TONGUE WIZARD,2025-03-07,19:00,The Last Chance,"238 Victoria St, Melbourne VIC 3000, Australia",https://www.facebook.com/events/1136975464405099/,-37.8059962,144.9585654
'If You Were a Tail' Launch @OldBar,2025-03-07,20:00,The Old Bar,"74-76 Johnston St, Fitzroy VIC 3065, Australia",https://www.facebook.com/events/2014518279027875/,-37.79833,144.97711
Cluedunnit | MURDERS ON THE NILE - Murder Mystery Dinner - Melbourne,2025-03-07,00:00,Stamford Plaza Melbourne,"111 Little Collins St, Melbourne VIC 3000, Australia",https://www.facebook.com/events/590772490581797/,-37.81359225,144.9700614178762
RUBIX presents: Safari Zone Records,2025-03-07,00:00,Rubix Warehouse,"36 Phoenix St, Brunswick VIC 3056, Australia",https://www.facebook.com/events/2627040740821746/,-37.7698629,144.95727340490248
"(Fri, Mar 7) LANA EILEEN",2025-03-07,00:00,George Lane St Kilda,"1 George Ln, St Kilda VIC 3182, Australia",https://www.facebook.com/events/561209186918051/,-37.85997305,144.9780306
"Buzz Kull, Kris Baha & Zanias – Melbourne Live Exclusive | Doom Gen x Tilt Shift ",2025-03-07,00:00,Laundry Bar,"50 Johnston St, Fitzroy VIC 3065, Australia",https://www.facebook.com/events/933733685635345/,-37.7983139,144.9764962
Full Moon Party | Indoor Glow Festival @ Billboards (170 Russell),2025-03-07,00:00,On The Rocks Bar Crawl Melbourne,"The Joint, 35 Elizabeth St, Melbourne VIC 3000, Australia",https://www.facebook.com/events/3906070749640412/,-37.8172989,144.9643996
Kunjani Heita Afrika @ BAR OUSSOU!,2025-03-07,22:00,Bar Oussou,"653 Sydney Rd, Brunswick VIC 3056, Australia",https://www.facebook.com/events/1680569816211768/,-37.7618155,144.9628753
'Gladiator' Film Screening,2025-03-07,19:00,Northcote Social Club,"301 High St, Northcote VIC 3070, Australia",https://www.facebook.com/events/9135086369880110/,-37.771471,144.998414
New Guernica Presents : TEACHERS PET (O-WEEK KICK-ON),2025-03-07,00:00,New Guernica,"64 Smith St, Collingwood VIC 3066, Australia",https://www.facebook.com/events/902626531772045/,-37.80624775,144.98331211946754
Sunny Kim's Ensemble Ochaye – Water Song,2025-03-07,00:00,Melbourne Recital Centre,"31 Sturt St, Southbank VIC 3006, Australia",https://www.facebook.com/events/478364715005958/?event_time_id=478364718339291,-37.82408485,144.96758763141432
NEW RESIDENCE,2025-03-07,00:00,Stay Gold,"133 Sydney Rd, Brunswick VIC 3056, Australia",https://www.facebook.com/events/1562838441047115/,-37.7743469,144.9607404
Bird's Basement﻿Verified account,2025-03-07,18:00,Bird's Basement,"11 Singers Ln, Melbourne VIC 3000, Australia",https://www.facebook.com/events/415477564851987/,-37.81114416,144.95680390283175
The Stephen Magnusson Trio,2025-03-07,00:00,Uptown Jazz Cafe,"1/177 Brunswick St, Fitzroy VIC 3065, Australia",https://www.facebook.com/events/600998086083377/,-37.79705404,144.97869049756974
Rai Thistlethwayte with Ben Vanderwal,2025-03-07,00:00,The Jazz Lab,"27 Leslie St, Brunswick Melbourne, VIC, Australia, Victoria 3056",https://www.facebook.com/events/1068422275048398/,-37.76677279,144.9587122
"SOLD OUT: Sun Ra Arkestra at The Night Cat, Melbourne",2025-03-07,20:00,The Night Cat,"137-141 Johnston St, Fitzroy VIC 3065, Australia",https://www.facebook.com/events/441398071916375/,-37.7982971,144.978128
Totally 80's - (with Gwyn Ashton Acoustic),2025-03-07,00:00,Musicland Melbourne,"1359 Sydney Rd, Fawkner VIC 3060, Australia",https://www.facebook.com/events/1048793867050905/,-37.6916774,144.9585701581541
Palace Cinemas﻿Verified account,2025-03-07,18:00,Palace Cinemas,"1 Champ St, Coburg VIC 3058, Australia",https://www.facebook.com/events/2062819510835784/,-37.736826,144.968318
[BMF 2025] Pachyman (US),2025-03-07,20:00,Howler,"7-11 Dawson St, Brunswick VIC 3056, Australia",https://www.facebook.com/events/1743194753189392/,-37.7720304,144.9596527
The Radiohead Project,2025-03-07,21:00,Paris Cat Jazz Club,"6 Goldie Pl, Melbourne VIC 3000, Australia",https://www.facebook.com/events/1436586767719190/,-37.8133262,144.96060714767358
BLACK RAINBOW 'LIVE' w/ RAWTISM & FORKLIFT ASSASSINS,2025-03-07,20:00,Mr Boogie Man Bar,"160 Hoddle St, Abbotsford VIC 3067, Australia",https://www.facebook.com/events/529897979470293/,-37.80245,144.99295304614787
Palace Cinemas﻿Verified account,2025-03-07,20:00,Palace Cinemas,"1 Champ St, Coburg VIC 3058, Australia",https://www.facebook.com/events/617590377734994/,-37.736826,144.968318
Tokyo Love Hotel w/ Yamarchy (JP) ,2025-03-07,00:00,Sub Club Melbourne,"Flinders Ct, Melbourne VIC 3000, Australia",https://www.facebook.com/events/1607534286556812/,-37.81776587,144.96433104920948
Memo Music Hall﻿Verified account,2025-03-07,19:00,MEMO Music Hall,"88 Acland St, St Kilda VIC 3182, Australia",https://www.facebook.com/events/1876166362911090/,-37.8671902,144.9786817
BAD BUNNY | On Repeat,2025-03-07,00:00,Laundry Bar,"50 Johnston St, Fitzroy VIC 3065, Australia",https://www.facebook.com/events/447555745018089/,-37.7983139,144.9764962
 FREE EVENT | Jeff Pattison Acoustic | From 5pm,2025-03-07,00:00,arcobar heatherton,"8 Arco Ln, Heatherton VIC 3202, Australia",https://www.facebook.com/events/1133481035141702/,-37.94673685,145.07837928457485
Mana on Tap: Magic the Gathering ,2025-03-07,00:00,Fortress Melbourne,"Shop 25/23 Caledonian Ln, Melbourne VIC 3000, Australia",https://www.facebook.com/events/897086662507640/,-37.8120357,144.9642299
The Hindley Street Country Club: Just Get's Better Australian Tour,2025-03-07,20:10,Palais Theatre,"Lower Esplanade, St Kilda VIC 3182, Australia",https://www.facebook.com/events/1724280431761929/,-37.86708671,144.97599656199426
MANGO CLUB | 07.03.25 | FT. JXL,2025-03-07,00:00,Mango Club,"577 Little Bourke St Docklands VIC 3000, Australia",https://www.facebook.com/events/616323137932965/,-37.81578222,144.95396129427266
[BMF 2025] Turtle Skull (NSW) Single Launch,2025-03-07,20:00,Bergy Bandroom,"64 Sydney Rd, Brunswick VIC 3056, Australia",https://www.facebook.com/events/641197818246904/,-37.776327,144.9607158
A Chance to Address the Amish Rumours - Comedy Festival Trial Show,2025-03-08,20:00,Goff's Comedy,"215 Swan Street Richmond, VIC 3121",https://www.eventbrite.com.au/e/a-chance-to-address-the-amish-rumours-comedy-festival-trial-show-tickets-1210108118959?aff=ebdssbdestsearch,-37.8256242,144.9994168
IWD at The Retreat featuring Danika + Romanie + Maggie Alley + Elle Murphy,2025-03-08,14:30,280 Sydney Rd,"280 Sydney Road Brunswick, VIC 3056",https://www.eventbrite.com.au/e/iwd-at-the-retreat-featuring-danika-romanie-maggie-alley-elle-murphy-tickets-1245528943599?aff=ebdssbdestsearch,-37.7711488,144.9616353
DJ BLISS LIVE IN MELBOURNE -HABIBI COME TO DUBAI,2025-03-08,21:00,371 Settlement Rd,"371 Settlement Road Thomastown, VIC 3074",https://www.eventbrite.com.au/e/dj-bliss-live-in-melbourne-habibi-come-to-dubai-tickets-1232477496369?aff=ebdssbdestsearch,-37.6885361,145.016133
"Hypnobirthing, Monash Clayton, Saturday  March 8th & 15th, 2025",2025-03-08,09:30,"Monash Medical Centre, Clayton Road, Clayton","246 Clayton Road Clayton, VIC 3168",https://www.eventbrite.com/e/hypnobirthing-monash-clayton-saturday-march-8th-15th-2025-tickets-1105975525569?aff=ebdssbdestsearch,-37.9205757,145.1227608
International Women's Day High-Tea Party with Katya Komarova,2025-03-08,12:00,Melbourne Central,"133 Russel Street QT Melbourne Hotel Melbourne, VIC 3000",https://www.eventbrite.com.au/e/international-womens-day-high-tea-party-with-katya-komarova-tickets-1249067627899?aff=ebdssbdestsearch,-37.8133658,144.9680647
Altered States Experience | Melbourne (Thornbury),2025-03-08,18:00,Prana House,"885 High Street #Level 1 Thornbury, VIC 3071",https://www.eventbrite.com.au/e/altered-states-experience-melbourne-thornbury-tickets-1221697603419?aff=ebdssbdestsearch,-37.7537691,145.0011906
A Special Iftar Fundraising Dinner 2025,2025-03-08,18:00,Melrose Events,"2 Carrick Drive Tullamarine, VIC 3043",https://www.eventbrite.com.au/e/a-special-iftar-fundraising-dinner-2025-tickets-1232506793999?aff=ebdssbdestsearch,-37.7025278,144.8833449
"Large Mirage + Holiday Mystics live at Cherry Bar, SAT March 8",2025-03-08,20:00,"Cherry Bar, Little Collins Street, Melbourne VIC, Australia","68 Little Collins Street Melbourne, VIC 3000",https://www.eventbrite.com.au/e/large-mirage-holiday-mystics-live-at-cherry-bar-sat-march-8-tickets-1217200853519?aff=ebdssbdestsearch,-37.8129293,144.9714986
MTF INTERNATIONAL WOMEN'S DAY 2025,2025-03-08,11:00,Laverton Community Hub,"95-105 Railway Avenue Laverton, VIC 3028",https://www.eventbrite.com.au/e/mtf-international-womens-day-2025-tickets-1225618831919?aff=ebdssbdestsearch,-37.8652981,144.7688781
KAP (Kundalini) & Non Dual Weekend Immersion  - First Time in Australia,2025-03-08,11:00,"SoulPod Health & Healing, Stanley Street, Richmond VIC, Australia","14 Stanley Street Richmond, VIC 3121",https://www.eventbrite.com.au/e/kap-kundalini-non-dual-weekend-immersion-first-time-in-australia-tickets-1210161769429?aff=ebdssbdestsearch,-37.8228766,144.9947237
Victorian Era Fashion Cards - Workshop,2025-03-08,11:00,The District Docklands,"440 Docklands Drive Docklands, VIC 3008",https://www.eventbrite.com.au/e/victorian-era-fashion-cards-workshop-tickets-1017163682957?aff=ebdssbdestsearch,-37.8142926,144.9384995
Dan Nguyen Show - Dem Huyen Thoai 5,2025-03-08,07:30,Club Italia Sporting Club,"132 Furlong Road #128 Saint Albans, VIC 3021",https://www.eventbrite.com.au/e/dan-nguyen-show-dem-huyen-thoai-5-tickets-1145215513429?aff=ebdssbdestsearch,-37.7604729,144.8192858
Back to the 80s Rooftop Party,2025-03-08,19:00,Top Yard Rooftop,"King Street #Rear 60 Melbourne, VIC 3000",https://www.eventbrite.com.au/e/back-to-the-80s-rooftop-party-tickets-1247709726379?aff=ebdssbdestsearch,-37.8149036,144.9549857
Singles Yacht Party!,2025-03-08,17:00,107 Victoria Harbour Promenade,"107 Victoria Harbour Promenade Bella Fino Yacht Docklands, VIC 3008",https://www.eventbrite.com.au/e/singles-yacht-party-tickets-1250405770319?aff=ebdssbdestsearch,-37.8200128,144.9404861
Living in Alignment: Discover Your Human Design (Level 1),2025-03-08,01:30,AKA Studio Yoga,"130C Nicholson Street Brunswick East, VIC 3057",https://www.eventbrite.com.au/e/living-in-alignment-discover-your-human-design-level-1-tickets-1149833646389?aff=ebdssbdestsearch,-37.767095,144.980478
"Club Gaga MELB - ""Mayhem"" album release party",2025-03-08,22:00,Chasers Nightclub,"386 Chapel Street South Yarra, VIC 3141",https://www.eventbrite.com.au/e/club-gaga-melb-mayhem-album-release-party-tickets-1234300819979?aff=ebdssbdestsearch,-37.8459028,144.9947039
AURA Day Party: Launch Edition,2025-03-08,15:00,Ras Dashen Ethiopian Restaurant,"247 Barkly Street Footscray, VIC 3011",https://www.eventbrite.com.au/e/aura-day-party-launch-edition-tickets-1235428944229?aff=ebdssbdestsearch,-37.7995871,144.8960529
Billie Eilish Melbourne Afterparty #2 Saturday,2025-03-08,22:00,Ballers Clubhouse,"2 Coverlid Place Melbourne, VIC 3000",https://www.eventbrite.com.au/e/billie-eilish-melbourne-afterparty-2-saturday-tickets-894112985007?aff=ebdssbdestsearch,-37.812117,144.9685963
Human Forest - Harmony in Nature. A Regenerative Touch Experience.,2025-03-08,18:45,Centre of You,"Upstairs, 217 Chapel St Prahran Melbourne, VIC 3181",https://www.eventbrite.com.au/e/human-forest-harmony-in-nature-a-regenerative-touch-experience-tickets-1238473410309?aff=ebdssbdestsearch,-37.8509316,144.9933031
"GATEWAY WOMEN REIGNITE WEEKEND - MELBOURNE, 8 & 9 MARCH 2025",2025-03-08,09:00,East Melbourne,"East Melbourne East Melbourne, VIC 3002",https://www.eventbrite.com.au/e/gateway-women-reignite-weekend-melbourne-8-9-march-2025-tickets-1000414124577?aff=ebdssbdestsearch,-37.8161444,144.9804594
CHARADES13 | OGAZÓN [ESP],2025-03-08,23:00,Sub Club Melbourne,"Flinders Court Melbourne, VIC 3000",https://www.eventbrite.com.au/e/charades13-ogazon-esp-tickets-1232418489879?aff=ebdssbdestsearch,-37.8179755,144.9644539
FOZZA presents: NEON INDIE SLEAZE PARTY,2025-03-08,21:00,Laundry Bar,"50 Johnston Street Fitzroy, VIC 3065",https://www.eventbrite.com.au/e/fozza-presents-neon-indie-sleaze-party-tickets-1225793183409?aff=ebdssbdestsearch,-37.79831,144.976368
DJ BLISS LIVE IN MELBOURNE - DUBAI BLING STAR,2025-03-08,21:00,371 Settlement Rd,"371 Settlement Road Thomastown, VIC 3074",https://www.eventbrite.com.au/e/dj-bliss-live-in-melbourne-dubai-bling-star-tickets-1232477496369?aff=ebdssbdestsearch,-37.6885361,145.016133
KANPAI!  Women of Sake tasting/pairing event,2025-03-08,18:30,Sakedokoro Namara,"360 Victoria Street North Melbourne, VIC 3051",https://www.eventbrite.com.au/e/kanpai-women-of-sake-tastingpairing-event-tickets-1143592599249?aff=ebdssbdestsearch,-37.80549,144.9543455
Once Upon A Ball,2025-03-08,07:30,Coburg Town Hall,"90 Bell Street Coburg, VIC 3058",https://www.eventbrite.com.au/e/once-upon-a-ball-tickets-932811703917?aff=ebdssbdestsearch,-37.7408943,144.9695726
"Clayton Childbirth education-Labour, Birth & Baby: 8th March, 2025",2025-03-08,08:30,246 Clayton Rd,"246 Clayton Road Clayton, VIC 3168",https://www.eventbrite.com/e/clayton-childbirth-education-labour-birth-baby-8th-march-2025-tickets-1131410492239?aff=ebdssbdestsearch,-37.9205757,145.1227608
Durand Jones & The Indications,2025-03-08,12:00,Forum Melbourne,"180 Flinders St, Melbourne VIC 3000, Australia",https://premier.ticketek.com.au/shows/show.aspx?sh=DURAND25,-37.816602,144.9694678
End of Summer Boat party,2025-03-08,18:00,Victoria Star Cruises,"30 victoria harbour promenade victoria harbour Docklands, VIC 3008",https://www.eventbrite.com.au/e/end-of-summer-boat-party-tickets-1250339782949?aff=ebdssbdestsearch,-37.8187053,144.9439326
YACHT ROCK REVIVAL - SINGLE LAUNCH,2025-03-08,18:30,Brunswick Ballroom,"314 Sydney Rd, Brunswick VIC 3056, Australia",https://www.facebook.com/events/820712233517092/,-37.7704205,144.9617083
[BMF 2025] Soft Focus,2025-03-08,19:00,Bergy Bandroom,"64 Sydney Rd, Brunswick VIC 3056, Australia",https://www.facebook.com/events/1363593181294441/,-37.776327,144.9607158
Brayden's 21st Birthday Massacre,2025-03-08,19:00,The Central Club Hotel,"293 Swan St, Richmond VIC 3121, Australia",https://www.facebook.com/events/1302529637447514/,-37.82610566,145.00277291052632
Memo Music Hall﻿Verified account,2025-03-08,19:00,MEMO Music Hall,"88 Acland St, St Kilda VIC 3182, Australia",https://www.facebook.com/events/916748170387223/,-37.8671902,144.9786817
Taking Back Saturday's Emo & Pop Punk Pre-Party,2025-03-08,00:00,Stay Gold,"133 Sydney Rd, Brunswick VIC 3056, Australia",https://www.facebook.com/events/1424008828577619/,-37.7743469,144.9607404
Taking Back Saturday 9th Birthday: Long Weekend Party - Melbourne,2025-03-08,23:00,Stay Gold,"133 Sydney Rd, Brunswick VIC 3056, Australia",https://www.facebook.com/events/620030330520696/,-37.7743469,144.9607404
Afro-Dominican Jazz with Josean Jacobo & Otoniel Nicolás,2025-03-08,20:00,The Jazz Lab,"27 Leslie St, Brunswick Melbourne, VIC, Australia, Victoria 3056",https://www.facebook.com/events/1149540653422463/,-37.76677279,144.9587122
FOZZA presents: NEON INDIE SLEAZE PARTY,2025-03-08,00:00,Laundry Bar,"50 Johnston St, Fitzroy VIC 3065, Australia",https://www.facebook.com/events/1695504051318680/,-37.7983139,144.9764962
"Dumb Punts, The Unknowns and Elvis 2 @ Last Chance",2025-03-08,19:00,The Last Chance,"238 Victoria St, Melbourne VIC 3000, Australia",https://www.facebook.com/events/966909755506385/,-37.8059962,144.9585654
Royal Botanic Gardens Victoria﻿Verified account,2025-03-08,00:00,Botanic gardens,"Birdwood Ave Melbourne VIC 3004, Australia",https://www.facebook.com/events/479078838401583/,-37.82683271,144.97238679810675
Royal Botanic Gardens Victoria﻿Verified account,2025-03-08,17:00,Botanic gardens,"Birdwood Ave Melbourne VIC 3004, Australia",https://www.facebook.com/events/1112525699795416/,-37.82683271,144.97238679810675
Ups and Downs 40th Anniversary Show - Marrickville,2025-03-08,19:30,The Flying Saucer Club,"979-985 Nepean Hwy, Moorabbin VIC 3189, Australia",https://www.facebook.com/events/1206888597048281/,-37.9369432,145.0373674
Lucky 13 Garage﻿Verified account,2025-03-08,20:00,Lucky 13 Garage,"8 Cochranes Rd, Moorabbin VIC 3189, Australia",https://www.facebook.com/events/935029831941507/,-37.94349189,145.07036236060654
High School Musical Party - Melbourne,2025-03-08,22:00,Max Watts,"125 Swanston St, Melbourne VIC 3000, Australia",https://www.facebook.com/events/4067461413534405/,-37.8147557,144.9659879
Melbourne Bar Crawl | #1 Saturday Night Out,2025-03-08,00:00,On The Rocks Bar Crawl Melbourne,"The Joint, 35 Elizabeth St, Melbourne VIC 3000, Australia",https://www.facebook.com/events/1358139498520971/,-37.8172989,144.9643996
Bebe's Bar - The Flash Bastard Experience | New Age | Souls of Ambience,2025-03-08,00:00,Musicland Melbourne,"1359 Sydney Rd, Fawkner VIC 3060, Australia",https://www.facebook.com/events/581203528133847/,-37.6916774,144.9585701581541
Melbourne City Roller Live in the Glasshouse,2025-03-08,00:00,Transport Hotel,"Transport Hotel, Ground Level Federation Square, Melbourne VIC 3000, Australia",https://www.facebook.com/events/961192399448121/,-37.81835059,144.9683925
Nina Rose at The Thornbury Local,2025-03-08,00:00,The Thornbury Local,"635 High St, Thornbury VIC 3071, Australia",https://www.facebook.com/events/618201800886069/,-37.76165125,144.99987967655426
CHARADES13 | OGAZÓN [ESP],2025-03-08,00:00,Sub Club Melbourne,"Flinders Ct, Melbourne VIC 3000, Australia",https://www.facebook.com/events/1000253061979114/,-37.81776587,144.96433104920948
The KEITH URBAN Experience,2025-03-08,00:00,Musicland Melbourne,"1359 Sydney Rd, Fawkner VIC 3060, Australia",https://www.facebook.com/events/471045882711120/,-37.6916774,144.9585701581541
Hasta La Cumbia @ BAR OUSSOU!,2025-03-08,22:00,Bar Oussou,"653 Sydney Rd, Brunswick VIC 3056, Australia",https://www.facebook.com/events/1620757448827383/,-37.7618155,144.9628753
Lorcana Weekly Limited - Sealed,2025-03-08,00:00,The Gaming Arena,"123 Bakers Rd, Coburg North VIC 3058, Australia",https://www.facebook.com/events/529361729949752/,-37.72715826,144.96115535488718
Out on the Deck with Cool Out Sun,2025-03-08,13:00,Kindred Bandroom,"3 Harris St, Footscray VIC 3011, Australia",https://www.facebook.com/events/1108761837689164/,-37.8119001,144.9008247
Bird's Basement﻿Verified account,2025-03-08,18:00,Bird's Basement,"11 Singers Ln, Melbourne VIC 3000, Australia",https://www.facebook.com/events/1276948829967641/,-37.81114416,144.95680390283175
Wobbygong @bar303 with @wils&waves,2025-03-08,20:00,Bar 303,"303 High St, Northcote VIC 3070, Australia",https://www.facebook.com/events/1329052371548018/,-37.7713296,144.99828116650363
Starman - The David Bowie Tribute Show at Kindred Bandroom,2025-03-08,19:00,Kindred Bandroom,"3 Harris St, Footscray VIC 3011, Australia",https://www.facebook.com/events/1624603671435801/,-37.8119001,144.9008247
The Pearlies || IWD Show,2025-03-08,19:30,The Workers Club,"51 Brunswick St, Fitzroy VIC 3065, Australia",https://www.facebook.com/events/1283022879569593/,-37.8055776,144.9769450659087
BELLA DEER - Mamma Chen's,2025-03-08,19:00,Mamma Chen's,"42A Albert St, Footscray VIC 3011, Australia",https://www.facebook.com/events/1138665264051318/,-37.8047552,144.89727240000002
CHILLINIT - BIG BASH TOUR 2025 - MELBOURNE,2025-03-08,19:30,The Night Cat,"137-141 Johnston St, Fitzroy VIC 3065, Australia",https://www.facebook.com/events/1352834982792855/,-37.7982971,144.978128
Eat The Beat : ELEVATE,2025-03-08,00:00,New Guernica,"64 Smith St, Collingwood VIC 3066, Australia",https://www.facebook.com/events/552326517844231/,-37.80624775,144.98331211946754
Jennifer Salisbury & Mark Morand Duo,2025-03-08,20:00,Ragtime Tavern,"206 Tyler St, Preston VIC 3072, Australia",https://www.facebook.com/events/3898990187088942/,-37.7310367,145.0142411
Lady Gaga: Mayhem Party - Melbourne,2025-03-08,23:00,The Night Cat,"137-141 Johnston St, Fitzroy VIC 3065, Australia",https://www.facebook.com/events/1676029756683859/,-37.7982971,144.978128
ПРАЗДНИЧНЫЙ ВЕЧЕР к 8 МАРТА,2025-03-08,18:00,Russian House Melbourne,"118 Greeves St, Fitzroy VIC 3065, Australia",https://www.facebook.com/events/1980847762429094/,-37.79982794,144.97840274927256
WILBUR WILDE & The Trouble Makers with special guest ERIC MCCUSKER (Mondo Rock),2025-03-08,00:00,arcobar heatherton,"8 Arco Ln, Heatherton VIC 3202, Australia",https://www.facebook.com/events/1110771857443381/,-37.94673685,145.07837928457485
"(Sat, Mar  ROAR FESTIVAL - WOMEN ON THE BAY",2025-03-08,00:00,George Lane St Kilda,"1 George Ln, St Kilda VIC 3182, Australia",https://www.facebook.com/events/1487718125228550/,-37.85997305,144.9780306
Paul Williamson/Peter O’Mara Quintet feat Julien Wilson,2025-03-08,19:30,Uptown Jazz Cafe,"1/177 Brunswick St, Fitzroy VIC 3065, Australia",https://www.facebook.com/events/1530723647597228/,-37.79705404,144.97869049756974
Peach PRC / George Alice / Carla Wehbe,2025-03-09,00:00,Fed Square,"Swanston St &, Flinders St, Melbourne VIC 3000, Australia",https://www.facebook.com/events/9146692932054930/,-37.81767355,144.9667825800355
"""Satellite"" Single Launch @ The Workers Club",2025-03-09,13:00,The Workers Club,"51 Brunswick St, Fitzroy VIC 3065, Australia",https://www.facebook.com/events/1362152795147787/,-37.8055776,144.9769450659087
Sunday Fundays - RECALL THE 80's,2025-03-09,00:00,Musicland Melbourne,"1359 Sydney Rd, Fawkner VIC 3060, Australia",https://www.facebook.com/events/1241742120228821/,-37.6916774,144.9585701581541
"EUROGLIDERS & KIDS IN THE KITCHEN. Sunday 9 March Palms at Crown  "" Labour Day Weekend"" On Sale",2025-03-09,00:00,Palladium at Crown,"Level 1 Crown Towers, Crown Melbourne, 8 Whiteman St, Southbank VIC 3006, Australia",https://www.facebook.com/events/1201034088031180/,-37.822181,144.959875
Jack & Ruby (DACY) Live in the Glasshouse,2025-03-09,00:00,Transport Hotel,"Transport Hotel, Ground Level Federation Square, Melbourne VIC 3000, Australia",https://www.facebook.com/events/614317611189943/,-37.81835059,144.9683925
ENS: FUTURE EMO 2025,2025-03-09,22:00,Royal Melbourne Hotel,"629 Bourke Street Melbourne, VIC 3000",https://www.eventbrite.com.au/e/ens-future-emo-2025-tickets-1252709781679?aff=ebdssbdestsearch,-37.8168528,144.9552468
A taste of Gippsland,2025-03-09,18:00,Sunhands,"169 elgin st carlton, VIC 3053",https://www.eventbrite.com.au/e/a-taste-of-gippsland-tickets-1118707597539?aff=ebdssbdestsearch,-37.7974853,144.9692541
Concert for Palestine,2025-03-09,00:00,The Workers Club,"51 Brunswick St, Fitzroy VIC 3065, Australia",https://www.facebook.com/events/1776728886456488/,-37.8055776,144.9769450659087
STEVE “WEST” WESTON,2025-03-09,14:00,Way Out West Roots Music Club,"4 Market St, Newport VIC 3015, Australia",https://www.facebook.com/events/3963036080635027/,-37.8439028,144.8823845
Lucky 13 Garage﻿Verified account,2025-03-09,20:00,Lucky 13 Garage,"8 Cochranes Rd, Moorabbin VIC 3189, Australia",https://www.facebook.com/events/624403830166863/,-37.94349189,145.07036236060654
Ella Hooper﻿Verified account,2025-03-09,00:00,MEMO Music Hall,"88 Acland St, St Kilda VIC 3182, Australia",https://www.facebook.com/events/956923372742906/,-37.8671902,144.9786817
Royal Botanic Gardens Victoria﻿Verified account,2025-03-09,10:00,Botanic gardens,"Birdwood Ave Melbourne VIC 3004, Australia",https://www.facebook.com/events/1282729319652192/,-37.82683271,144.97238679810675
The Old Bar﻿Verified account,2025-03-09,16:00,The Old Bar,"74-76 Johnston St, Fitzroy VIC 3065, Australia",https://www.facebook.com/events/1377400633622356/,-37.79833,144.97711
Domingo Latino - La 45,2025-03-09,18:45,The Night Cat,"137-141 Johnston St, Fitzroy VIC 3065, Australia",https://www.facebook.com/events/1151341856576229/,-37.7982971,144.978128
Road Dogs Musicland Sunday Arvo Sessions ,2025-03-09,15:00,Musicland Melbourne,"1359 Sydney Rd, Fawkner VIC 3060, Australia",https://www.facebook.com/events/609829978526055/,-37.6916774,144.9585701581541
Sunday Fundays - ROAD DOGS,2025-03-09,00:00,Musicland Melbourne,"1359 Sydney Rd, Fawkner VIC 3060, Australia",https://www.facebook.com/events/1149585693302979/,-37.6916774,144.9585701581541
"Sunday School: Morningbirds, Ruse, The Corner of My Room",2025-03-09,16:00,Bergy Bandroom,"64 Sydney Rd, Brunswick VIC 3056, Australia",https://www.facebook.com/events/503183592444758/,-37.776327,144.9607158
FREE KARAOKE @ Mamma Chen's / hosted by Prue Brown,2025-03-09,00:00,Mamma Chen's,"42A Albert St, Footscray VIC 3011, Australia",https://www.facebook.com/events/1883995539006444/,-37.8047552,144.89727240000002
Larry Crestani (Standing Circle) & Sello @ Bar Oussou!,2025-03-09,17:00,Bar Oussou,"653 Sydney Rd, Brunswick VIC 3056, Australia",https://www.facebook.com/events/369027649638852/,-37.7618155,144.9628753
Trench Crusade - Campaign League,2025-03-09,00:00,The Gaming Arena,"123 Bakers Rd, Coburg North VIC 3058, Australia",https://www.facebook.com/events/579100334568344/,-37.72715826,144.96115535488718
BASS in the LANEWAY  >>  A Brunswick Music Festival Event,2025-03-09,14:00,Rubix Warehouse,"36 Phoenix St, Brunswick VIC 3056, Australia",https://www.facebook.com/events/505366505452524/,-37.7698629,144.95727340490248
Labour Dar Eve,2025-03-09,12:00,Lona St Kilda,"Unit 64/66 Acland St, St Kilda VIC 3182, Australia",https://www.facebook.com/events/1554272908592619/,-37.86668052,144.978209
Healing Eros ~ Melbourne,2025-03-09,00:00,Second Story,"222A Johnston St, Collingwood VIC 3066, Australia",https://www.facebook.com/events/641221161798273/,-37.79913366,144.9859876802753
"DJ ASSUALT (US) + MOTHAFUNK, STRICT FACE - Labour Day Eve at New Guernica. ",2025-03-09,00:00,New Guernica,"64 Smith St, Collingwood VIC 3066, Australia",https://www.facebook.com/events/1037649521530315/,-37.80624775,144.98331211946754
ENS: FUTURE EMO 2025,2025-03-09,00:00,EMO NEVER SLEEPS,"629 Bourke St, Melbourne VIC 3004, Australia",https://www.facebook.com/events/601060282894078/,-37.8167994,144.9552063
Journey to Rebetika - Estudiantina of Melbourne ALBUM Launch,2025-03-09,13:00,Brunswick Ballroom,"314 Sydney Rd, Brunswick VIC 3056, Australia",https://www.facebook.com/events/886135363680874/,-37.7704205,144.9617083
Simon Joyner and the Eucalypts - SOLO and FULL BAND,2025-03-09,00:00,The Merri Creek Tavern,"111 High St, Northcote VIC 3070, Australia",https://www.facebook.com/events/619076600449088/,-37.7794356,144.996838
No Regrets - The Edith Piaf Story (Paris Cat Jazz Club),2025-03-09,00:00,Paris Cat Jazz Club,"6 Goldie Pl, Melbourne VIC 3000, Australia",https://www.facebook.com/events/1294978658362110/,-37.8133262,144.96060714767358
ERRA,2025-03-09,12:00,Forum Melbourne,"180 Flinders St, Melbourne VIC 3000, Australia",https://premier.ticketek.com.au/shows/show.aspx?sh=ERRA25,-37.816602,144.9694678
SKY DISCO| Labour Day Weekend | Riviera Beach Club,2025-03-09,16:00,Riviera Beach Club,"42B Marine Parade Elwood, VIC 3184",https://www.eventbrite.com/e/sky-disco-labour-day-weekend-riviera-beach-club-tickets-1105158251079?aff=ebdssbdestsearch,-37.8754261,144.9750806
Miley Serious [FR] + CryBaby @ Howler,2025-03-09,00:00,Howler,"7-11 Dawson St, Brunswick VIC 3056, Australia",https://www.facebook.com/events/1267189907679948/,-37.7720304,144.9596527
[BMF 2025] Bulleke-bek Journey: The Miffs + Arabella & The Heist + Terra Rouge + Muddy Lemons,2025-03-09,00:00,Stay Gold,"133 Sydney Rd, Brunswick VIC 3056, Australia",https://www.facebook.com/events/974630060862311/,-37.7743469,144.9607404
Sculpture Workshop with Stefan Damschke,2025-03-09,13:00,Duldig Studio Museum & Sculpture Garden,"92 Burke Road East Malvern, VIC 3145",https://www.eventbrite.com.au/e/sculpture-workshop-with-stefan-damschke-tickets-940157334897?aff=ebdssbdestsearch,-37.8689721,145.0498034
SUNDAYLICIOUS | THE PRECINCT | LONG WEEKEND  |  MARCH 9 | 4pm -12am,2025-03-09,16:00,The Precinct Hotel,"60 Swan Street Cremorne, VIC 3121",https://www.eventbrite.com.au/e/sundaylicious-the-precinct-long-weekend-march-9-4pm-12am-tickets-1080126059119?aff=ebdssbdestsearch,-37.8251823,144.99139
Sound Healing in the Gardens - Rippon Lea Estate - Sound Bath with Romy,2025-03-09,09:15,Rippon Lea Estate,"192 Hotham Street Elsternwick, VIC 3185",https://www.eventbrite.com.au/e/sound-healing-in-the-gardens-rippon-lea-estate-sound-bath-with-romy-tickets-1234216267079?aff=ebdssbdestsearch,-37.8798368,144.9987066
THE MIND CODE,2025-03-09,09:00,Hammer's Gym,"244 Whitehorse Road Nunawading, VIC 3131",https://www.eventbrite.com.au/e/the-mind-code-tickets-1246756073979?aff=ebdssbdestsearch,-37.8185924,145.166304
ALL WHITE Boat Party (Labour Day Eve),2025-03-09,19:15,131 Harbour Esplanade,"131 Harbour Esplanade Docklands, VIC 3008",https://www.eventbrite.com.au/e/all-white-boat-party-labour-day-eve-tickets-1243921275019?aff=ebdssbdestsearch,-37.81707129999999,144.9453813
Racing Rant Autumn 2025 Melbourne Masterclass,2025-03-09,09:30,Betfair,"565 Bourke Street #Level 13 Melbourne, VIC 3000",https://www.eventbrite.com/e/racing-rant-autumn-2025-melbourne-masterclass-tickets-1174672800969?aff=ebdssbdestsearch,-37.8164861,144.9566241
"HANUMAN ""DANCE OF THE DEITIES"" WORKSHOP",2025-03-09,12:30,Shining Light Yoga,"2B Elm Street Northcote, VIC 3078",https://www.eventbrite.com.au/e/hanuman-dance-of-the-deities-workshop-tickets-1202806720279?aff=ebdssbdestsearch,-37.7682112,144.998879
Sunday Singles - Local Love & Laughter,2025-03-09,14:00,2 Brothers Brewery,"4 Joyner Street Moorabbin, VIC 3189",https://www.eventbrite.com.au/e/sunday-singles-local-love-laughter-tickets-1143577213229?aff=ebdssbdestsearch,-37.9426911,145.0688735
CLUB MODA MELBOURNE | LABOUR DAY EVE | 09.03.25 | CQ NIGHTCLUB,2025-03-09,21:00,CQ Melbourne,"113 Queen Street #Level 1 Melbourne, VIC 3000",https://www.eventbrite.com.au/e/club-moda-melbourne-labour-day-eve-090325-cq-nightclub-tickets-1232697985859?aff=ebdssbdestsearch,-37.8157528,144.9607103
SKY DISCO| Labour Day Weekend | Riviera Beach Club feat. INAYA DAY (NYC),2025-03-09,16:00,Riviera Beach Club,"42B Marine Parade Elwood, VIC 3184",https://www.eventbrite.com/e/sky-disco-labour-day-weekend-riviera-beach-club-feat-inaya-day-nyc-tickets-1105158251079?aff=ebdssbdestsearch,-37.8754261,144.9750806
BASS in the LANEWAY  >>  A Brunswick Music Festival Event,2025-03-09,14:00,Rubix Warehouse,"36 Phoenix Street Brunswick, VIC 3056",https://www.eventbrite.com.au/e/bass-in-the-laneway-a-brunswick-music-festival-event-tickets-1220258378659?aff=ebdssbdestsearch,-37.7697909,144.957525
Caulfield | Social Tennis Mix Single/Double  - All Level - March 9th,2025-03-09,16:00,Caulfield Park Tennis Centre,"280 Balaclava Road Caulfield North, VIC 3161",https://www.eventbrite.com.au/e/caulfield-social-tennis-mix-singledouble-all-level-march-9th-tickets-1158842401819?aff=ebdssbdestsearch,-37.8719411,145.0297196
Tales of Heroes & Villains: A Fairytale Market,2025-03-09,10:00,Coburg Town Hall,"90 Bell Street Coburg, VIC 3058",https://www.eventbrite.com.au/e/tales-of-heroes-villains-a-fairytale-market-tickets-951128931237?aff=ebdssbdestsearch,-37.7408943,144.9695726
FREE EVENT | The Right Brothers On The Outdoor Stage from 2pm,2025-03-09,00:00,arcobar heatherton,"8 Arco Ln, Heatherton VIC 3202, Australia",https://www.facebook.com/events/3121340424686437/,-37.94673685,145.07837928457485
CLUB DOLCE 1ST BIRTHDAY - LABOUR DAY EVE 2025,2025-03-09,20:30,Ms Collins,"425 Collins Street Melbourne, VIC 3000",https://www.eventbrite.com.au/e/club-dolce-1st-birthday-labour-day-eve-2025-tickets-1232485089079?aff=ebdssbdestsearch,-37.8174565,144.9606326
JTL OPEN DAY 2025,2025-03-09,09:30,The MBassy Dance,"116 Studio Lane #G22 Docklands, VIC 3008",https://www.eventbrite.com/e/jtl-open-day-2025-tickets-1249087015889?aff=ebdssbdestsearch,-37.8128394,144.9382022
"Ollie Dempsey 'The Rising Star' LIVE at Union Hotel, Ascot Vale!",2025-03-10,19:00,Union Hotel,"252 Union Road Ascot Vale, VIC 3032",https://www.eventbrite.com.au/e/ollie-dempsey-the-rising-star-live-at-union-hotel-ascot-vale-tickets-1075292602119?aff=ebdssbdestsearch,-37.7719588,144.9163478
CHAIN,2025-03-10,14:00,Way Out West Roots Music Club,"4 Market St, Newport VIC 3015, Australia",https://www.facebook.com/events/1363066398467413/,-37.8439028,144.8823845
"Social Sanctuary - Sam Bambery, Seagull, Hannah Everingham",2025-03-10,19:00,Northcote Social Club,"301 High St, Northcote VIC 3070, Australia",https://www.facebook.com/events/652035480816862/,-37.771471,144.998414
Playaz Club Grand Final Shootout,2025-03-10,00:00,Section 8,"27-29 Tattersalls Ln, Melbourne VIC 3000, Australia",https://www.facebook.com/events/1003014275075848/,-37.8117457,144.965405
Casual Underworlds at the Arena,2025-03-11,00:00,The Gaming Arena,"123 Bakers Rd, Coburg North VIC 3058, Australia",https://www.facebook.com/events/495373133657057/,-37.72715826,144.96115535488718
Ticketek Australia﻿Verified account,2025-03-11,19:00,Forum Melbourne,"154 Flinders St, Melbourne VIC 3000, Australia",https://www.facebook.com/events/560530070268016/,-37.81644145,144.9693768124984
"Hermanos Gutiérrez | Northcote Theatre, Melbourne",2025-03-11,19:00,Northcote Theatre,"216 High St, Northcote VIC 3070, Australia",https://www.facebook.com/events/923781443041556/,-37.7737068,144.9982706
"PJ Harvey - Plenary at MCEC, Melbourne ",2025-03-11,18:00,Melbourne Convention and Exhibition Centre (MCEC),"1 Convention Centre Pl, South Wharf VIC 3006, Australia",https://www.facebook.com/events/1238902004087964/,-37.82521828,144.95086360317606
Founder Connect!,2025-03-11,18:00,The Commons QV,"3 Albert Coates Lane Melbourne, VIC 3000",https://www.eventbrite.com.au/e/founder-connect-tickets-1088285845259?aff=ebdssbdestsearch,-37.8108941,144.9647753
Pain Drunk,2025-03-11,20:30,The Butterfly Club,"5 Carson Place Melbourne, VIC 3000",https://www.eventbrite.co.uk/e/pain-drunk-tickets-1080165848129?aff=ebdssbdestsearch,-37.8154472,144.9652725
Speed Networking Commercial Lenders & Brokers Melbourne,2025-03-11,09:00,Pearl Riverfront,"5 Spencer Street Docklands, VIC 3008",https://www.eventbrite.com.au/e/speed-networking-commercial-lenders-brokers-melbourne-tickets-1057776129879?aff=ebdssbdestsearch,-37.8228442,144.9549457
The Rookies Play Jazz residency at the Jazzlab,2025-03-11,00:00,The Jazz Lab,"27 Leslie St, Brunswick Melbourne, VIC, Australia, Victoria 3056",https://www.facebook.com/events/613579218087968/,-37.76677279,144.9587122
Paddy Pallin Melbourne | Women in the Outdoors,2025-03-11,18:00,Paddy Pallin,"152 Bourke Street Melbourne, VIC 3000",https://www.eventbrite.com.au/e/paddy-pallin-melbourne-women-in-the-outdoors-tickets-1245498532639?aff=ebdssbdestsearch,-37.8124467,144.9686115
Why the Next Wave of Feminism is Conservative,2025-03-11,18:00,State Library Victoria,"328 Swanston Street Melbourne, VIC 3000",https://www.eventbrite.com.au/e/why-the-next-wave-of-feminism-is-conservative-tickets-1202775256169?aff=ebdssbdestsearch,-37.8097472,144.9654858
Dennis and The Dazzling Dentistry Facility,2025-03-11,19:00,The Butterfly Club,"5 Carson Place Melbourne, VIC 3000",https://www.eventbrite.co.uk/e/dennis-and-the-dazzling-dentistry-facility-tickets-1080168155029?aff=ebdssbdestsearch,-37.8154472,144.9652725
Founder Connect with OK200!,2025-03-11,18:00,The Commons QV,"3 Albert Coates Lane Melbourne, VIC 3000",https://www.eventbrite.com.au/e/founder-connect-with-ok200-tickets-1088285845259?aff=ebdssbdestsearch,-37.8108941,144.9647753
Brava  Women Networking IN PERSON March 11th 2025 - Brighton,2025-03-11,13:00,The Deck  Brighton,"212 Bay Street Brighton, VIC 3186",https://www.eventbrite.com.au/e/brava-women-networking-in-person-march-11th-2025-brighton-tickets-1109391733539?aff=ebdssbdestsearch,-37.9052818,144.999296
Melbourne International Women's Day Breakfast,2025-03-11,08:00,The Hotel Windsor,"111 Spring Street Melbourne, VIC 3000",https://www.eventbrite.com.au/e/melbourne-international-womens-day-breakfast-tickets-1114644093489?aff=ebdssbdestsearch,-37.811944,144.972778
A Night with Chris Allison & Zildjian Alchem-e,2025-03-11,19:00,Sky Music,"2181 Princes Highway #4 Clayton, VIC 3168",https://www.eventbrite.com.au/e/a-night-with-chris-allison-zildjian-alchem-e-tickets-1246859312769?aff=ebdssbdestsearch,-37.9249722,145.1452972
Kasabian,2025-03-11,12:00,Forum Melbourne,"150 Flinders St, Melbourne VIC 3000, Australia",https://premier.ticketek.com.au/shows/show.aspx?sh=KASAB25,-37.8166268,144.9695761
Cigarettes After Sex,2025-03-11,12:00,Rod Laver Arena,"200 Batman Ave, Melbourne VIC 3000, Australia",https://premier.ticketek.com.au/shows/show.aspx?sh=CAFTERS24,-37.8216161,144.9785584
Destroy All Lines﻿Verified account,2025-03-12,19:00,Howler,"7-11 Dawson St, Brunswick VIC 3056, Australia",https://www.facebook.com/events/943125117884927/,-37.7720304,144.9596527
Online Board  Chair Training -  Melbourne -  March 2025,2025-03-12,18:00,Melbourne,"Online Melbourne, VIC 3000",https://www.eventbrite.com.au/e/online-board-chair-training-melbourne-march-2025-registration-1082636136829?aff=ebdssbdestsearch,-37.8152065,144.963937
F*CK LONELINESS: A Night Out with New Friends - Melbourne,2025-03-12,19:00,Melbourne,"Melbourne Melbourne, VIC 3000",https://www.eventbrite.com/e/fck-loneliness-a-night-out-with-new-friends-melbourne-tickets-1243057170459?aff=ebdssbdestsearch,-37.8152065,144.963937
Building Resilience and Productivity - Virtual Learning Bite 2025,2025-03-12,12:00,Melbourne,"Melbourne Melbourne, VIC 3000",https://www.eventbrite.com.au/e/building-resilience-and-productivity-virtual-learning-bite-2025-tickets-1077142023789?aff=ebdssbdestsearch,-37.8152065,144.963937
✨Compatible Speed Dating | Ages 22-32  | Melbourne CBD✨,2025-03-12,19:00,Fable Melbourne,"168 Lonsdale Street Level 13 Melbourne, VIC 3000",https://www.eventbrite.com.au/e/compatible-speed-dating-ages-22-32-melbourne-cbd-tickets-1251130889169?aff=ebdssbdestsearch,-37.8105688,144.967374
2025 Australian Accounting Hall of Fame Awards,2025-03-12,18:00,University House,"53 Professors Walk Parkville, VIC 3052",https://www.eventbrite.com.au/e/2025-australian-accounting-hall-of-fame-awards-registration-1109686695779?aff=ebdssbdestsearch,-37.796379,144.960147
FaithTech Melbourne Launch Event,2025-03-12,06:30,St Columbs Anglican Church,"5 Saint Columbs Street Hawthorn, VIC 3122",https://www.eventbrite.com/e/faithtech-melbourne-launch-event-tickets-1096925346239?aff=ebdssbdestsearch,-37.8234863,145.0394759
Time Management Training Course (Melbourne),2025-03-12,09:00,Karstens Melbourne,"123 Queen St, Melbourne VIC 3000, Australia 123 Queen Street Melbourne, VIC 3000",https://www.eventbrite.com.au/e/time-management-training-course-melbourne-tickets-1112144587399?aff=ebdssbdestsearch,-37.815914,144.9608628
Giving Employee Feedback With Precision (Melbourne),2025-03-12,09:00,Karstens Melbourne,"123 Queen St, Melbourne VIC 3000, Australia 123 Queen Street Melbourne, VIC 3000",https://www.eventbrite.com.au/e/giving-employee-feedback-with-precision-melbourne-tickets-1116112776359?aff=ebdssbdestsearch,-37.815914,144.9608628
10th International Conference on Information and Network Technologies ICINT,2025-03-12,09:00,墨尔本,"墨尔本 墨尔本, VIC",https://www.eventbrite.com/e/10th-international-conference-on-information-and-network-technologies-icint-tickets-945467357317?aff=ebdssbdestsearch,-37.8136276,144.9630576
Developing High Performing Teams Workshop (Melbourne),2025-03-12,09:00,Karstens Melbourne,"123 Queen St, Melbourne VIC 3000, Australia 123 Queen Street Melbourne, VIC 3000",https://www.eventbrite.com.au/e/developing-high-performing-teams-workshop-melbourne-tickets-1116129656849?aff=ebdssbdestsearch,-37.815914,144.9608628
Melbourne CBD Speed Dating for ages 25-39 by Cheeky Events Australia,2025-03-12,19:00,Hophaus Bar,"3 Southgate Avenue Southbank Melbourne, VIC 3006",https://www.eventbrite.com.au/e/melbourne-cbd-speed-dating-for-ages-25-39-by-cheeky-events-australia-tickets-1200326221039?aff=ebdssbdestsearch,-37.820556,144.965833
Decanting the Rhône: A Mjølner Pairing Melbourne March 12th 2025 6.30pm,2025-03-12,06:30,Mjølner,"106 Hardware Street Melbourne, VIC 3000",https://www.eventbrite.com.au/e/decanting-the-rhone-a-mjlner-pairing-melbourne-march-12th-2025-630pm-tickets-1115045614449?aff=ebdssbdestsearch,-37.8122116,144.9607306
Bird's Basement﻿Verified account,2025-03-12,18:00,Bird's Basement,"11 Singers Ln, Melbourne VIC 3000, Australia",https://www.facebook.com/events/1097950098434913/,-37.81114416,144.95680390283175
MUIREANN BRADLEY & JON MUQ - MELBOURNE,2025-03-12,19:30,The Thornbury Theatre,"859 High St, Thornbury VIC 3071, Australia",https://www.facebook.com/events/1073560874228279/,-37.754662,145.0011167
𝐏𝐚𝐥𝐥𝐛𝐞𝐚𝐫𝐞𝐫 𝐀𝐮𝐬𝐭𝐫𝐚𝐥𝐢𝐚𝐧 𝐓𝐨𝐮𝐫 𝐖𝐢𝐭𝐡 𝐂𝐨𝐧𝐚𝐧 // 𝐌𝐞𝐥𝐛𝐨𝐮𝐫𝐧𝐞,2025-03-12,19:00,Max Watts,"125 Swanston St, Melbourne VIC 3000, Australia",https://www.facebook.com/events/1599069780697996/,-37.8147557,144.9659879
"Gwyn Ashton (UK/AU) at The Retreat Hotel, Melbourne AU",2025-03-12,19:30,Retreat Hotel,"Level 1/280 Sydney Rd, Brunswick VIC 3056, Australia",https://www.facebook.com/events/1136400874503128/,-37.7711487,144.9615949
"O. | The Curtin, Melbourne",2025-03-12,19:00,THE CURTIN (John Curtin hotel),"29 Lygon St, Carlton VIC 3053, Australia",https://www.facebook.com/events/514026437792706/,-37.8061581,144.9657057
Jimmy Webb﻿Verified account,2025-03-12,20:00,Palais Theatre,"Lower Esplanade, St Kilda VIC 3182, Australia",https://www.facebook.com/events/992128602933040/,-37.86708671,144.97599656199426
Destroy All Lines﻿Verified account,2025-03-12,00:00,Stay Gold,"133 Sydney Rd, Brunswick VIC 3056, Australia",https://www.facebook.com/events/3821019201542569/,-37.7743469,144.9607404
Open Mic Night ,2025-03-12,00:00,Bergy Bandroom,"64 Sydney Rd, Brunswick VIC 3056, Australia",https://www.facebook.com/events/1811293616367922/,-37.776327,144.9607158
BAREFOOT BOWLS CLUB & DE PORSAL ,2025-03-12,19:00,The Last Chance,"238 Victoria St, Melbourne VIC 3000, Australia",https://www.facebook.com/events/596997103110251/,-37.8059962,144.9585654
"(Wed, Mar 12) DEAN OWENS & THE SINNERS (SCO)",2025-03-12,00:00,George Lane St Kilda,"1 George Ln, St Kilda VIC 3182, Australia",https://www.facebook.com/events/586155934200170/,-37.85997305,144.9780306
David Francey﻿Verified account,2025-03-12,18:30,Brunswick Ballroom,"314 Sydney Rd, Brunswick VIC 3056, Australia",https://www.facebook.com/events/3854608111484928/,-37.7704205,144.9617083
MELBOURNE SPEED DATING FOR AGES 25-39,2025-03-13,19:00,Lona St Kilda,"66 Acland Street St Kilda Melbourne, VIC 3182",https://www.eventbrite.com.au/e/melbourne-speed-dating-for-ages-25-39-tickets-1208112941329?aff=ebdssbdestsearch,-37.8667192,144.9782504
Goran Bregovic & His Wedding & Funeral Band,2025-03-13,12:00,Hamer Hall,"100 St Kilda Rd, Southbank VIC 3004, Australia",https://premier.ticketek.com.au/shows/show.aspx?sh=BREGOVIC25,-37.8201455,144.9679946
Melbourne Lesbian Singles Night | MyCheekyGayDate | Lesbian Speed Dating,2025-03-13,19:00,The Metropolitan Hotel,"265 William Street Melbourne, VIC 3000",https://www.eventbrite.com/e/melbourne-lesbian-singles-night-mycheekygaydate-lesbian-speed-dating-tickets-1224864335199?aff=ebdssbdestsearch,-37.812902,144.9566615
ATOM PL 2025: Practical Media 101 for Beginners,2025-03-13,09:30,SAE Creative Media Institute Melbourne,"235 Normanby Road South Melbourne, VIC 3205",https://www.eventbrite.com.au/e/atom-pl-2025-practical-media-101-for-beginners-tickets-1095116235139?aff=ebdssbdestsearch,-37.8298676,144.9480224
SEASON LAUNCH PARTY: RMIT CHEER AND DANCE,2025-03-13,20:00,La Di Da,"577 Little Bourke Street Melbourne, VIC 3000",https://www.eventbrite.com.au/e/season-launch-party-rmit-cheer-and-dance-tickets-1252678447959?aff=ebdssbdestsearch,-37.8153739,144.955644
Responding to Disclosures of Sexual Assault Workshop,2025-03-13,09:30,"Level 5 Millarri Murnmut, 210 Lonsdale Street, Melbourne, VIC 3000","210 Lonsdale Street Melbourne, VIC 3000",https://www.eventbrite.com.au/e/responding-to-disclosures-of-sexual-assault-workshop-tickets-1008968119807?aff=ebdssbdestsearch,-37.8108823,144.9657655
How to Build a Website to Grow Your Business,2025-03-13,18:00,iHarvest Coworking Sunshine,"301 Hampshire Road #Level 4 Sunshine, VIC 3020",https://www.eventbrite.com.au/e/how-to-build-a-website-to-grow-your-business-tickets-1138521230649?aff=ebdssbdestsearch,-37.783111,144.8321327
Melbourne Zoo Wildlife Photography Course-Wildlife Photography Course,2025-03-13,10:30,Melbourne Zoo,"Elliott Ave Parkville, VIC 3052",https://www.eventbrite.com.au/e/melbourne-zoo-wildlife-photography-course-wildlife-photography-course-tickets-1099453337529?aff=ebdssbdestsearch,-37.7884387,144.9493645
Yunior Terry,2025-03-13,00:00,The Jazz Lab,"27 Leslie St, Brunswick Melbourne, VIC, Australia, Victoria 3056",https://www.facebook.com/events/1331240501246315/,-37.76677279,144.9587122
"(Thu, Mar 13) ADDiCTED (Music, Mime, Dance)",2025-03-13,00:00,George Lane St Kilda,"1 George Ln, St Kilda VIC 3182, Australia",https://www.facebook.com/events/1125833198934068/,-37.85997305,144.9780306
"A night with Guenther Steiner, Q&A plus Buffalo Trace Antiques Whiskey",2025-03-13,00:00,Beneath Driver Lane,"Shop/3 Little Bourke St, Melbourne VIC 3000, Australia",https://www.facebook.com/events/1141707853899454/,-37.81355072,144.96171479034044
John Grant + Luluc,2025-03-13,19:30,Melbourne Recital Centre,"31 Sturt St, Southbank VIC 3006, Australia",https://www.facebook.com/events/3936364933308794/,-37.82408485,144.96758763141432
Flow Motion ~ INTERNATIONAL WOMEN'S DAY,2025-03-13,19:00,Kindred Bandroom,"3 Harris St, Footscray VIC 3011, Australia",https://www.facebook.com/events/643773855010023/,-37.8119001,144.9008247
Oscar Ladell Band - Thursday Night Jam!,2025-03-13,00:00,Hume Blues Club Inc,"27 Ballantyne St, Thornbury VIC 3071, Australia",https://www.facebook.com/events/1160981799070631/,-37.7588241,144.9985126
The Old Bar﻿Verified account,2025-03-13,19:30,The Old Bar,"74-76 Johnston St, Fitzroy VIC 3065, Australia",https://www.facebook.com/events/1180380107079775/,-37.79833,144.97711
"Mindstain, Hand Grenade Hearts, Chloe Booth & Happy Medium @ LAST CHANCE",2025-03-13,19:00,The Last Chance,"238 Victoria St, Melbourne VIC 3000, Australia",https://www.facebook.com/events/1590660761615733/,-37.8059962,144.9585654
Royal Botanic Gardens Victoria﻿Verified account,2025-03-13,00:00,Botanic gardens,"Birdwood Ave Melbourne VIC 3004, Australia",https://www.facebook.com/events/1123613539082093/,-37.82683271,144.97238679810675
Bird's Basement﻿Verified account,2025-03-13,18:00,Bird's Basement,"11 Singers Ln, Melbourne VIC 3000, Australia",https://www.facebook.com/events/885828610206594/,-37.81114416,144.95680390283175
Sammy White at Lulie Tavern with Hey Gringo ,2025-03-13,20:00,Lulie Tavern,"225 Johnston St, Abbotsford VIC 3067, Australia",https://www.facebook.com/events/684220887279715/,-37.8000264,144.9936498
The Italian Boat Cruise Night | Victoria Star Cruises,2025-03-14,07:30,131 Harbour Esplanade,"131 Harbour Esplanade Docklands, VIC 3008",https://www.eventbrite.com.au/e/the-italian-boat-cruise-night-victoria-star-cruises-tickets-1236708922679?aff=ebdssbdestsearch,-37.81707129999999,144.9453813
Cinema Nova﻿Verified account,2025-03-14,18:30,Cinema Nova,"380 Lygon St, Carlton VIC 3053, Australia",https://www.facebook.com/events/621396327281919/,-37.7978092,144.9680124
Grace Knight @ The Jazzlab,2025-03-14,19:30,The Jazz Lab,"27 Leslie St, Brunswick Melbourne, VIC, Australia, Victoria 3056",https://www.facebook.com/events/1280683719734512/,-37.76677279,144.9587122
Melbourne Bar Crawl  TRAFFIC LIGHT BAR CRAWL,2025-03-14,00:00,On The Rocks Bar Crawl Melbourne,"The Joint, 35 Elizabeth St, Melbourne VIC 3000, Australia",https://www.facebook.com/events/864554152393282/,-37.8172989,144.9643996
DJ Fuckoff (DE) — Transenergy & Revolver Fridays,2025-03-14,22:00,Revolver Upstairs,"Level 2/229 Chapel St, Prahran VIC 3181, Australia",https://www.facebook.com/events/530246880108932/,-37.8505902,144.9933469
Soothsayer presents: Shanti Celeste,2025-03-14,22:00,Sub Club Melbourne,"Flinders Ct, Melbourne VIC 3000, Australia",https://www.facebook.com/events/613800731610484/,-37.81776587,144.96433104920948
Ups and Downs 40th Anniversary Show - Brisbane,2025-03-14,20:00,The Flying Saucer Club,"979-985 Nepean Hwy, Moorabbin VIC 3189, Australia",https://www.facebook.com/events/1018478273378081/,-37.9369432,145.0373674
Bebe's Bar - MAD AZZ,2025-03-14,00:00,Musicland Melbourne,"1359 Sydney Rd, Fawkner VIC 3060, Australia",https://www.facebook.com/events/614955964451125/,-37.6916774,144.9585701581541
RAT PACK - St Patrick's Day Pre Party,2025-03-14,00:00,Musicland Melbourne,"1359 Sydney Rd, Fawkner VIC 3060, Australia",https://www.facebook.com/events/1709603406575818/,-37.6916774,144.9585701581541
Alchemy | Starlight: The Open Air Trance & Progressive Rooftop Boat Party,2025-03-14,19:30,Party Boat Cruises,"131 Harbour Esplanade Docklands, VIC 3008",https://www.eventbrite.com.au/e/alchemy-starlight-the-open-air-trance-progressive-rooftop-boat-party-tickets-1098277661049?aff=ebdssbdestsearch,-37.81707129999999,144.9453813
Luna's Dark Secret 14th March 2025,2025-03-14,00:00,Bad Decisions Bar,"46 Johnston St, Fitzroy VIC 3065, Australia",https://www.facebook.com/events/634152695776258/,-37.798246,144.9762881
Dan Sultan﻿Verified account,2025-03-14,19:00,Forum Melbourne,"154 Flinders St, Melbourne VIC 3000, Australia",https://www.facebook.com/events/946646144010472/,-37.81644145,144.9693768124984
ALPA & Uncle B at BAR 303,2025-03-14,00:00,Bar 303,"303 High St, Northcote VIC 3070, Australia",https://www.facebook.com/events/2080072899106757/,-37.7713296,144.99828116650363
Charlotte Ekkel // Double Single Launch at The Merri Creek Tavern,2025-03-14,20:30,The Merri Creek Tavern,"111 High St, Northcote VIC 3070, Australia",https://www.facebook.com/events/680018364360630/,-37.7794356,144.996838
Lazy Dingo @ The Workers Club,2025-03-14,19:00,The Workers Club,"51 Brunswick St, Fitzroy VIC 3065, Australia",https://www.facebook.com/events/642569204953503/,-37.8055776,144.9769450659087
"(Fri, Mar 14) BLUE SABBATH",2025-03-14,00:00,George Lane St Kilda,"1 George Ln, St Kilda VIC 3182, Australia",https://www.facebook.com/events/3998754160371084/,-37.85997305,144.9780306
ALEXISONFIRE with Underoath,2025-03-14,18:00,Festival Hall,"300 Dudley St, West Melbourne VIC 3003, Australia",https://www.facebook.com/events/1229771274745100/,-37.8098193,144.9508057
"Mel Searle - An Ella Fitzgerald Tribute, feat. Ella & Louis Duets",2025-03-14,00:00,Paris Cat Jazz Club,"6 Goldie Pl, Melbourne VIC 3000, Australia",https://www.facebook.com/events/473237582316878/,-37.8133262,144.96060714767358
Confetti Western // ♞♞ RIDES AGAIN ♞♞ // with Jacqui Lumsden & Sansonus,2025-03-14,00:00,The Last Chance,"238 Victoria St, Melbourne VIC 3000, Australia",https://www.facebook.com/events/1583467929022339/,-37.8059962,144.9585654
"LUNAR ECLIPSE: Sound Immersion & Guided Meditation (Moorabbin, Vic)",2025-03-14,19:00,Southern Yoga and Health Centre,"24 Station Street Moorabbin, VIC 3189",https://www.eventbrite.com.au/e/lunar-eclipse-sound-immersion-guided-meditation-moorabbin-vic-tickets-1141920447799?aff=ebdssbdestsearch,-37.9344228,145.037409
RONNIEFEST - FALLING IN REVERSE UNOFFICIAL AFTERPARTY - MELBOURNE,2025-03-14,22:00,Ballers Clubhouse,"2 Coverlid Place Melbourne, VIC 3000",https://www.eventbrite.com.au/e/ronniefest-falling-in-reverse-unofficial-afterparty-melbourne-tickets-1097810935059?aff=ebdssbdestsearch,-37.812117,144.9685963
An Unforgettable Evening with Sir Jackie Stewart,2025-03-14,18:30,"The Ritz-Carlton, Melbourne","650 Lonsdale Street Melbourne, VIC 3000",https://www.eventbrite.com.au/e/an-unforgettable-evening-with-sir-jackie-stewart-tickets-1113485197199?aff=ebdssbdestsearch,-37.8146551,144.9526747
Memo Music Hall﻿Verified account,2025-03-14,19:00,MEMO Music Hall,"88 Acland St, St Kilda VIC 3182, Australia",https://www.facebook.com/events/1146560133732875/,-37.8671902,144.9786817
HOLI FEST - Bollywood Party,2025-03-14,00:00,Laundry Bar,"50 Johnston St, Fitzroy VIC 3065, Australia",https://www.facebook.com/events/917296480239327/,-37.7983139,144.9764962
Mia June ‘Brain Like Computer’ EP Launch,2025-03-14,20:00,Retreat Hotel,"Level 1/280 Sydney Rd, Brunswick VIC 3056, Australia",https://www.facebook.com/events/1885764492233352/,-37.7711487,144.9615949
Lucky 13 Garage﻿Verified account,2025-03-14,20:00,Lucky 13 Garage,"8 Cochranes Rd, Moorabbin VIC 3189, Australia",https://www.facebook.com/events/957759062526770/,-37.94349189,145.07036236060654
Mia June 'Brain Like Computer' EP Launch,2025-03-14,19:30,280 Sydney Rd,"280 Sydney Road Brunswick, VIC 3056",https://www.eventbrite.com.au/e/mia-june-brain-like-computer-ep-launch-tickets-1250818735509?aff=ebdssbdestsearch,-37.7711488,144.9616353
AAOM Presents Functional Orofacial  Myofunctional Therapy - Melbourne 2025,2025-03-14,08:00,Hub Flinders Street,"180 Flinders Street #Level 7 Melbourne, VIC 3000",https://www.eventbrite.com/e/aaom-presents-functional-orofacial-myofunctional-therapy-melbourne-2025-tickets-1086508790039?aff=ebdssbdestsearch,-37.81661,144.968809
Los Parceros Duo- Ten Years Parceriando,2025-03-14,20:00,The Thornbury Local,"635 High St, Thornbury VIC 3071, Australia",https://www.facebook.com/events/1699462720982987/,-37.76165125,144.99987967655426
Absolute 80's Smash Hits Live-Uncanny Xmen-Kids in the Kitchen-Wa Wa Nee,2025-03-14,18:00,Olympic Hotel,"31 Albert Street Preston, VIC 3072",https://www.eventbrite.com.au/e/absolute-80s-smash-hits-live-uncanny-xmen-kids-in-the-kitchen-wa-wa-nee-tickets-1118305514899?aff=ebdssbdestsearch,-37.7465792,145.021604
Rounded Leather Dog Collar,2025-03-14,10:00,Leffler Leather,"171 Kensington Road West Melbourne, VIC 3003",https://www.eventbrite.com.au/e/rounded-leather-dog-collar-tickets-1116235904639?aff=ebdssbdestsearch,-37.8000316,144.9177826
Twitch DJs Presents Trancemission - 14.03.2025 @ Laundry Bar,2025-03-14,20:00,Laundry Bar,"50 Johnston Street Fitzroy, VIC 3065",https://www.eventbrite.com.au/e/twitch-djs-presents-trancemission-14032025-laundry-bar-tickets-1234141052109?aff=ebdssbdestsearch,-37.79831,144.976368
Mother Tongue Poetry Melbourne: MARCH 2025 : Left Write Hook,2025-03-14,07:30,St Andrews Alphington / Fairfield Uniting Church,"87 Gillies Street Fairfield, VIC 3078",https://www.eventbrite.com.au/e/mother-tongue-poetry-melbourne-march-2025-left-write-hook-tickets-1213294840529?aff=ebdssbdestsearch,-37.776972,145.017551
Friday Night Dance Club March event,2025-03-14,19:00,Studio Take Care,"1 Pitt Street Brunswick, VIC 3056",https://www.eventbrite.com.au/e/friday-night-dance-club-march-event-tickets-1244112035589?aff=ebdssbdestsearch,-37.7711984,144.9711714
Svenson Barristers Workplace Law CPD Day,2025-03-14,08:30,RACV City Club,"501 Bourke Street Melbourne, VIC 3000",https://www.eventbrite.com.au/e/svenson-barristers-workplace-law-cpd-day-tickets-1203972065859?aff=ebdssbdestsearch,-37.8154838,144.9594302
Nancy and The Jam Fancys,2025-03-14,19:00,Stay Gold,"133 Sydney Road Brunswick, VIC 3056",https://www.eventbrite.com.au/e/nancy-and-the-jam-fancys-tickets-1218632816559?aff=ebdssbdestsearch,-37.7743822,144.9606172
INXSIVE - The Ultimate INXS Tribute Show!,2025-03-14,21:00,Missing Gorilla,"70 Commercial Place #1 Eltham, VIC 3095",https://www.eventbrite.com.au/e/inxsive-the-ultimate-inxs-tribute-show-tickets-1076233867469?aff=ebdssbdestsearch,-37.7127434,145.1494258
Conscious Connection | Games Night (ages 35+),2025-03-14,06:30,The Tipsy Cow - Cocktail Tapas Bar & Beer Garden,"359 Bay Street Port Melbourne, VIC 3207",https://www.eventbrite.com.au/e/conscious-connection-games-night-ages-35-tickets-1218726185829?aff=ebdssbdestsearch,-37.8352881,144.9450549
Falling In Reverse,2025-03-14,12:00,Rod Laver Arena,"200 Batman Ave, Melbourne VIC 3000, Australia",https://premier.ticketek.com.au/shows/show.aspx?sh=FALLINGI25,-37.8216161,144.9785584
Mentor Walks Melbourne: Get guidance and grow your network,2025-03-14,07:10,"Under King Edward VII Monument (behind the floral clock), Queen Victoria Gardens","Saint Kilda Road Melbourne, VIC 3004",https://www.eventbrite.com.au/e/mentor-walks-melbourne-get-guidance-and-grow-your-network-tickets-1115332021099?aff=ebdssbdestsearch,-37.8371405,144.9756536
候场喜剧-王越专场“请回答！一米五八”,2025-03-14,19:30,Science Gallery Melbourne,"114 Grattan Street #at Parkville, VIC 3052",https://www.eventbrite.com/e/1091914749409?aff=ebdssbdestsearch,-37.800289,144.9647496
ALPA and Uncle B at Bar 303,2025-03-14,18:00,303 High St,"303 High Street Northcote, VIC 3070",https://www.eventbrite.com.au/e/alpa-and-uncle-b-at-bar-303-tickets-1235457238859?aff=ebdssbdestsearch,-37.7713256,144.9982378
Nowruz Party 2025 by Kelly Khanum & Habib,2025-03-14,20:00,The Promenade Docklands,"78 Newquay Promenade #Suite 2, Level 1 Docklands, VIC 3008",https://www.eventbrite.com.au/e/nowruz-party-2025-by-kelly-khanum-habib-tickets-1244255875819?aff=ebdssbdestsearch,-37.8145014,144.9392306
The Old Bar﻿Verified account,2025-03-14,20:00,The Old Bar,"74-76 Johnston St, Fitzroy VIC 3065, Australia",https://www.facebook.com/events/2150943342028440/,-37.79833,144.97711
Laurel﻿Verified account,2025-03-14,19:30,The Night Cat,"137-141 Johnston St, Fitzroy VIC 3065, Australia",https://www.facebook.com/events/3878331195716637/,-37.7982971,144.978128
Dan Sultan,2025-03-14,12:00,Forum Melbourne,"150 Flinders St, Melbourne VIC 3000, Australia",https://premier.ticketek.com.au/shows/show.aspx?sh=DANSUL25,-37.8166268,144.9695761
Play with Clay | Melbourne Clay and Sip Class,2025-03-14,18:45,Paint for Fun's Studios,"252 Graham Street Port Melbourne, VIC 3207",https://www.eventbrite.com.au/e/play-with-clay-melbourne-clay-and-sip-class-tickets-1142077668049?aff=ebdssbdestsearch,-37.8386778,144.9385789
Bird's Basement﻿Verified account,2025-03-14,18:00,Bird's Basement,"11 Singers Ln, Melbourne VIC 3000, Australia",https://www.facebook.com/events/2943264602503298/,-37.81114416,144.95680390283175
arcane feat. CCL [EXTENDED SET] + MERVE,2025-03-15,22:00,Sub Club Melbourne,"Flinders Court Melbourne, VIC 3000",https://www.eventbrite.com.au/e/arcane-feat-ccl-extended-set-merve-tickets-1224578951609?aff=ebdssbdestsearch,-37.8179755,144.9644539
BEN SWISSA - HUSH EP Tour - Adelaide AU,2025-03-15,19:00,TBC,"TBC Adelaide, SA 5000",https://www.eventbrite.com.au/e/ben-swissa-hush-ep-tour-adelaide-au-tickets-1243113468849?aff=ebdssbdestsearch,-34.9328294,138.6038129
Latin Obsession - Bachata & Salsa at The Space + Zouk room Sat 15th Mar,2025-03-15,19:00,The Space Dance & Arts Centre,"318 Chapel Street Prahran, VIC 3181",https://www.eventbrite.com.au/e/latin-obsession-bachata-salsa-at-the-space-zouk-room-sat-15th-mar-tickets-1219868101329?aff=ebdssbdestsearch,-37.847686,144.994213
Tantra Level 1 and 2 Training,2025-03-15,10:00,Vine & Branches Personal Growth Centre Inc.,"27 Bonds Road Lower Plenty, VIC 3093",https://www.eventbrite.com.au/e/tantra-level-1-and-2-training-tickets-1115940561259?aff=ebdssbdestsearch,-37.7512457,145.1126917
Copy of Cheese 101: Behind the Rind - MARCH 2025,2025-03-15,14:00,Maker and Monger,"163 Commercial Road #Stall 98 South Yarra, VIC 3141",https://www.eventbrite.com.au/e/copy-of-cheese-101-behind-the-rind-march-2025-tickets-1146638128509?aff=ebdssbdestsearch,-37.8460264,144.992686
SHE WILL RISE,2025-03-15,09:45,Studio on Hampton,"564 Hampton Street Hampton, VIC 3188",https://www.eventbrite.com/e/she-will-rise-tickets-1243770153009?aff=ebdssbdestsearch,-37.931858,145.003739
"Featuring live ""RAT PACK"" exclusive Singles Over 40 events \ Pre-dinner",2025-03-15,17:30,Sandbelt Club Hotel,"630 South Road Moorabbin, VIC 3189",https://www.eventbrite.com.au/e/featuring-live-rat-pack-exclusive-singles-over-40-events-pre-dinner-tickets-1121103754509?aff=ebdssbdestsearch,-37.9397775,145.069408
The Comedy & Jollof Affair,2025-03-15,07:30,Edziban West African Bar & Bistro,"307 Racecourse Road Kensington, VIC 3031",https://www.eventbrite.com.au/e/the-comedy-jollof-affair-tickets-1234677627019?aff=ebdssbdestsearch,-37.7885096,144.9307192
COST OF LIVING EMO NIGHT $5 TIX & DRINKS MELBOURNE,2025-03-15,20:00,Deluxe Bar,"595 Mount Alexander Road Moonee Ponds, VIC 3039",https://www.eventbrite.com/e/cost-of-living-emo-night-5-tix-drinks-melbourne-tickets-1109934707589?aff=ebdssbdestsearch,-37.768313,144.925046
Animeverse Art Workshop,2025-03-15,14:30,Studio Take Care,"1 Pitt Street Brunswick, VIC 3056",https://www.eventbrite.com.au/e/animeverse-art-workshop-tickets-1209410572579?aff=ebdssbdestsearch,-37.7711984,144.9711714
Roccella Pizza Masterclass | Learn pizza secrets from the best | March 15,2025-03-15,11:00,Roccella,"158 Clarendon Street East Melbourne, VIC 3002",https://www.eventbrite.com.au/e/roccella-pizza-masterclass-learn-pizza-secrets-from-the-best-march-15-tickets-1145135794989?aff=ebdssbdestsearch,-37.8119728,144.9835404
Women's Group,2025-03-15,10:00,Brunswick,"Brunswick Brunswick, VIC 3056",https://www.eventbrite.com.au/e/womens-group-registration-1119479606639?aff=ebdssbdestsearch,-37.7666099,144.9584302
Soulmate Speed Dating,2025-03-15,15:00,Studio Take Care,"1 Pitt Street Brunswick, VIC 3056",https://www.eventbrite.com.au/e/soulmate-speed-dating-tickets-1232565539709?aff=ebdssbdestsearch,-37.7711984,144.9711714
VIVA LA VIDA,2025-03-15,20:00,Manningham Hotel & Club,"1 Thompsons Road Bulleen, VIC 3105",https://www.eventbrite.com.au/e/viva-la-vida-tickets-1238330492839?aff=ebdssbdestsearch,-37.7773733,145.0815255
Lamb Masterclass with Gary McBean - 15/03,2025-03-15,14:00,G.McBean Family Butcher,"163 Commercial Road #Stall 515 South Yarra, VIC 3141",https://www.eventbrite.com/e/lamb-masterclass-with-gary-mcbean-1503-tickets-1027695002417?aff=ebdssbdestsearch,-37.8460286,144.9925856
Chunk #22 | Official Chillout Melbourne Afterparty | 15.03.25,2025-03-15,21:00,24 Moons,"2 Arthurton Road Northcote, VIC 3070",https://www.eventbrite.com.au/e/chunk-22-official-chillout-melbourne-afterparty-150325-tickets-1248045791559?aff=ebdssbdestsearch,-37.769148,144.9982808
候场喜剧-王越专场“请回答！一米五八”加场,2025-03-15,19:30,Library at The Dock,"107 Victoria Harbour Promenade Docklands, VIC 3008",https://www.eventbrite.com/e/1243061122279?aff=ebdssbdestsearch,-37.8200128,144.9404861
Xclusive  The Show | By MenXclusive Melbourne 15 March,2025-03-15,19:00,Platform One,"375 Flinders Street Melbourne, VIC 3000",https://www.eventbrite.com.au/e/xclusive-the-show-by-menxclusive-melbourne-15-march-tickets-1075258269429?aff=ebdssbdestsearch,-37.8191789,144.9621961
MSA Trips: Peninsula Day Trip,2025-03-15,10:00,Robert Blackwood Hall,"49 Scenic Boulevard Monash University, VIC 3800",https://www.eventbrite.com.au/e/msa-trips-peninsula-day-trip-tickets-1157663204809?aff=ebdssbdestsearch,-37.9127953,145.1352488
Wristwatch Check,2025-03-15,18:00,Fox Classic Car Collection,"749-755 Collins Street Docklands, VIC 3008",https://www.eventbrite.com.au/e/wristwatch-check-tickets-1100949332089?aff=ebdssbdestsearch,-37.821226,144.9488042
TRIVIA NIGHT FUNDRAISER FOR BCNA,2025-03-15,18:30,3/153-155 Rooks Rd,"153-155 Rooks Road #3 Vermont, VIC 3133",https://www.eventbrite.com/e/trivia-night-fundraiser-for-bcna-tickets-1238394002799?aff=ebdssbdestsearch,-37.8323107,145.1879492
Introduction to feet reflexology 2,2025-03-15,21:30,St Joseph's,"16 Esplanade Williamstown, VIC 3016",https://www.eventbrite.com.au/e/introduction-to-feet-reflexology-2-tickets-1123436521879?aff=ebdssbdestsearch,-37.869719,144.8987936
Strength Within - Building Confidence Through Wellness,2025-03-15,09:00,Studio 149,"149 Charman Road Beaumaris, VIC 3193",https://www.eventbrite.com.au/e/strength-within-building-confidence-through-wellness-tickets-1201993427699?aff=ebdssbdestsearch,-37.9762002,145.0533479
MELBOURNE - COST OF LIVING EMO NIGHT $5 TIX & DRINKS - MARCH 2025,2025-03-15,20:00,Deluxe Bar,"595 Mount Alexander Road Moonee Ponds, VIC 3039",https://www.eventbrite.com.au/e/melbourne-cost-of-living-emo-night-5-tix-drinks-march-2025-tickets-1109934707589?aff=ebdssbdestsearch,-37.768313,144.925046
ONE PIECE - OP-10 Pre-Release - Gameology CLAYTON SOUTH - 15/03/2025,2025-03-15,14:00,Gameology,"12 Eileen Road Clayton South, VIC 3169",https://www.eventbrite.com.au/e/one-piece-op-10-pre-release-gameology-clayton-south-15032025-tickets-1236836313709?aff=ebdssbdestsearch,-37.9512104,145.1347381
Fighting Arts of South East Asia - Silat & Eskrima,2025-03-15,10:00,Semeru - Movement and Martial Arts Academy / Silat,"11 Friars Road #10 Moorabbin, VIC 3189",https://www.eventbrite.com.au/e/fighting-arts-of-south-east-asia-silat-eskrima-tickets-1047451023207?aff=ebdssbdestsearch,-37.9454395,145.0624963
WALK WITH PURPOSE: MONTHLY SERIES: March is Bloom With Confidence!,2025-03-15,09:00,Bedggood & Co.,"137 Wellington Parade South East Melbourne, VIC 3002",https://www.eventbrite.com.au/e/walk-with-purpose-monthly-series-march-is-bloom-with-confidence-tickets-1129995620319?aff=ebdssbdestsearch,-37.8167784,144.9799796
Meditation and Mindset Workshop - Melbourne - 15 and 16 March 2025,2025-03-15,09:00,Deakin University Melbourne Burwood Campus,"221 Burwood Highway Burwood, VIC 3125",https://www.eventbrite.com.au/e/meditation-and-mindset-workshop-melbourne-15-and-16-march-2025-tickets-1139498293069?aff=ebdssbdestsearch,-37.8493578,145.1148984
"Good Sniff ""That's It, Tiger"" Tour @John Curtin Hotel w/ Stimpies + Cheapskate",2025-03-15,08:00,THE CURTIN (John Curtin hotel),"29 Lygon St, Carlton VIC 3053, Australia",https://www.facebook.com/events/1853803902113470/,-37.8061581,144.9657057
ELVIS - THE CONCERT YEARS - SEAN LUKE SPITERI @ Oakleigh Music Hall,2025-03-15,20:30,Oakleigh Carnegie RSL,"95/97 Drummond St, Oakleigh VIC 3166, Australia",https://www.facebook.com/events/460184617102649/,-37.8968576,145.08963741959553
Memo Music Hall﻿Verified account,2025-03-15,19:00,MEMO Music Hall,"88 Acland St, St Kilda VIC 3182, Australia",https://www.facebook.com/events/645382081330577/,-37.8671902,144.9786817
