Event_Title,Date,Time,Venue,Address,url,Latitude,Longitude
"Neuroot (EU), Hacker, Persecutor & Whose Reality? @ LAST CHANCE",2025-03-15,19:00,The Last Chance,"238 Victoria St, Melbourne VIC 3000, Australia",https://www.facebook.com/events/1357957308547331/,-37.8059962,144.9585654
MELBOURNE - COST OF LIVING EMO NIGHT $5 TIX & DRINKS - MARCH 2025,2025-03-15,20:00,Deluxe Bar,"595 Mount Alexander Road Moonee Ponds, VIC 3039",https://www.eventbrite.com.au/e/melbourne-cost-of-living-emo-night-5-tix-drinks-march-2025-tickets-1109934707589?aff=ebdssbdestsearch,-37.768313,144.925046
COST OF LIVING EMO NIGHT $5 TIX & DRINKS MELBOURNE,2025-03-15,20:00,Deluxe Bar,"595 Mount Alexander Road Moonee Ponds, VIC 3039",https://www.eventbrite.com.au/e/cost-of-living-emo-night-5-tix-drinks-melbourne-tickets-1109934707589?aff=ebdssbdestsearch,-37.768313,144.925046
Soulmate Speed Dating,2025-03-15,15:00,Studio Take Care,"1 Pitt Street Brunswick, VIC 3056",https://www.eventbrite.com.au/e/soulmate-speed-dating-tickets-1232565539709?aff=ebdssbdestsearch,-37.7711984,144.9711714
Tantra Level 1 and 2 Training,2025-03-15,10:00,Vine & Branches Personal Growth Centre Inc.,"27 Bonds Road Lower Plenty, VIC 3093",https://www.eventbrite.com.au/e/tantra-level-1-and-2-training-tickets-1115940561259?aff=ebdssbdestsearch,-37.7512457,145.1126917
MSA Trips: Peninsula Day Trip,2025-03-15,10:00,Robert Blackwood Hall,"49 Scenic Boulevard Monash University, VIC 3800",https://www.eventbrite.com.au/e/msa-trips-peninsula-day-trip-tickets-1157663204809?aff=ebdssbdestsearch,-37.9127953,145.1352488
WALK WITH PURPOSE: MONTHLY SERIES: March is Bloom With Confidence!,2025-03-15,09:00,Bedggood & Co.,"137 Wellington Parade South East Melbourne, VIC 3002",https://www.eventbrite.com.au/e/walk-with-purpose-monthly-series-march-is-bloom-with-confidence-tickets-1129995620319?aff=ebdssbdestsearch,-37.8167784,144.9799796
Lamb Masterclass with Gary McBean - 15/03,2025-03-15,14:00,G.McBean Family Butcher,"163 Commercial Road #Stall 515 South Yarra, VIC 3141",https://www.eventbrite.com/e/lamb-masterclass-with-gary-mcbean-1503-tickets-1027695002417?aff=ebdssbdestsearch,-37.8460286,144.9925856
Fighting Arts of South East Asia - Silat & Eskrima,2025-03-15,10:00,Semeru - Movement and Martial Arts Academy / Silat,"11 Friars Road #10 Moorabbin, VIC 3189",https://www.eventbrite.com.au/e/fighting-arts-of-south-east-asia-silat-eskrima-tickets-1047451023207?aff=ebdssbdestsearch,-37.9454395,145.0624963
Energy In Motion - An Ecstatic Dance & Cacao Journey.,2025-03-15,18:30,Centre of You,"Upstairs, 217 Chapel St Prahran Melbourne, VIC 3181",https://www.eventbrite.com.au/e/energy-in-motion-an-ecstatic-dance-cacao-journey-tickets-1246774769899?aff=ebdssbdestsearch,-37.8509316,144.9933031
Introduction to feet reflexology 2,2025-03-15,21:30,St Joseph's,"16 Esplanade Williamstown, VIC 3016",https://www.eventbrite.com.au/e/introduction-to-feet-reflexology-2-tickets-1123436521879?aff=ebdssbdestsearch,-37.869719,144.8987936
"Featuring live ""RAT PACK"" exclusive Singles Over 40 events \ Pre-dinner",2025-03-15,17:30,Sandbelt Club Hotel,"630 South Road Moorabbin, VIC 3189",https://www.eventbrite.com.au/e/featuring-live-rat-pack-exclusive-singles-over-40-events-pre-dinner-tickets-1121103754509?aff=ebdssbdestsearch,-37.9397775,145.069408
Meditation and Mindset Workshop - Melbourne - 15 and 16 March 2025,2025-03-15,09:00,Deakin University Melbourne Burwood Campus,"221 Burwood Highway Burwood, VIC 3125",https://www.eventbrite.com.au/e/meditation-and-mindset-workshop-melbourne-15-and-16-march-2025-tickets-1139498293069?aff=ebdssbdestsearch,-37.8493578,145.1148984
Monsteen,2025-03-15,11:57,Arts Centre Melbourne,"100 St Kilda Rd, Southbank VIC 3004, Australia",https://www.facebook.com/events/2364431670591031/?event_time_id=2364431673924364,-37.8216405,144.9683143
Balance And Composure with Glitterer - Melbourne 18+,2025-03-15,12:04,Stay Gold,"133 Sydney Rd, Brunswick VIC 3056, Australia",https://www.facebook.com/events/522870283556497/,-37.7743469,144.9607404
Melbourne Bar Crawl | #1 Saturday Night Out,2025-03-15,12:12,On The Rocks Bar Crawl Melbourne,"The Joint, 35 Elizabeth St, Melbourne VIC 3000, Australia",https://www.facebook.com/events/1358139498520971/?event_time_id=1358139541854300,-37.8172989,144.9643996
Melbourne Bar Crawl | #1 Saturday Night Out,2025-03-15,12:13,On The Rocks Bar Crawl Melbourne,"The Joint, 35 Elizabeth St, Melbourne VIC 3000, Australia",https://www.facebook.com/events/1358139498520971/?event_time_id=1358139561854298,-37.8172989,144.9643996
Damien Power - From Nothing Volume 4,2025-03-15,18:00,The Coopers Inn,"282 Exhibition Street Melbourne, VIC 3000",https://www.eventbrite.com/e/damien-power-from-nothing-volume-4-tickets-1257825813869?aff=ebdssbdestsearch,-37.809147,144.9695339
Frock Enz Limited Edition and FrocktiVAtion,2025-03-15,13:20,Asia TOPA ,Melbourne,https://www.facebook.com/events/483859494775019/,-37.81817825,144.9670861
Western Bulldogs v North Melbourne - AFL Reserve,2025-03-15,19:35,Marvel Stadium,"740 Bourke St, Docklands VIC 3008, Australia",https://www.facebook.com/events/1314666819658533/,-37.816529,144.94751697668812
Matinée Memories: CALAMITY JANE (1953),2025-03-15,13:00,Palace Cinemas,"1 Champ St, Coburg VIC 3058, Australia",https://www.facebook.com/events/1264360744630926/,-37.736826,144.968318
Middle Of A Moment,2025-03-15,13:20,Asia TOPA ,Melbourne,https://www.facebook.com/events/1102080065052084/,-37.81817825,144.9670861
The Robot Dog,2025-03-15,13:21,Asia TOPA ,Melbourne,https://www.facebook.com/events/2554020654789045/,-37.81817825,144.9670861
Western Bulldogs v North Melbourne,2025-03-15,19:35,Marvel Stadium,"740 Bourke St, Docklands VIC 3008, Australia",https://www.facebook.com/events/1187716616690053/,-37.816529,144.94751697668812
Frock Enz Limited Edition and FrocktiVAtion,2025-03-15,13:21,Asia TOPA ,Melbourne,https://www.facebook.com/events/483859494775019/?event_time_id=483859534775015,-37.81817825,144.9670861
Strength Within - Building Confidence Through Wellness,2025-03-15,09:00,Studio 149,"149 Charman Road Beaumaris, VIC 3193",https://www.eventbrite.com.au/e/strength-within-building-confidence-through-wellness-tickets-1201993427699?aff=ebdssbdestsearch,-37.9762002,145.0533479
Copy of Cheese 101: Behind the Rind - MARCH 2025,2025-03-15,14:00,Maker and Monger,"163 Commercial Road #Stall 98 South Yarra, VIC 3141",https://www.eventbrite.com.au/e/copy-of-cheese-101-behind-the-rind-march-2025-tickets-1146638128509?aff=ebdssbdestsearch,-37.8460264,144.992686
Chunk #22 | Official Chillout Melbourne Afterparty | 15.03.25,2025-03-15,21:00,24 Moons,"2 Arthurton Road Northcote, VIC 3070",https://www.eventbrite.com.au/e/chunk-22-official-chillout-melbourne-afterparty-150325-tickets-1248045791559?aff=ebdssbdestsearch,-37.769148,144.9982808
Embrace Your Frizzique Presents The Hydra Experience,2025-03-15,17:00,Bentwood Fitzroy Cafe,"237 Napier Street Fitzroy, VIC 3065",https://www.eventbrite.com.au/e/embrace-your-frizzique-presents-the-hydra-experience-tickets-1261157819989?aff=ebdssbdestsearch,-37.800608,144.9801122
DATES OR MATES - Queer/lesbian/trans/LGBTQIA+ speed dating/friending,2025-03-15,18:00,Beans Bar,"325 Smith Street Fitzroy, VIC 3065",https://www.eventbrite.com/e/dates-or-mates-queerlesbiantranslgbtqia-speed-datingfriending-tickets-1250398247819?aff=ebdssbdestsearch,-37.799338,144.984041
Meditation and Mindset Workshop - Melbourne - 15 & 16 March 2025,2025-03-15,09:00,Deakin University Melbourne Burwood Campus,"221 Burwood Highway Burwood, VIC 3125",https://www.eventbrite.com.au/e/meditation-and-mindset-workshop-melbourne-15-16-march-2025-tickets-1247995170149?aff=ebdssbdestsearch,-37.8474536,145.1146428
VIVA LA VIDA,2025-03-15,20:00,Manningham Hotel & Club,"1 Thompsons Road Bulleen, VIC 3105",https://www.eventbrite.com.au/e/viva-la-vida-tickets-1238330492839?aff=ebdssbdestsearch,-37.7773733,145.0815255
Tarot Club,2025-03-15,16:30,Shellspace,"8 McIver Street Brunswick, VIC 3056",https://www.eventbrite.com.au/e/tarot-club-tickets-1263475953589?aff=ebdssbdestsearch,-37.768709,144.9637459
The Comedy & Jollof Affair,2025-03-15,07:30,Edziban West African Bar & Bistro,"307 Racecourse Road Kensington, VIC 3031",https://www.eventbrite.com.au/e/the-comedy-jollof-affair-tickets-1234677627019?aff=ebdssbdestsearch,-37.7885096,144.9307192
Animeverse Art Workshop,2025-03-15,14:30,Studio Take Care,"1 Pitt Street Brunswick, VIC 3056",https://www.eventbrite.com.au/e/animeverse-art-workshop-tickets-1209410572579?aff=ebdssbdestsearch,-37.7711984,144.9711714
BEN SWISSA - HUSH EP Tour - Adelaide AU,2025-03-15,19:00,TBC,"TBC Adelaide, SA 5000",https://www.eventbrite.com.au/e/ben-swissa-hush-ep-tour-adelaide-au-tickets-1243113468849?aff=ebdssbdestsearch,-34.9328294,138.6038129
Xclusive  The Show | By MenXclusive Melbourne 15 March,2025-03-15,19:00,Platform One,"375 Flinders Street Melbourne, VIC 3000",https://www.eventbrite.com.au/e/xclusive-the-show-by-menxclusive-melbourne-15-march-tickets-1075258269429?aff=ebdssbdestsearch,-37.8191789,144.9621961
BONEZ Festival,2025-03-15,15:00,The Penny Black,"420 Sydney Road Brunswick, VIC 3056",https://www.eventbrite.com.au/e/bonez-festival-tickets-1222947772709?aff=ebdssbdestsearch,-37.768078,144.962174
Formula 1 Boat Party ⛴️,2025-03-15,14:30,Victoria Star Cruises,"30 Victoria Harbour Promenade Docklands, VIC 3008",https://www.eventbrite.com.au/e/formula-1-boat-party-tickets-1250399942889?aff=ebdssbdestsearch,-37.8187053,144.9439326
TRIVIA NIGHT FUNDRAISER FOR BCNA,2025-03-15,18:30,3/153-155 Rooks Rd,"153-155 Rooks Road #3 Vermont, VIC 3133",https://www.eventbrite.com/e/trivia-night-fundraiser-for-bcna-tickets-1238394002799?aff=ebdssbdestsearch,-37.8323107,145.1879492
MCW Anniversary 2025,2025-03-15,19:00,Thornbury Theatre,"859 High Street Thornbury, VIC 3071",https://www.eventbrite.com.au/e/mcw-anniversary-2025-tickets-1077904554539?aff=ebdssbdestsearch,-37.7547965,145.0010423
候场喜剧-王越专场“请回答！一米五八”加场,2025-03-15,19:30,Library at The Dock,"107 Victoria Harbour Promenade Docklands, VIC 3008",https://www.eventbrite.com/e/1243061122279?aff=ebdssbdestsearch,-37.8200128,144.9404861
"Throw Back - 80s, 90s, Noughties - Boat Party - Melbourne",2025-03-15,19:00,131 Harbour Esplanade,"131 Harbour Esplanade Docklands, VIC 3008",https://www.eventbrite.com.au/e/throw-back-80s-90s-noughties-boat-party-melbourne-tickets-1210200665769?aff=ebdssbdestsearch,-37.81707129999999,144.9453813
arcane feat. CCL [EXTENDED SET] + MERVE,2025-03-15,22:00,Sub Club Melbourne,"Flinders Court Melbourne, VIC 3000",https://www.eventbrite.com.au/e/arcane-feat-ccl-extended-set-merve-tickets-1224578951609?aff=ebdssbdestsearch,-37.8179755,144.9644539
ONE PIECE - OP-10 Pre-Release - Gameology CLAYTON SOUTH - 15/03/2025,2025-03-15,14:00,Gameology,"12 Eileen Road Clayton South, VIC 3169",https://www.eventbrite.com.au/e/one-piece-op-10-pre-release-gameology-clayton-south-15032025-tickets-1236836313709?aff=ebdssbdestsearch,-37.9512104,145.1347381
Women's Group,2025-03-15,10:00,Brunswick,"Brunswick Brunswick, VIC 3056",https://www.eventbrite.com.au/e/womens-group-registration-1119479606639?aff=ebdssbdestsearch,-37.7666099,144.9584302
Wristwatch Check,2025-03-15,18:00,Fox Classic Car Collection,"749-755 Collins Street Docklands, VIC 3008",https://www.eventbrite.com.au/e/wristwatch-check-tickets-1100949332089?aff=ebdssbdestsearch,-37.821226,144.9488042
Roccella Pizza Masterclass | Learn pizza secrets from the best | March 15,2025-03-15,11:00,Roccella,"158 Clarendon Street East Melbourne, VIC 3002",https://www.eventbrite.com.au/e/roccella-pizza-masterclass-learn-pizza-secrets-from-the-best-march-15-tickets-1145135794989?aff=ebdssbdestsearch,-37.8119728,144.9835404
Latin Obsession - Bachata & Salsa at The Space + Zouk room Sat 15th Mar,2025-03-15,19:00,The Space Dance & Arts Centre,"318 Chapel Street Prahran, VIC 3181",https://www.eventbrite.com.au/e/latin-obsession-bachata-salsa-at-the-space-zouk-room-sat-15th-mar-tickets-1219868101329?aff=ebdssbdestsearch,-37.847686,144.994213
Monsteen,2025-03-15,11:56,Arts Centre Melbourne,"100 St Kilda Rd, Southbank VIC 3004, Australia",https://www.facebook.com/events/2364431670591031/,-37.8216405,144.9683143
TASTE OF IRELAND ,2025-03-15,12:16,Inkerman Hotel,"375 Inkerman St, St Kilda East VIC 3183, Australia",https://www.facebook.com/events/494748156796361/?event_time_id=494748236796353,-37.866444,144.99799715146656
Sweetie & Friends,2025-03-15,17:00,Punters Club,"376 Brunswick St, Fitzroy VIC 3065, Australia",https://www.facebook.com/events/497204780111840/,-37.7960561,144.9790327
Horatio Luna 'To The Tooth' EP Launch | Live at Punters Club,2025-03-15,23:00,Punters Club,"376 Brunswick St, Fitzroy VIC 3065, Australia",https://www.facebook.com/events/1127274815626630/,-37.7960561,144.9790327
Melbourne Bar Crawl | #1 Saturday Night Out,2025-03-15,02:35,On The Rocks Bar Crawl Melbourne,"The Joint, 35 Elizabeth St, Melbourne VIC 3000, Australia",https://www.facebook.com/events/1358139498520971/?event_time_id=1358139548520966,-37.8172989,144.9643996
TUSK - Full 5 Piece Show Band - Australia's #1 Fleetwood Mac Tribute | Dinner & Show,2025-03-15,00:00,arcobar heatherton,"8 Arco Ln, Heatherton VIC 3202, Australia",https://www.facebook.com/events/616834907498366/,-37.94673685,145.07837928457485
Lapidatus 'Sat in the Rust' Single Launch @ The Workers Club,2025-03-15,00:00,The Workers Club,"51 Brunswick St, Fitzroy VIC 3065, Australia",https://www.facebook.com/events/1349439202917999/,-37.8055776,144.9769450659087
Andrew De Silva Live in the Glasshouse,2025-03-15,00:00,Transport Hotel,"Transport Hotel, Ground Level Federation Square, Melbourne VIC 3000, Australia",https://www.facebook.com/events/1373151373674379/,-37.81835059,144.9683925
Lorcana Weekly Limited- Draft,2025-03-15,00:00,The Gaming Arena,"123 Bakers Rd, Coburg North VIC 3058, Australia",https://www.facebook.com/events/1316080396404227/,-37.72715826,144.96115535488718
THE DRIP - Hip Hop Club,2025-03-15,02:33,Laundry Bar,"50 Johnston St, Fitzroy VIC 3065, Australia",https://www.facebook.com/events/1237675498103313/,-37.7983139,144.9764962
Amla and Valentino at The Thornbury Local,2025-03-15,00:00,The Thornbury Local,"635 High St, Thornbury VIC 3071, Australia",https://www.facebook.com/events/620433507224169/,-37.76165125,144.99987967655426
JULES SHELDON & THE BOUNDARY RIDERS W/MAGGIE ALLEY ,2025-03-15,00:00,The Merri Creek Tavern,"111 High St, Northcote VIC 3070, Australia",https://www.facebook.com/events/1559212821453746/,-37.7794356,144.996838
Eat The Beat : CONNECT,2025-03-15,00:00,New Guernica,"64 Smith St, Collingwood VIC 3066, Australia",https://www.facebook.com/events/1388317685883109/,-37.80624775,144.98331211946754
ELVIS - THE CONCERT YEARS - SEAN LUKE SPITERI @ Oakleigh Music Hall,2025-03-15,20:30,Oakleigh Carnegie RSL,"95/97 Drummond St, Oakleigh VIC 3166, Australia",https://www.facebook.com/events/460184617102649/,-37.8968576,145.08963741959553
Reminisce 2025 - Melbourne,2025-03-15,15:00,Revolver Upstairs,"Level 2/229 Chapel St, Prahran VIC 3181, Australia",https://www.facebook.com/events/8526315977477754/,-37.8505902,144.9933469
Bebe's Bar - TRUCK (with Special Guests The NEED),2025-03-15,00:00,Musicland Melbourne,"1359 Sydney Rd, Fawkner VIC 3060, Australia",https://www.facebook.com/events/1597392104248784/,-37.6916774,144.9585701581541
Melbourne Bar Crawl | #1 Saturday Night Out,2025-03-15,02:34,On The Rocks Bar Crawl Melbourne,"The Joint, 35 Elizabeth St, Melbourne VIC 3000, Australia",https://www.facebook.com/events/1358139498520971/,-37.8172989,144.9643996
Kings of Country Rock – Eagles Vs Creedence – Palms At Crown Melbourne,2025-03-15,19:30,Palladium at Crown,"Level 1 Crown Towers, Crown Melbourne, 8 Whiteman St, Southbank VIC 3006, Australia",https://www.facebook.com/events/1060146635239964/,-37.822181,144.959875
Rock the night with RockQ ,2025-03-15,21:15,Altona Sports Club,"11 Altona Rd, Altona VIC 3018, Australia",https://www.facebook.com/events/1620653108622272/,-37.85754867,144.85121805353086
"(Sat, Mar 15) MIKELANGELO & THE LONG LOST FRIENDS ",2025-03-15,00:00,George Lane St Kilda,"1 George Ln, St Kilda VIC 3182, Australia",https://www.facebook.com/events/577260268544565/,-37.85997305,144.9780306
TASTE OF IRELAND ,2025-03-15,02:41,Inkerman Hotel,"375 Inkerman St, St Kilda East VIC 3183, Australia",https://www.facebook.com/events/494748156796361/,-37.866444,144.99799715146656
SOS The Australian ABBA Tribute Show @ MusicLand ,2025-03-15,01:28,Musicland Melbourne,"1359 Sydney Rd, Fawkner VIC 3060, Australia",https://www.facebook.com/events/2413546882343027/,-37.6916774,144.9585701581541
LennyFest,2025-03-15,20:00,Retreat Hotel,"Level 1/280 Sydney Rd, Brunswick VIC 3056, Australia",https://www.facebook.com/events/4015409592008443/,-37.7711487,144.9615949
Felipe Gordon + Proto Exotica,2025-03-15,23:00,The Night Cat,"137-141 Johnston St, Fitzroy VIC 3065, Australia",https://www.facebook.com/events/669090528875697/,-37.7982971,144.978128
1D vs 5SOS Night - Melbourne,2025-03-15,23:00,Stay Gold,"133 Sydney Rd, Brunswick VIC 3056, Australia",https://www.facebook.com/events/668406415519799/,-37.7743469,144.9607404
Derty Berd @ BAR OUSSOU!,2025-03-15,22:00,Bar Oussou,"653 Sydney Rd, Brunswick VIC 3056, Australia",https://www.facebook.com/events/1388904878746197/,-37.7618155,144.9628753
OTOMO YOSHIHIDE (JP) /// TOMOMI ADACHI (JP) + NOISE SCAVENGERS /// UMINARI TRIO (JP/AU) ,2025-03-15,02:05,JOLT Arts,"342 High St, Northcote VIC 3070, Australia",https://www.facebook.com/events/555827546926631/,-37.76999425,144.99908686916982
Harvey Pink Album Launch @ Cactus w Field Maps and Al Speers,2025-03-15,20:00,Cactus Room,"614 High St, Thornbury VIC 3071, Australia",https://www.facebook.com/events/1156617132782598/,-37.76125825,145.00041662186553
"Thriple Threat, The Two Face Trio and The Hidden Charms!",2025-03-15,08:00,Mr Boogie Man Bar,"160 Hoddle St, Abbotsford VIC 3067, Australia",https://www.facebook.com/events/1002657321910765/,-37.80245,144.99295304614787
Dave Graney and Clare Moore/Dave Graney and the mistLY at Kindred Bandroom - Yarraville,2025-03-15,19:30,Kindred Bandroom,"3 Harris St, Footscray VIC 3011, Australia",https://www.facebook.com/events/1140374803964892/,-37.8119001,144.9008247
MELT AGAIN EP LAUNCH,2025-03-15,19:30,Mamma Chen's,"42A Albert St, Footscray VIC 3011, Australia",https://www.facebook.com/events/802877932055505/,-37.8047552,144.89727240000002
UNDERSTANDING PALESTINE in the west! with Yousef Alreemawi at Mamma Chen's,2025-03-15,01:49,Mamma Chen's,"42A Albert St, Footscray VIC 3011, Australia",https://www.facebook.com/events/548849300919103/,-37.8047552,144.89727240000002
“SUPREME DISCO” Dutch Club Carnegie ,2025-03-15,00:00,Carnegie Hall,"60 Rosstown Rd, Carnegie VIC 3163, Australia",https://www.facebook.com/events/1505310320147434/,-37.8864262,145.05686284914034
Nils Frahm,2025-03-15,11:56,Arts Centre Melbourne,"100 St Kilda Rd, Southbank VIC 3004, Australia",https://www.facebook.com/events/1812173329590642/,-37.8216405,144.9683143
Frock Enz Limited Edition and FrocktiVAtion,2025-03-15,13:22,Asia TOPA ,Melbourne,https://www.facebook.com/events/483859494775019/?event_time_id=483859551441680,-37.81817825,144.9670861
The Barney McAll Trio !,2025-03-15,19:35,Uptown Jazz Cafe,"1/177 Brunswick St, Fitzroy VIC 3065, Australia",https://www.facebook.com/events/1288356995583703/,-37.79705404,144.97869049756974
Nicky Bomba's Bustamento,2025-03-15,18:00,Bird's Basement,"11 Singers Ln, Melbourne VIC 3000, Australia",https://www.facebook.com/events/1724296178360416/,-37.81114416,144.95680390283175
*** SOLD OUT!!! *** ROSS WILSON & The Peaceniks,2025-03-15,21:00,Lucky 13 Garage,"8 Cochranes Rd, Moorabbin VIC 3189, Australia",https://www.facebook.com/events/1326474895339746/,-37.94349189,145.07036236060654
The Scratch (IRE) | Melbourne |  Howler  ,2025-03-15,20:00,Howler,"7-11 Dawson St, Brunswick VIC 3056, Australia",https://www.facebook.com/events/1672324597047592/,-37.7720304,144.9596527
15 March | Butcher/Hairstylist/Beautician 10th Anniversary Tour | Naarm/Melbourne,2025-03-15,19:00,Northcote Social Club,"301 High St, Northcote VIC 3070, Australia",https://www.facebook.com/events/1117979256623228/,-37.771471,144.998414
Middle Of A Moment,2025-03-15,13:21,Asia TOPA ,Melbourne,https://www.facebook.com/events/1102080065052084/?event_time_id=1102080145052076,-37.81817825,144.9670861
Tom Trago (NL) — The Late Show,2025-03-15,00:00,Revolver Upstairs,"Level 2/229 Chapel St, Prahran VIC 3181, Australia",https://www.facebook.com/events/3004559039696172/,-37.8505902,144.9933469
The Flex Hammond Trio MUSIC at CERES,2025-03-15,03:11,CERES Environment Park,"Stewart St & Roberts St East, Brunswick VIC 3056, Australia",https://www.facebook.com/events/1954160515113119/,-37.765454,144.9831564
"Dimuth K (SL), DJ Ruby (MT), Mike Rish & Bridget - Howler Melbourne.",2025-03-15,00:00,Howler,"7-11 Dawson St, Brunswick VIC 3056, Australia",https://www.facebook.com/events/1502734397301603/,-37.7720304,144.9596527
arcane feat. CCL [EXTENDED SET] + MERVE,2025-03-15,00:00,Sub Club Melbourne,"Flinders Ct, Melbourne VIC 3000, Australia",https://www.facebook.com/events/1327007088312751/,-37.81776587,144.96433104920948
Logan Gibson | Punters DJ sessions,2025-03-15,23:59,Punters Club,"376 Brunswick St, Fitzroy VIC 3065, Australia",https://www.facebook.com/events/622767383716226/,-37.7960561,144.9790327
Inner You Event,2025-03-15,00:00,Second Story,"222A Johnston St, Collingwood VIC 3066, Australia",https://www.facebook.com/events/1280466399879446/,-37.79913366,144.9859876802753
TASTE OF IRELAND ,2025-03-15,02:42,Inkerman Hotel,"375 Inkerman St, St Kilda East VIC 3183, Australia",https://www.facebook.com/events/494748156796361/?event_time_id=494748216796355,-37.866444,144.99799715146656
SHE WILL RISE,2025-03-15,09:45,Studio on Hampton,"564 Hampton Street Hampton, VIC 3188",https://www.eventbrite.com/e/she-will-rise-tickets-1243770153009?aff=ebdssbdestsearch,-37.931858,145.003739
Robben Ford Band,2025-03-15,19:30,The Night Cat,"137-141 Johnston St, Fitzroy VIC 3065, Australia",https://www.facebook.com/events/563977586332459/,-37.7982971,144.978128
Out on the Deck with Samira x Locus,2025-03-15,13:00,Kindred Bandroom,"3 Harris St, Footscray VIC 3011, Australia",https://www.facebook.com/events/3081450472030769/,-37.8119001,144.9008247
"Good Sniff ""That's It, Tiger"" Tour @John Curtin Hotel w/ Stimpies + Cheapskate",2025-03-15,08:00,THE CURTIN (John Curtin hotel),"29 Lygon St, Carlton VIC 3053, Australia",https://www.facebook.com/events/1853803902113470/,-37.8061581,144.9657057
JUNGLE MANIA 3,2025-03-15,00:00,Wax Music Lounge,"250 Flinders St, Melbourne VIC 3000, Australia",https://www.facebook.com/events/1107537740654456/,-37.8176298,144.9661635
House Of 10: The Official Afterparty of The Formula 1,2025-03-16,20:00,Ms Collins,"425 Collins Street Melbourne, VIC 3000",https://www.eventbrite.com.au/e/house-of-10-the-official-afterparty-of-the-formula-1-tickets-1260268249259?aff=ebdssbdestsearch,-37.8174565,144.9606326
Reiki Level 3A (introduction to Shinpiden - Master Teacher level) in person,2025-03-16,09:00,1154 Malvern Rd,"1154 Malvern Road Malvern, VIC 3144",https://www.eventbrite.com.au/e/reiki-level-3a-introduction-to-shinpiden-master-teacher-level-in-person-tickets-1080056230259?aff=ebdssbdestsearch,-37.8519349,145.0323243
Sunday Singles Mingle 40+,2025-03-16,15:00,Pier Port Melbourne,"1 Bay Street Port Melbourne, VIC 3207",https://www.eventbrite.com.au/e/sunday-singles-mingle-40-tickets-1224303497719?aff=ebdssbdestsearch,-37.8428269,144.9380888
EC Kickball Melbourne Season II,2025-03-16,14:00,Fawkner Park,"24-88 Commercial Road South Yarra, VIC 3141",https://www.eventbrite.com.au/e/ec-kickball-melbourne-season-ii-tickets-1116019968769?aff=ebdssbdestsearch,-37.8411344,144.9818364
BAYSIDE DOG LOVERS DAY,2025-03-16,09:00,Royal Avenue,"Royal Avenue Sandringham, VIC 3191",https://www.eventbrite.com.au/e/bayside-dog-lovers-day-tickets-1146740113549?aff=ebdssbdestsearch,-37.9584868,145.0145466
ดนตรีสดและปาร์ตี้สุดมันส์ในคืนเดียวกัน!,2025-03-16,18:00,215 Queen's Bar,"215 Queen Street Melbourne, VIC 3000",https://www.eventbrite.com.au/e/1061510068189?aff=ebdssbdestsearch,-37.8137882,144.9598785
Studio 134 Sip & Yap,2025-03-16,15:00,134 Commercial Rd,"134 Commercial Road Prahran, VIC 3181",https://www.eventbrite.com/e/studio-134-sip-yap-tickets-1245856393009?aff=ebdssbdestsearch,-37.846546,144.9909483
CHARADES13 | Divination feat: OBJEKT [All Night Long],2025-03-16,20:00,Sub Club Melbourne,"Flinders Court Melbourne, VIC 3000",https://www.eventbrite.com.au/e/charades13-divination-feat-objekt-all-night-long-tickets-1232315963219?aff=ebdssbdestsearch,-37.8179755,144.9644539
Real Estate for Women |International Women's Day| Melbourne Chapter,2025-03-16,10:30,Melbourne Exhibition Centre,"1 convention centre place South Wharf, VIC 3006",https://www.eventbrite.com.au/e/real-estate-for-women-international-womens-day-melbourne-chapter-tickets-1206277852529?aff=ebdssbdestsearch,-37.82520299999999,144.952251
"Snuggle Party: connect, consent & cuddle",2025-03-16,13:00,Private Residence,"Riverdale Road Hawthorn East, VIC 3122",https://www.eventbrite.com.au/e/snuggle-party-connect-consent-cuddle-tickets-1137489394399?aff=ebdssbdestsearch,-37.8288232,145.0349047
Fundraising Event: Don Dunstan Play,2025-03-16,12:45,Chapel Off Chapel,"12 Little Chapel Street Prahran, VIC 3181",https://www.eventbrite.com.au/e/fundraising-event-don-dunstan-play-tickets-1225588099999?aff=ebdssbdestsearch,-37.8476469,144.9955162
Accelerate Cash Flow through Co-Living Properties -  MELBOURNE Chapter,2025-03-16,15:00,Melbourne Exhibition Centre,"1 convention centre place South Wharf, VIC 3006",https://www.eventbrite.com.au/e/accelerate-cash-flow-through-co-living-properties-melbourne-chapter-tickets-1206372906839?aff=ebdssbdestsearch,-37.82520299999999,144.952251
Yin Yoga and Yoga Nidra Immersion,2025-03-16,14:00,Merkaba Studio,"15 Mills Street Cheltenham, VIC 3192",https://www.eventbrite.com.au/e/yin-yoga-and-yoga-nidra-immersion-tickets-1143723420539?aff=ebdssbdestsearch,-37.9560125,145.0740554
FIELD SEE & MASON with Special Guest ANGUS BURCHALL on Drums,2025-03-16,15:00,Melbourne Bowling Club,"138 Union Street Windsor, VIC 3181",https://www.eventbrite.com.au/e/field-see-mason-with-special-guest-angus-burchall-on-drums-tickets-1247663548259?aff=ebdssbdestsearch,-37.8546958,144.9915895
Kid Francescoli //  Melbourne //  Sunset Blue Tour // Max Watt's ,2025-03-16,19:30,Max Watts,"125 Swanston St, Melbourne VIC 3000, Australia",https://www.facebook.com/events/3864462277215009/,-37.8147557,144.9659879
"Ross Wilson & The Peaceniks - Now Listen, Were Steppin' Out Tour",2025-03-16,11:22,Musicland Melbourne,"1359 Sydney Rd, Fawkner VIC 3060, Australia",https://www.facebook.com/events/550291867823559/,-37.6916774,144.9585701581541
SOUL OF FITZROY | ROOFTOP JAZZ & SOUL PARTY | WITH NORTHSIDE RECORDS,2025-03-16,12:20,Punters Club,"376 Brunswick St, Fitzroy VIC 3065, Australia",https://www.facebook.com/events/1217154460008624/?event_time_id=1217154496675287,-37.7960561,144.9790327
The Lotus Seven at The Workers Club,2025-03-16,19:00,The Workers Club,"51 Brunswick St, Fitzroy VIC 3065, Australia",https://www.facebook.com/events/605363892345965/,-37.8055776,144.9769450659087
"A Slice Of Laughter ft MC Tom Ballard, Michelle Brasier, Noah Szto, Nick Cody & Charlie Lewin",2025-03-16,12:05,Stay Gold,"133 Sydney Rd, Brunswick VIC 3056, Australia",https://www.facebook.com/events/9786718414680327/?event_time_id=9786718431346992,-37.7743469,144.9607404
Dear Buffalo play The Old bar,2025-03-16,11:34,The Old Bar,"74-76 Johnston St, Fitzroy VIC 3065, Australia",https://www.facebook.com/events/2157191038012159/,-37.79833,144.97711
Onanizer (Czech Republic) w/ Choof & Sufferance ,2025-03-16,16:00,The Old Bar,"74-76 Johnston St, Fitzroy VIC 3065, Australia",https://www.facebook.com/events/586938280998606/,-37.79833,144.97711
Dungeons and Flagons - D&D One Shot Campaigns,2025-03-16,12:37,Fortress Melbourne,"Shop 25/23 Caledonian Ln, Melbourne VIC 3000, Australia",https://www.facebook.com/events/462112836967415/?event_time_id=462112846967414,-37.8120357,144.9642299
Camille O’Sullivan (IRE): Loveletter | MEMO Music Hall,2025-03-16,15:00,MEMO Music Hall,"88 Acland St, St Kilda VIC 3182, Australia",https://www.facebook.com/events/540482885391353/,-37.8671902,144.9786817
Organic Vegetable Growing,2025-03-16,00:00,CERES Environment Park,"Stewart St & Roberts St East, Brunswick VIC 3056, Australia",https://www.facebook.com/events/1831082034402448/,-37.765454,144.9831564
Trench Crusade - Campaign League,2025-03-16,00:00,The Gaming Arena,"123 Bakers Rd, Coburg North VIC 3058, Australia",https://www.facebook.com/events/579100334568344/,-37.72715826,144.96115535488718
FUEGO: Latin Summer Series,2025-03-16,12:00,Section 8,"27-29 Tattersalls Ln, Melbourne VIC 3000, Australia",https://www.facebook.com/events/2198789360516987/,-37.8117457,144.965405
Two Folk MUSIC at CERES,2025-03-16,00:00,CERES Environment Park,"Stewart St & Roberts St East, Brunswick VIC 3056, Australia",https://www.facebook.com/events/1953186068539078/,-37.765454,144.9831564
Beginners Backyard Beekeeping,2025-03-16,00:00,CERES Environment Park,"Stewart St & Roberts St East, Brunswick VIC 3056, Australia",https://www.facebook.com/events/1155177492675770/,-37.765454,144.9831564
THE JACKSON COMBO - celebrating Mardi Gras New Orleans Style,2025-03-16,14:00,Way Out West Roots Music Club,"4 Market St, Newport VIC 3015, Australia",https://www.facebook.com/events/950093096660212/,-37.8439028,144.8823845
David Van Elst Live in the Glasshouse,2025-03-16,00:00,Transport Hotel,"Transport Hotel, Ground Level Federation Square, Melbourne VIC 3000, Australia",https://www.facebook.com/events/996065492569857/,-37.81835059,144.9683925
Better Off Said - Special Edition - 16 March 2025,2025-03-16,14:30,Brunswick Ballroom,"314 Sydney Rd, Brunswick VIC 3056, Australia",https://www.facebook.com/events/964523509119843/,-37.7704205,144.9617083
BFLF MELB: UNDER AND OVER THE SEA feat. Anthony Pappa,2025-03-16,00:00,Howler,"7-11 Dawson St, Brunswick VIC 3056, Australia",https://www.facebook.com/events/1299670018058876/,-37.7720304,144.9596527
FUEGO: Latin Summer Series,2025-03-16,00:00,Section 8,"27-29 Tattersalls Ln, Melbourne VIC 3000, Australia",https://www.facebook.com/events/2198789360516987/?event_time_id=2198789370516986,-37.8117457,144.965405
"(Sun, Mar 16) LAST LAP LIVE Feat. KYLIE AULDIST & Band + RUBY MAE + GEORGIA RODGERS ** FREE ENTRY **",2025-03-16,00:00,George Lane St Kilda,"1 George Ln, St Kilda VIC 3182, Australia",https://www.facebook.com/events/1168942584850949/,-37.85997305,144.9780306
Freedom Fly x Kuzich @ BAR OUSSOU!,2025-03-16,17:00,Bar Oussou,"653 Sydney Rd, Brunswick VIC 3056, Australia",https://www.facebook.com/events/1541233173211258/,-37.7618155,144.9628753
The Punters | Every Sunday at Punters Club,2025-03-16,00:00,Punters Club,"376 Brunswick St, Fitzroy VIC 3065, Australia",https://www.facebook.com/events/1173145007722321/,-37.7960561,144.9790327
SOUL OF FITZROY | ROOFTOP JAZZ & SOUL PARTY | WITH NORTHSIDE RECORDS,2025-03-16,00:00,Punters Club,"376 Brunswick St, Fitzroy VIC 3065, Australia",https://www.facebook.com/events/1217154460008624/,-37.7960561,144.9790327
"A Slice Of Laughter ft MC Tom Ballard, Michelle Brasier, Noah Szto, Nick Cody & Charlie Lewin",2025-03-16,00:00,Stay Gold,"133 Sydney Rd, Brunswick VIC 3056, Australia",https://www.facebook.com/events/9786718414680327/,-37.7743469,144.9607404
OTOMO YOSHIHIDE (JP) /// TOMOMI ADACHI (JP) /// UMINARI TRIO (JP/AU),2025-03-16,00:00,JOLT Arts,"342 High St, Northcote VIC 3070, Australia",https://www.facebook.com/events/1172568144406343/,-37.76999425,144.99908686916982
Forest Therapy - Cranbourne,2025-03-16,10:00,Botanic gardens,"Birdwood Ave Melbourne VIC 3004, Australia",https://www.facebook.com/events/930071759277495/,-37.82683271,144.97238679810675
simma with taylah elaine (uk),2025-03-16,00:00,Howler,"7-11 Dawson St, Brunswick VIC 3056, Australia",https://www.facebook.com/events/1621092692102316/,-37.7720304,144.9596527
The Punters | Every Sunday at Punters Club,2025-03-16,12:20,Punters Club,"376 Brunswick St, Fitzroy VIC 3065, Australia",https://www.facebook.com/events/1173145007722321/?event_time_id=1173145051055650,-37.7960561,144.9790327
PLEASER: Launch Gig,2025-03-16,00:00,One2three Bar,"123 Queens Parade, Clifton Hill VIC 3068, Australia",https://www.facebook.com/events/420650331138020/,-37.7892833,144.9901391
"ALBUM LAUNCH - Sarah and Silas- @Mantra Studio Kitchen Bar, Yarraville",2025-03-16,00:00,Mantra Studio Kitchen and Bar,"10 Campbell St, Yarraville VIC 3013, Australia",https://www.facebook.com/events/3367412340056384/,-37.820684,144.8947691
Dungeons and Flagons - D&D One Shot Campaigns,2025-03-16,00:00,Fortress Melbourne,"Shop 25/23 Caledonian Ln, Melbourne VIC 3000, Australia",https://www.facebook.com/events/462112836967415/,-37.8120357,144.9642299
St Patrick's Day 2025,2025-03-16,12:00,Lona St Kilda,"Unit 64/66 Acland St, St Kilda VIC 3182, Australia",https://www.facebook.com/events/639532235120738/,-37.86668052,144.978209
SundayVille • Full Throttle GP Afterparty • March 16,2025-03-16,00:00,StoryVille,"185 Lonsdale St, Melbourne VIC 3000, Australia",https://www.facebook.com/events/4018256745159645/,-37.81117675,144.9668442406415
‘Circle Walking’ Album Release at The Northcote Social Club,2025-03-16,12:45,Northcote Social Club,"301 High St, Northcote VIC 3070, Australia",https://www.facebook.com/events/1288690815763591/,-37.771471,144.998414
Ausecuma Beats @ BAR OUSSOU!,2025-03-16,20:00,Bar Oussou,"653 Sydney Rd, Brunswick VIC 3056, Australia",https://www.facebook.com/events/558006197252142/,-37.7618155,144.9628753
Domingo Latino - Calle Luna,2025-03-16,18:45,The Night Cat,"137-141 Johnston St, Fitzroy VIC 3065, Australia",https://www.facebook.com/events/599114459765557/,-37.7982971,144.978128
The Cats of Gokogu Shrine: Advance Screening ,2025-03-16,16:20,Cinema Nova,"380 Lygon St, Carlton VIC 3053, Australia",https://www.facebook.com/events/1873028066859938/,-37.7978092,144.9680124
CHARADES13 | Divination feat: OBJEKT [All Night Long],2025-03-16,20:00,Sub Club Melbourne,"Flinders Ct, Melbourne VIC 3000, Australia",https://www.facebook.com/events/2011665539320876/,-37.81776587,144.96433104920948
THE FINAL NONNIE SHOW PT. 2 w/ Grass Stains & LXRP,2025-03-16,18:45,Mamma Chen's,"42A Albert St, Footscray VIC 3011, Australia",https://www.facebook.com/events/1690247848189710/,-37.8047552,144.89727240000002
FREE EVENT | Rachel Sifris Live | From 2pm,2025-03-16,00:00,arcobar heatherton,"8 Arco Ln, Heatherton VIC 3202, Australia",https://www.facebook.com/events/947558520848431/,-37.94673685,145.07837928457485
"(Sun, Mar 16) LAST LAP LIVE Feat. KYLIE AULDIST & BAND + RUBY MAE + GEORGIA RODGERS ***FREE ENTRY***",2025-03-16,00:00,George Lane St Kilda,"1 George Ln, St Kilda VIC 3182, Australia",https://www.facebook.com/events/1366516627852764/,-37.85997305,144.9780306
"Oliver Anthony Music at Northcote Theatre, Melbourne",2025-03-16,00:00,Northcote Theatre,"216 High St, Northcote VIC 3070, Australia",https://www.facebook.com/events/546341874922962/,-37.7737068,144.9982706
St Patrick's Day,2025-03-16,14:00,Altona Sports Club,"11 Altona Rd, Altona VIC 3018, Australia",https://www.facebook.com/events/503112766149433/,-37.85754867,144.85121805353086
 BEIJING BIKINI (SYDNEY) + ALLUVIAL NUGGETTS + DUNCAN GRAHAM'S SMALL CIRCLE   ,2025-03-16,00:00,George Lane St Kilda,"1 George Ln, St Kilda VIC 3182, Australia",https://www.facebook.com/events/1181664000148590/,-37.85997305,144.9780306
Gavin Bowles & The Distractions 'Love Is Dumb' Tour @ The Retreat Hotel,2025-03-16,19:00,Retreat Hotel,"Level 1/280 Sydney Rd, Brunswick VIC 3056, Australia",https://www.facebook.com/events/652568317194223/,-37.7711487,144.9615949
Food for Mind + Gut Workshop,2025-03-16,00:00,CERES Environment Park,"Stewart St & Roberts St East, Brunswick VIC 3056, Australia",https://www.facebook.com/events/1736764823571041/,-37.765454,144.9831564
Vagabond,2025-03-16,19:00,Wax Music Lounge,"250 Flinders St, Melbourne VIC 3000, Australia",https://www.facebook.com/events/3877601182505753/,-37.8176298,144.9661635
National Playgroup Week - Monday in Williamstown,2025-03-17,10:30,Williamstown Library,"104 Ferguson Street Williamstown, VIC 3016",https://www.eventbrite.com.au/e/national-playgroup-week-monday-in-williamstown-tickets-1128165406099?aff=ebdssbdestsearch,-37.85832,144.8961172
Tom Connell  - Creative Potential (MELB),2025-03-17,10:00,STACHE HAIR,"158 Lygon Street #1 Brunswick East, VIC 3057",https://www.eventbrite.com.au/e/tom-connell-creative-potential-melb-tickets-1096892146939?aff=ebdssbdestsearch,-37.7733462,144.971791
“I’m gathering children’s voices…now what?”: Planning for Thinking,2025-03-17,09:30,"Bargoonga Nganjin, North Fitzroy Library","182-186 Saint Georges Road Fitzroy North, VIC 3068",https://www.eventbrite.com.au/e/im-gathering-childrens-voicesnow-what-planning-for-thinking-tickets-1204004312309?aff=ebdssbdestsearch,-37.7847278,144.9828535
"Legacy Burdens, Gifts and Inheritances (Melbourne)",2025-03-17,09:30,Abbotsford Convent,"1 St Heliers Street Abbotsford, VIC 3067",https://www.eventbrite.com.au/e/legacy-burdens-gifts-and-inheritances-melbourne-tickets-947270891737?aff=ebdssbdestsearch,-37.8026835,145.0027506
Melbourne  Survivor Party - 17 March 2025,2025-03-17,18:00,The Emerald Peacock,"233 Lonsdale Street Melbourne, VIC 3000",https://www.eventbrite.com.au/e/melbourne-survivor-party-17-march-2025-tickets-1250957540679?aff=ebdssbdestsearch,-37.8115246,144.9655073
The Cadaver Palaver,2025-03-17,19:00,The Butterfly Club,"5 Carson Place Melbourne, VIC 3000",https://www.eventbrite.co.uk/e/the-cadaver-palaver-tickets-935413846997?aff=ebdssbdestsearch,-37.8154472,144.9652725
Beasts,2025-03-17,20:30,The Butterfly Club,"5 Carson Place Melbourne, VIC 3000",https://www.eventbrite.co.uk/e/beasts-tickets-1043376746937?aff=ebdssbdestsearch,-37.8154472,144.9652725
UniMelb Lean Six Sigma Green Belt: 17-21 March 2025 [IN PERSON],2025-03-17,09:00,Melbourne Connect,"700 Swanston Street Carlton, VIC 3053",https://www.eventbrite.com.au/e/unimelb-lean-six-sigma-green-belt-17-21-march-2025-in-person-tickets-1068478831949?aff=ebdssbdestsearch,-37.80029030000001,144.9648077
CIRCADIAN RHYTHMS,2025-03-17,00:00,Wax Music Lounge,"250 Flinders St, Melbourne VIC 3000, Australia",https://www.facebook.com/events/584862551173325/,-37.8176298,144.9661635
Funny Near The Brunny! - Free Live Comedy Every Monday,2025-03-17,00:00,Bergy Bandroom,"64 Sydney Rd, Brunswick VIC 3056, Australia",https://www.facebook.com/events/1068456871671985/?event_time_id=1068457735005232,-37.776327,144.9607158
Beginner DJ Workshop with GIRL WHATEVER / presented by Wild At Heart,2025-03-17,00:00,Mamma Chen's,"42A Albert St, Footscray VIC 3011, Australia",https://www.facebook.com/events/499141013261154/,-37.8047552,144.89727240000002
March Residency @ Merri Creek Tavern,2025-03-17,00:00,The Merri Creek Tavern,"111 High St, Northcote VIC 3070, Australia",https://www.facebook.com/events/640456325149944/,-37.7794356,144.996838
Drag Trivia: FREE Gaming & Pop Culture Trivia,2025-03-17,00:00,Fortress Melbourne,"Shop 25/23 Caledonian Ln, Melbourne VIC 3000, Australia",https://www.facebook.com/events/3654926844806381/?event_time_id=3654926868139712,-37.8120357,144.9642299
BOTTOMLESS GUINNESS FOR ST PADDYS DAY,2025-03-17,12:00,Lulie Tavern,"225 Johnston St, Abbotsford VIC 3067, Australia",https://www.facebook.com/events/1340456113815313/,-37.8000264,144.9936498
Complete Urban Farmer Course,2025-03-17,09:00,CERES Environment Park,"Stewart St & Roberts St East, Brunswick VIC 3056, Australia",https://www.facebook.com/events/656840280082968/,-37.765454,144.9831564
Dua Lipa,2025-03-17,12:00,Rod Laver Arena,"200 Batman Ave, Melbourne VIC 3000, Australia",https://premier.ticketek.com.au/shows/show.aspx?sh=DUALIPA25,-37.8216161,144.9785584
Killer Pool Comp - Mondays,2025-03-17,00:00,Inkerman Hotel,"375 Inkerman St, St Kilda East VIC 3183, Australia",https://www.facebook.com/events/1038406204674063/,-37.866444,144.99799715146656
"TOXIC HOLOCAUST / USA / ""mORBID mONDAYS"" / OLD BAR - MELBOURNE",2025-03-17,00:00,The Old Bar,"74-76 Johnston St, Fitzroy VIC 3065, Australia",https://www.facebook.com/events/1113613936933561/,-37.79833,144.97711
OUR WEEKENDS END ON MONDAYS | with Dicky Plaidman Trio + Dark Star,2025-03-17,20:00,Punters Club,"376 Brunswick St, Fitzroy VIC 3065, Australia",https://www.facebook.com/events/1793406224815807/,-37.7960561,144.9790327
"‘Social Sanctuary’ with Rhysics, It Thing + Bad Bang 17 Mar 2025 07:00 PM",2025-03-17,19:00,Northcote Social Club,"301 High St, Northcote VIC 3070, Australia",https://www.facebook.com/events/863321289184740/,-37.771471,144.998414
Melbourne Marketing Forum 2025 | March,2025-03-18,18:00,"level 7/30 Collins Street, Melbourne VIC, Australia","30 Collins Street #level 7 Melbourne, VIC 3000",https://www.eventbrite.com/e/melbourne-marketing-forum-2025-march-tickets-1217362025589?aff=ebdssbdestsearch,-37.8134799,144.972499
Small Group Breathwork Journey,2025-03-18,19:00,Merkaba Studio,"15 Mills Street Cheltenham, VIC 3192",https://www.eventbrite.com.au/e/small-group-breathwork-journey-tickets-1226923203329?aff=ebdssbdestsearch,-37.9560125,145.0740554
Kehlani,2025-03-18,12:00,John Cain Arena,"35 Olympic Blvd, Melbourne VIC 3000, Australia",https://premier.ticketek.com.au/shows/show.aspx?sh=KEHLANI25,-37.8227725,144.9819687
National Playgroup Week - Tuesday in Williamstown,2025-03-18,10:00,Peachy Keen,"84 Ferguson Street #REAR of 82 Williamstown, VIC 3016",https://www.eventbrite.com.au/e/national-playgroup-week-tuesday-in-williamstown-tickets-1128177512309?aff=ebdssbdestsearch,-37.8586376,144.8974715
Drawing Workshop with Helene Oberman,2025-03-18,10:00,Duldig Studio Museum & Sculpture Garden,"92 Burke Road East Malvern, VIC 3145",https://www.eventbrite.com.au/e/drawing-workshop-with-helene-oberman-tickets-1082747840939?aff=ebdssbdestsearch,-37.8689721,145.0498034
TRIVIA hosted by COMFORTABLY FUN,2025-03-18,00:00,Mamma Chen's,"42A Albert St, Footscray VIC 3011, Australia",https://www.facebook.com/events/609943708693275/?event_time_id=609943725359940,-37.8047552,144.89727240000002
Lunch & Learn - The PM Day (Kew),2025-03-18,10:00,Kew Golf Club,"120 Belford Road Kew East, VIC 3102",https://www.eventbrite.com.au/e/lunch-learn-the-pm-day-kew-tickets-1234310037549?aff=ebdssbdestsearch,-37.7859682,145.053472
The Rookies Play Jazz residency at the Jazzlab,2025-03-18,00:00,The Jazz Lab,"27 Leslie St, Brunswick Melbourne, VIC, Australia, Victoria 3056",https://www.facebook.com/events/613579218087968/,-37.76677279,144.9587122
Cash Prize POOL COMP,2025-03-18,00:00,Inkerman Hotel,"375 Inkerman St, St Kilda East VIC 3183, Australia",https://www.facebook.com/events/1056315672649917/,-37.866444,144.99799715146656
BRAZLOMBIA,2025-03-18,00:00,Wax Music Lounge,"250 Flinders St, Melbourne VIC 3000, Australia",https://www.facebook.com/events/585678634285012/,-37.8176298,144.9661635
Weekly MTG Commander at The Gaming Arena,2025-03-18,00:00,The Gaming Arena,"123 Bakers Rd, Coburg North VIC 3058, Australia",https://www.facebook.com/events/1541838383370198/,-37.72715826,144.96115535488718
Seen The Film- Melbourne Screening Plus Live Q&A,2025-03-18,19:00,The Capitol,"113 Swanston Street Melbourne, VIC 3000",https://www.eventbrite.com/e/seen-the-film-melbourne-screening-plus-live-qa-tickets-1143497755569?aff=ebdssbdestsearch,-37.8149747,144.9658948
DIVA: Songs and Stories,2025-03-18,11:00,The Clocktower Centre,"750 Mt Alexander Rd, Moonee Ponds VIC 3039, Australia",https://www.facebook.com/events/2369628450073720/,-37.7656716,144.9248037207342
Live at MRC: Yamen Saadi x Simon Tedeschi,2025-03-18,19:00,Melbourne Recital Centre,"31 Sturt St, Southbank VIC 3006, Australia",https://www.facebook.com/events/584396577650723/,-37.82408485,144.96758763141432
Condensed Milk Tuesdays,2025-03-18,00:00,Section 8,"27-29 Tattersalls Ln, Melbourne VIC 3000, Australia",https://www.facebook.com/events/3806429379629971/?event_time_id=3806429462963296,-37.8117457,144.965405
Tix at 12,2025-03-18,00:00,Arts Centre Melbourne,"100 St Kilda Rd, Southbank VIC 3004, Australia",https://www.facebook.com/events/473885795706627/,-37.8216405,144.9683143
Spoken Word @ Bar Oussou!,2025-03-18,00:00,Bar Oussou,"653 Sydney Rd, Brunswick VIC 3056, Australia",https://www.facebook.com/events/807715171482397/,-37.7618155,144.9628753
"Hypnobirthing -Sandringham March 18, 25, April 1, 8, 15 + 22,  2025",2025-03-18,18:30,Sandringham Hospital,"193 Bluff Road Sandringham, VIC 3191",https://www.eventbrite.com/e/hypnobirthing-sandringham-march-18-25-april-1-8-15-22-2025-tickets-1117033761049?aff=ebdssbdestsearch,-37.961056,145.0181595
Micah Women's Network Dinner 2025 Melbourne,2025-03-18,19:00,75 Reid St,"75 Reid Street Fitzroy North, VIC 3068",https://www.eventbrite.com.au/e/micah-womens-network-dinner-2025-melbourne-tickets-1217275928069?aff=ebdssbdestsearch,-37.7853324,144.9807648
Introduction to computer screen readers and VoiceOver,2025-03-18,09:30,Statewide Vision Resource Centre,"370 Springvale Road Donvale, VIC 3111",https://www.eventbrite.com.au/e/introduction-to-computer-screen-readers-and-voiceover-tickets-1131279239659?aff=ebdssbdestsearch,-37.8005729,145.1775198
OWN YOUR VOICE = SLAY YOUR BIZ GOALS,2025-03-18,06:30,2 Alfred Pl,"2 Alfred Place South Melbourne, VIC 3205",https://www.eventbrite.com/e/own-your-voice-slay-your-biz-goals-tickets-1112312650079?aff=ebdssbdestsearch,-37.8314108,144.9592778
MMSS Corporate Connections 2025,2025-03-18,06:30,River's Edge Events Melbourne,"38 Siddeley Street #Level 1, 18 Melbourne, VIC 3005",https://www.eventbrite.com.au/e/mmss-corporate-connections-2025-tickets-1265624108779?aff=ebdssbdestsearch,-37.823089,144.953679
Planet Innovation Site Visit (Medtech Manufacturing Roadshow),2025-03-18,14:00,Planet Innovation,"31-47 Joseph Street #Building 3 Blackburn North, VIC 3130",https://www.eventbrite.com/e/planet-innovation-site-visit-medtech-manufacturing-roadshow-tickets-1252545109139?aff=ebdssbdestsearch,-37.800837,145.1477836
EB Masterclass - Candidate Marketing with Influence in 2025 - Melbourne,2025-03-18,09:00,JustCo – 447 Collins Street | Coworking & Office Space,"447 Collins Street #Level 5 Melbourne, VIC 3000",https://www.eventbrite.com.au/e/eb-masterclass-candidate-marketing-with-influence-in-2025-melbourne-tickets-1253902037749?aff=ebdssbdestsearch,-37.8182233,144.9577302
Golden Club Preview: THE RETURN,2025-03-18,13:00,Palace Cinemas,"1 Champ St, Coburg VIC 3058, Australia",https://www.facebook.com/events/1524697655601629/,-37.736826,144.968318
Learn to Sew an A-line skirt,2025-03-18,18:00,Sew This Pattern Sewing Studio,"27 Horne street Elsternwick, VIC 3185",https://www.eventbrite.com.au/e/learn-to-sew-an-a-line-skirt-tickets-1245670787859?aff=ebdssbdestsearch,-37.88527240000001,145.0002292
Bright Splinters,2025-03-19,00:00,The Jazz Lab,"27 Leslie St, Brunswick Melbourne, VIC, Australia, Victoria 3056",https://www.facebook.com/events/3907655732833387/,-37.76677279,144.9587122
Board Game Social Night,2025-03-19,00:00,Fortress Melbourne,"Shop 25/23 Caledonian Ln, Melbourne VIC 3000, Australia",https://www.facebook.com/events/2385724768449287/?event_time_id=2385724798449284,-37.8120357,144.9642299
Trivia Night,2025-03-19,00:00,Inkerman Hotel,"375 Inkerman St, St Kilda East VIC 3183, Australia",https://www.facebook.com/events/2779506008881959/,-37.866444,144.99799715146656
Hump Day Variety Hour with Oceanique,2025-03-19,00:00,The Merri Creek Tavern,"111 High St, Northcote VIC 3070, Australia",https://www.facebook.com/events/1610818316195959/?event_time_id=1640368413240949,-37.7794356,144.996838
Spellbound: A Night of Magic and Grand Illusion,2025-03-19,19:00,The Clocktower Centre,"750 Mt Alexander Rd, Moonee Ponds VIC 3039, Australia",https://www.facebook.com/events/618381177565553/,-37.7656716,144.9248037207342
MELLOWDÍAS THUMP,2025-03-19,00:00,Wax Music Lounge,"250 Flinders St, Melbourne VIC 3000, Australia",https://www.facebook.com/events/1124371722195700/,-37.8176298,144.9661635
Comedy House presents Damien Power,2025-03-19,20:00,Altona Sports Club,"11 Altona Rd, Altona VIC 3018, Australia",https://www.facebook.com/events/1853214495421568/,-37.85754867,144.85121805353086
Open Mic & Jam @ BAR OUSSOU! ,2025-03-19,00:00,Bar Oussou,"653 Sydney Rd, Brunswick VIC 3056, Australia",https://www.facebook.com/events/530685326228412/,-37.7618155,144.9628753
"(Wed, Mar 19) Love Police Presents JON MUQ (USA) w/ KYLE BREW",2025-03-19,00:00,George Lane St Kilda,"1 George Ln, St Kilda VIC 3182, Australia",https://www.facebook.com/events/426433590562002/,-37.85997305,144.9780306
Jon Pardi,2025-03-19,12:00,Margaret Court Arena,"5XHH+G3 Melbourne VIC, Australia",https://premier.ticketek.com.au/shows/show.aspx?sh=JONPARDI25,-37.8211276,144.9776364
OPEN MIC,2025-03-19,00:00,Mamma Chen's,"42A Albert St, Footscray VIC 3011, Australia",https://www.facebook.com/events/2193724607795225/,-37.8047552,144.89727240000002
Frequency,2025-03-19,00:00,Arts Centre Melbourne,"100 St Kilda Rd, Southbank VIC 3004, Australia",https://www.facebook.com/events/1263910184912897/,-37.8216405,144.9683143
Melbourne: Distressed Contracts and Appropriate Securities,2025-03-19,17:30,Hall & Wilcox,"390 Collins Street #Tower 376 Melbourne, VIC 3000",https://www.eventbrite.com.au/e/melbourne-distressed-contracts-and-appropriate-securities-tickets-1250856398159?aff=ebdssbdestsearch,-37.8166378,144.9618753
In-person MYOB Acumatica Training Intensive | Melbourne,2025-03-19,09:00,Vibe Hotel Melbourne,"1 Queen Street Melbourne, VIC 3000",https://www.eventbrite.com.au/e/in-person-myob-acumatica-training-intensive-melbourne-tickets-1232356213609?aff=ebdssbdestsearch,-37.8188186,144.962001
Melbourne Speed Dating for ages 26-44 by Cheeky Events Australia,2025-03-19,19:00,The Collection Bar,"328 Bridge Road Richmond Melbourne, VIC 3121",https://www.eventbrite.com.au/e/melbourne-speed-dating-for-ages-26-44-by-cheeky-events-australia-tickets-1139353991459?aff=ebdssbdestsearch,-37.8190331,145.0022424
Members Only Evening Experience 19th March 2025,2025-03-19,18:30,Rupert on Rupert,"73 Rupert Street Collingwood, VIC 3066",https://www.eventbrite.com.au/e/members-only-evening-experience-19th-march-2025-tickets-1086878255119?aff=ebdssbdestsearch,-37.8062338,144.9889044
Lantern Odyssey | VSA 2025 Official Welcome Back Party,2025-03-19,18:30,Lady Cutler Melbourne Showboat,"Pier VH08, 131 Harbour Esplanade, Docklands Melbourne, VIC 3008",https://www.eventbrite.com.au/e/lantern-odyssey-vsa-2025-official-welcome-back-party-tickets-1263520687389?aff=ebdssbdestsearch,-37.81707129999999,144.9453813
"Hospitable Host and Toast - Melbourne, Australia",2025-03-19,18:00,Peacock Inn Hotel,"210 High Street Northcote, VIC 3070",https://www.eventbrite.com/e/hospitable-host-and-toast-melbourne-australia-tickets-1230395619419?aff=ebdssbdestsearch,-37.7740796,144.9983353
Healing Birth Trauma Melbourne 2025,2025-03-19,09:00,The Living Centre,"16 Trinity Place East Melbourne, VIC 3002",https://www.eventbrite.com.au/e/healing-birth-trauma-melbourne-2025-tickets-851925791977?aff=ebdssbdestsearch,-37.8146191,144.9837102
Melbourne - AI in Action: How Leaders Use AI at work and in Life,2025-03-19,05:30,Shell Energy,"360 Collins Street #Level 12 Melbourne, VIC 3000",https://www.eventbrite.com.au/e/melbourne-ai-in-action-how-leaders-use-ai-at-work-and-in-life-tickets-1252633333019?aff=ebdssbdestsearch,-37.816439,144.962319
STRive To Thrive  - Melbourne - 19+20 MARCH 2025,2025-03-19,10:00,Melbourne,"Melbourne Melbourne, VIC",https://www.eventbrite.com.au/e/strive-to-thrive-melbourne-1920-march-2025-tickets-951179793367?aff=ebdssbdestsearch,-37.8136276,144.9630576
Risk Management: Identifying Governance Red Flags  - Melbourne - March 2025,2025-03-19,18:00,Melbourne,"Online Melbourne, VIC 3000",https://www.eventbrite.com.au/e/risk-management-identifying-governance-red-flags-melbourne-march-2025-registration-1109721339399?aff=ebdssbdestsearch,-37.8152065,144.963937
Initial assessment and gathering of baseline data- TULLAMARINE,2025-03-19,09:30,2/217 Mickleham Rd,"217 Mickleham Road #2 Tullamarine, VIC 3043",https://www.eventbrite.com.au/e/initial-assessment-and-gathering-of-baseline-data-tullamarine-tickets-1116038303609?aff=ebdssbdestsearch,-37.6854458,144.8812009
Having High Performance Conversations- Virtual Learning Bite 2025,2025-03-19,12:00,Melbourne,"Melbourne Melbourne, VIC 3000",https://www.eventbrite.com.au/e/having-high-performance-conversations-virtual-learning-bite-2025-tickets-1077125243599?aff=ebdssbdestsearch,-37.8152065,144.963937
ACBC Vic  | Presentation by Dr Geoff Raby AO - Great Game On,2025-03-19,15:45,MinterEllison Melbourne,"447 Collins Street #20 Melbourne, VIC 3000",https://www.eventbrite.com.au/e/acbc-vic-presentation-by-dr-geoff-raby-ao-great-game-on-tickets-1261773932799?aff=ebdssbdestsearch,-37.817431,144.9593586
The Harmonix Experience,2025-03-19,18:00,Bird's Basement,"11 Singers Ln, Melbourne VIC 3000, Australia",https://www.facebook.com/events/1134957328176289/,-37.81114416,144.95680390283175
DISNEY'S SNOW WHITE | Grand Opening Event,2025-03-19,18:15,Palace Cinemas,"1 Champ St, Coburg VIC 3058, Australia",https://www.facebook.com/events/9541880765871940/,-37.736826,144.968318
Climate Watch Walk - Melbourne,2025-03-19,00:00,Botanic gardens,"Birdwood Ave Melbourne VIC 3004, Australia",https://www.facebook.com/events/496284546508356/,-37.82683271,144.97238679810675
"Fatboy Slim at Revolver Upstairs, Melbourne (18+)",2025-03-19,19:00,Revolver Upstairs,"Level 2/229 Chapel St, Prahran VIC 3181, Australia",https://www.facebook.com/events/1382338362952670/,-37.8505902,144.9933469
Singsongs - The Best of British / Memo Music Hall,2025-03-19,19:00,MEMO Music Hall,"88 Acland St, St Kilda VIC 3182, Australia",https://www.facebook.com/events/1372157787275687/,-37.8671902,144.9786817
Comedy Night ft Dilruk Jayasinha & Tor Snyder hosted by Johnny Kats!,2025-03-20,19:00,Welcome to Brunswick,"408 Sydney Road Brunswick, VIC 3056",https://www.eventbrite.com.au/e/comedy-night-ft-dilruk-jayasinha-tor-snyder-hosted-by-johnny-kats-tickets-1232327196819?aff=ebdssbdestsearch,-37.7684338,144.9621623
Brother Jack and Unit 13,2025-03-20,19:00,The Butterfly Club,"5 Carson Place Melbourne, VIC 3000",https://www.eventbrite.co.uk/e/brother-jack-and-unit-13-tickets-1090337451669?aff=ebdssbdestsearch,-37.8154472,144.9652725
Experience the Future of  Skin Rejuvenation with  Dr John Sullivan,2025-03-20,18:00,Eureka 89,"7 Riverside Quay #Level 89 Southbank, VIC 3006",https://www.eventbrite.com.au/e/experience-the-future-of-skin-rejuvenation-with-dr-john-sullivan-tickets-1236739082889?aff=ebdssbdestsearch,-37.8213342,144.9646982
ONE PIECE - OP-10 Pre-Release - Gameology CLAYTON SOUTH - 20/03/2025,2025-03-20,06:30,Gameology,"12 Eileen Road Clayton South, VIC 3169",https://www.eventbrite.com.au/e/one-piece-op-10-pre-release-gameology-clayton-south-20032025-tickets-1244299225479?aff=ebdssbdestsearch,-37.9512104,145.1347381
2025 Svenson Barristers Commercial Law CPD Day,2025-03-20,08:30,RACV City Club,"501 Bourke Street Melbourne, VIC 3000",https://www.eventbrite.com.au/e/2025-svenson-barristers-commercial-law-cpd-day-tickets-1108819702579?aff=ebdssbdestsearch,-37.8154838,144.9594302
Vaginal Birth After Caesarean - Exploring the Possibilities Melbourne 2025,2025-03-20,13:00,The Living Centre,"16 Trinity Place East Melbourne, VIC 3002",https://www.eventbrite.com.au/e/vaginal-birth-after-caesarean-exploring-the-possibilities-melbourne-2025-tickets-851930094847?aff=ebdssbdestsearch,-37.8146191,144.9837102
CCA Entrepreneurship Evening,2025-03-20,18:00,Central 1 Lecture Theatre (aka. C1),"25 Exhibition Walk Clayton, VIC 3168",https://www.eventbrite.com.au/e/cca-entrepreneurship-evening-tickets-1268214085469?aff=ebdssbdestsearch,-37.9107376,145.1338091
REAL SLEAZE,2025-03-20,07:30,The Old Bar,"74-76 Johnston Street Fitzroy, VIC 3065",https://www.eventbrite.com/e/real-sleaze-tickets-1265672222689?aff=ebdssbdestsearch,-37.798362,144.977083
Elephant Ed Open Workshop - Preventing Sexual Harassment in Your Workplace,2025-03-20,09:30,CreativeCubes.Co - South Melbourne,"111 Cecil Street #Level/5 South Melbourne, VIC 3205",https://www.eventbrite.com.au/e/elephant-ed-open-workshop-preventing-sexual-harassment-in-your-workplace-tickets-1247893536159?aff=ebdssbdestsearch,-37.8305009,144.9570953
Honne: The OUCH AU Tour,2025-03-20,12:00,Forum Melbourne,"180 Flinders St, Melbourne VIC 3000, Australia",https://premier.ticketek.com.au/shows/show.aspx?sh=HONNE25,-37.816602,144.9694678
"MBN Monthly Networking and Catch-Up:  Thursday, 20 March 2025",2025-03-20,17:00,The Wharf Hotel  - World Trade Centre,"18-38 Siddeley Street Melbourne, VIC 3000",https://www.eventbrite.com.au/e/mbn-monthly-networking-and-catch-up-thursday-20-march-2025-tickets-1256116330759?aff=ebdssbdestsearch,-37.8226739,144.953839
The Slice of Life - The Caesarean Birth Issue Melbourne 2025,2025-03-20,09:00,The Living Centre,"16 Trinity Place East Melbourne, VIC 3002",https://www.eventbrite.com.au/e/the-slice-of-life-the-caesarean-birth-issue-melbourne-2025-tickets-851928459957?aff=ebdssbdestsearch,-37.8146191,144.9837102
"Connect and Grow Health and Disability Expo, and Networking event",2025-03-20,10:00,Manningham Function Centre,"699 Doncaster Road #1 Doncaster, VIC 3108",https://www.eventbrite.com.au/e/connect-and-grow-health-and-disability-expo-and-networking-event-tickets-1205950824379?aff=ebdssbdestsearch,-37.786504,145.1326249
MADC - The Art of Photography - Chris Tovo,2025-03-20,18:30,2 Audrey Ave,"2 Audrey Avenue Coburg North, VIC 3058",https://www.eventbrite.com.au/e/madc-the-art-of-photography-chris-tovo-tickets-1261996037119?aff=ebdssbdestsearch,-37.72762,144.95263
WORKING WITH YOUNG PEOPLE FROM REFUGEE AND ASYLUM SEEKER BACKGROUNDS,2025-03-20,09:30,Orygen Colonial  Foundation Innovation Centre,"35 Poplar Road Parkville, VIC 3052",https://www.eventbrite.com.au/e/working-with-young-people-from-refugee-and-asylum-seeker-backgrounds-tickets-1100656937529?aff=ebdssbdestsearch,-37.7801959,144.9478953
Suntara Sound Healing Journey - Melbourne,2025-03-20,19:00,St Brigid's Parish,"378 Nicholson Street Fitzroy North, VIC 3068",https://www.eventbrite.com.au/e/suntara-sound-healing-journey-melbourne-tickets-1088489263689?aff=ebdssbdestsearch,-37.7919766,144.9765536
Rai Thistlethwayte,2025-03-20,18:00,Bird's Basement,"11 Singers Ln, Melbourne VIC 3000, Australia",https://www.facebook.com/events/843709067976907/,-37.81114416,144.95680390283175
Motorboat,2025-03-20,20:00,The Clocktower Centre,"750 Mt Alexander Rd, Moonee Ponds VIC 3039, Australia",https://www.facebook.com/events/1005501968298624/,-37.7656716,144.9248037207342
Gwyn Ashton // Thur Arvo Gig Series,2025-03-20,14:00,Kindred Bandroom,"3 Harris St, Footscray VIC 3011, Australia",https://www.facebook.com/events/1041864484419869/,-37.8119001,144.9008247
Anthea Jewells Band - Thursday Night Jam!,2025-03-20,00:00,Hume Blues Club Inc,"27 Ballantyne St, Thornbury VIC 3071, Australia",https://www.facebook.com/events/582477071350207/,-37.7588241,144.9985126
Fat Freddy's Drop SLO MO ALBUM TOUR,2025-03-20,19:00,Festival Hall,"300 Dudley St, West Melbourne VIC 3003, Australia",https://www.facebook.com/events/1017640290102298/,-37.8098193,144.9508057
Forth & Back feat ERIC POWELL (Carl & Eric's Mobile Disco / Bush Records),2025-03-20,00:00,Section 8,"27-29 Tattersalls Ln, Melbourne VIC 3000, Australia",https://www.facebook.com/events/506173909199617/,-37.8117457,144.965405
REVERSE HAPPY HOUR THURSDAYS,2025-03-20,00:00,Inkerman Hotel,"375 Inkerman St, St Kilda East VIC 3183, Australia",https://www.facebook.com/events/416365071539239/,-37.866444,144.99799715146656
"Gwyn Ashton (UK/AU) at Mr Boogie Man Bar, Melbourne, Vic AU",2025-03-20,20:00,Mr Boogie Man Bar,"160 Hoddle St, Abbotsford VIC 3067, Australia",https://www.facebook.com/events/1251542166148324/,-37.80245,144.99295304614787
NOAH TATE Single Launch,2025-03-20,19:30,Bergy Bandroom,"64 Sydney Rd, Brunswick VIC 3056, Australia",https://www.facebook.com/events/1636222623922067/,-37.776327,144.9607158
"GUERNS THURS : $4 Pots, Seltzers $6 Vodkas!",2025-03-20,00:00,New Guernica,"64 Smith St, Collingwood VIC 3066, Australia",https://www.facebook.com/events/1003708835014576/,-37.80624775,144.98331211946754
Wilding: Meet the Filmmaker,2025-03-20,19:00,Cinema Nova,"380 Lygon St, Carlton VIC 3053, Australia",https://www.facebook.com/events/962335719335904/,-37.7978092,144.9680124
Soy Candle Making Workshop,2025-03-20,00:00,CERES Environment Park,"Stewart St & Roberts St East, Brunswick VIC 3056, Australia",https://www.facebook.com/events/657048176692644/,-37.765454,144.9831564
Will Larsen Quartet @ BAR OUSSOU!,2025-03-20,20:00,Bar Oussou,"653 Sydney Rd, Brunswick VIC 3056, Australia",https://www.facebook.com/events/651539557329443/,-37.7618155,144.9628753
PUNK ROCK SHOW,2025-03-20,19:00,Bad Decisions Bar,"46 Johnston St, Fitzroy VIC 3065, Australia",https://www.facebook.com/events/1279743169795463/,-37.798246,144.9762881
Left North Left EP Party with Unscored and Fool Me Twice,2025-03-20,19:00,The Last Chance,"238 Victoria St, Melbourne VIC 3000, Australia",https://www.facebook.com/events/1636524716970195/,-37.8059962,144.9585654
Wonderland Thursdays | 13th March,2025-03-20,00:00,StoryVille,"185 Lonsdale St, Melbourne VIC 3000, Australia",https://www.facebook.com/events/1174663760974436/,-37.81117675,144.9668442406415
Stay Gold Battle Of The Bands - HEAT 1,2025-03-20,00:00,Stay Gold,"133 Sydney Rd, Brunswick VIC 3056, Australia",https://www.facebook.com/events/1182324929931217/,-37.7743469,144.9607404
MUST Launch Party 2025,2025-03-20,18:00,Monash Uni Student Theatre,"Campus Centre, Monash University, 21 Chancellors Walk, Clayton VIC 3168, Australia",https://www.facebook.com/events/1187051072766000/,-37.9117585,145.13241
"(Thu, Mar 20) OILY RAG RECORDS PRESENTS - ROAD DOGS IN THE ROUND",2025-03-20,00:00,George Lane St Kilda,"1 George Ln, St Kilda VIC 3182, Australia",https://www.facebook.com/events/1281986969752171/,-37.85997305,144.9780306
Yarra | onesixone Thursdays,2025-03-20,00:00,onesixone,"161 High St, Prahran VIC 3181, Australia",https://www.facebook.com/events/4035236466796018/,-37.85425256,145.0112666323418
Clinic Mastery Summit - Melbourne 21-22 March 2025,2025-03-21,09:00,Aerial,"17 Dukes Walk South Wharf, VIC 3006",https://www.eventbrite.com.au/e/clinic-mastery-summit-melbourne-21-22-march-2025-tickets-854000988947?aff=ebdssbdestsearch,-37.8244357,144.9502918
KISSIT & Anth Nekich,2025-03-21,19:00,The Graveyard Bar,"942 Sydney Road Coburg North, VIC 3058",https://www.eventbrite.com.au/e/kissit-anth-nekich-tickets-1232634365569?aff=ebdssbdestsearch,-37.7236554,144.9638725
Shoe School @ Leffler 1 day Sneaker Making Workshop,2025-03-21,09:00,Leffler Leather,"171 Kensington Road West Melbourne, VIC 3003",https://www.eventbrite.com.au/e/shoe-school-leffler-1-day-sneaker-making-workshop-tickets-1215718720419?aff=ebdssbdestsearch,-37.8000316,144.9177826
Jimmy Saa LIVE - Salsometro 2025,2025-03-21,21:00,Arrow On Swanston,"488 Swanston Street Carlton, VIC 3053",https://www.eventbrite.com.au/e/jimmy-saa-live-salsometro-2025-tickets-1212703943139?aff=ebdssbdestsearch,-37.8055641,144.9633777
MJ Lenderman & The Wind,2025-03-21,12:00,Forum Melbourne,"180 Flinders St, Melbourne VIC 3000, Australia",https://premier.ticketek.com.au/shows/show.aspx?sh=LENDER25,-37.816602,144.9694678
2025 VHS Pre Expo Dinner,2025-03-21,18:00,Rosstown Hotel,"1084 Dandenong Road Carnegie, VIC 3163",https://www.eventbrite.com.au/e/2025-vhs-pre-expo-dinner-registration-1238372809409?aff=ebdssbdestsearch,-37.8848571,145.0577364
Never Ending 90s Party - 170 Russell (Billboards),2025-03-21,20:00,170 Russell,"170 Russell St, Melbourne VIC 3000, Australia",https://www.facebook.com/events/914274500552082/,-37.8120109,144.9679369
"BASSED IN VOL. 8 - Feat. GEORGIE RIOT [UK] Olympia Nahtalia, BIG BOSS, Feed Hydra + More",2025-03-21,22:00,Laundry Bar,"50 Johnston St, Fitzroy VIC 3065, Australia",https://www.facebook.com/events/4047008488871478/,-37.7983139,144.9764962
MURDERBALLS KICKASS VINYL LAUNCH,2025-03-21,20:00,Bergy Bandroom,"64 Sydney Rd, Brunswick VIC 3056, Australia",https://www.facebook.com/events/1357999808971766/,-37.776327,144.9607158
sugarush: Lana Del Rey Night - Swamp Edition - Melbourne,2025-03-21,23:00,Stay Gold,"133 Sydney Rd, Brunswick VIC 3056, Australia",https://www.facebook.com/events/641450908226703/,-37.7743469,144.9607404
MJ Lenderman & the Wind Melbourne headline show at The Forum * SOLD OUT,2025-03-21,19:30,Northcote Theatre,"216 High St, Northcote VIC 3070, Australia",https://www.facebook.com/events/1082413640042863/,-37.7737068,144.9982706
FREQUES 1ST BIRTHDAY,2025-03-21,00:00,Laundry Bar,"50 Johnston St, Fitzroy VIC 3065, Australia",https://www.facebook.com/events/566376706390169/,-37.7983139,144.9764962
Tokyo Groove Jyoshi,2025-03-21,00:00,Bird's Basement,"11 Singers Ln, Melbourne VIC 3000, Australia",https://www.facebook.com/events/4757188084505683/,-37.81114416,144.95680390283175
"""A Safe Place to Breathe"" Intimate Yin Breathwork Sound  Journey Melbourne",2025-03-21,18:00,Prana House,"885 High Street #Level 1 Thornbury, VIC 3071",https://www.eventbrite.com.au/e/a-safe-place-to-breathe-intimate-yin-breathwork-sound-journey-melbourne-tickets-1088494088119?aff=ebdssbdestsearch,-37.7537691,145.0011906
Replicant present Game of Tones V3 Launch & Unexpected (Portugal),2025-03-21,21:00,my aeon,"791 Sydney Road Brunswick, VIC 3056",https://www.eventbrite.com.au/e/replicant-present-game-of-tones-v3-launch-unexpected-portugal-tickets-1245705922949?aff=ebdssbdestsearch,-37.7581868,144.9633301
World Home Economics Day Celebration with HEIA(V),2025-03-21,18:00,Imperial Hotel,"2-8 Bourke Street Melbourne, VIC 3000",https://www.eventbrite.com.au/e/world-home-economics-day-celebration-with-heiav-tickets-1235164994749?aff=ebdssbdestsearch,-37.8112554,144.972688
Wild Rivers 'Everywhere We Go' Australian Tour - Melbourne,2025-03-21,20:00,Prince Bandroom,"29 Fitzroy St, St Kilda VIC 3182, Australia",https://www.facebook.com/events/1738744823645529/,-37.85747233,144.98140261298386
FELONY. – ‘MIDNIGHT MONEY’ TOUR | MELBOURNE,2025-03-21,19:30,280 Sydney Rd,"280 Sydney Road Brunswick, VIC 3056",https://www.eventbrite.com.au/e/felony-midnight-money-tour-melbourne-tickets-1096924523779?aff=ebdssbdestsearch,-37.7711488,144.9616353
"First Sphere Ascension Weekend Course, St. Kilda, VIC",2025-03-21,18:30,"st kilda, vic","TBA at time of registration St Kilda, Melbourne, VIC 3183",https://www.eventbrite.com.au/e/first-sphere-ascension-weekend-course-st-kilda-vic-tickets-1105991192429?aff=ebdssbdestsearch,-37.8670566,144.9997396
Woggy Men in Black-Comedy Show LIVE @Olympic Hotel 21st March 2025,2025-03-21,18:30,Olympic Hotel,"31 Albert Street Preston, VIC 3072",https://www.eventbrite.com.au/e/woggy-men-in-black-comedy-show-live-olympic-hotel-21st-march-2025-tickets-1108829170899?aff=ebdssbdestsearch,-37.7465792,145.021604
OHEMCEE RAP BATTLES: GRAVE MISTAKES,2025-03-21,19:00,Laundry Bar,"50 Johnston Street Fitzroy, VIC 3065",https://www.eventbrite.com.au/e/ohemcee-rap-battles-grave-mistakes-tickets-1223092385249?aff=ebdssbdestsearch,-37.79831,144.976368
Launch Night : Melbourne Fashion Hub 2025,2025-03-21,18:00,196-198 Johnston St,"196-198 Johnston Street Collingwood, VIC 3066",https://www.eventbrite.com.au/e/launch-night-melbourne-fashion-hub-2025-tickets-1209217936399?aff=ebdssbdestsearch,-37.7995008,144.991431
Singles Mingle,2025-03-21,20:00,Ludlow Bar & Dining Room,"6 Riverside Quay Southbank, VIC 3006",https://www.eventbrite.com.au/e/singles-mingle-tickets-1261753662169?aff=ebdssbdestsearch,-37.8208141,144.9639348
A Cocoa Symphony,2025-03-21,18:30,521 Glen Huntly Rd,"521 Glen Huntly Road Elsternwick, VIC 3185",https://www.eventbrite.com/e/a-cocoa-symphony-tickets-1076354749029?aff=ebdssbdestsearch,-37.88526960000001,145.0096944
Postdates Pregnancy Workshop Melbourne 2025,2025-03-21,13:00,The Living Centre,"16 Trinity Place East Melbourne, VIC 3002",https://www.eventbrite.com.au/e/postdates-pregnancy-workshop-melbourne-2025-tickets-851931809977?aff=ebdssbdestsearch,-37.8146191,144.9837102
Daal & Bass Vol.2 - AFRODESI TAKEOVER Ft. DJ Sudi (No Nazar/LA),2025-03-21,22:00,The Emerson Rooftop Bar and Club,"141-145 Commercial Road South Yarra, VIC 3141",https://www.eventbrite.com/e/daal-bass-vol2-afrodesi-takeover-ft-dj-sudi-no-nazarla-tickets-1263594217319?aff=ebdssbdestsearch,-37.8462997,144.9911964
Novel presents Roi Perez & Sophie McAlister,2025-03-21,22:00,Sub Club Melbourne,"Flinders Court Melbourne, VIC 3000",https://www.eventbrite.com.au/e/novel-presents-roi-perez-sophie-mcalister-tickets-1260297296139?aff=ebdssbdestsearch,-37.8179755,144.9644539
3.21瑞恩 & 3.22佳谕单口喜剧专场 - 墨尔本,2025-03-21,19:30,Library at The Dock,"107 Victoria Harbour Promenade Docklands, VIC 3008",https://www.eventbrite.com/e/321-322--tickets-1244736844409?aff=ebdssbdestsearch,-37.8200128,144.9404861
Comedy On Tap - March 21st. St Luja - St Kilda,2025-03-21,19:30,St LuJa | Cocktail Bar,"9 Fitzroy Street St Kilda, VIC 3182",https://www.eventbrite.com/e/comedy-on-tap-march-21st-st-luja-st-kilda-tickets-1264732542079?aff=ebdssbdestsearch,-37.8627907,144.9733795
Friends On Purpose: Speed Friend-ing (18-30 y/o),2025-03-21,19:00,Hoo Haa,"105 Chapel Street Windsor, VIC 3181",https://www.eventbrite.com.au/e/friends-on-purpose-speed-friend-ing-18-30-yo-tickets-1251043878919?aff=ebdssbdestsearch,-37.8540627,144.992758
FREQUES FIRST BIRTHDAY,2025-03-21,22:00,Laundry Bar,"50 Johnston Street Fitzroy, VIC 3065",https://www.eventbrite.com.au/e/freques-first-birthday-tickets-1229572978879?aff=ebdssbdestsearch,-37.79831,144.976368
Health and Safety Symposium: Progressing Safety in the Healthcare Sector,2025-03-21,09:00,"Carson Conference Centre, ANMF (Vic Branch)","535 Elizabeth Street Melbourne, VIC 3000",https://www.eventbrite.com/e/health-and-safety-symposium-progressing-safety-in-the-healthcare-sector-tickets-998150493997?aff=ebdssbdestsearch,-37.805634,144.9587234
Carlos Willengton (ES) * ONE NIGHT ONLY *,2025-03-21,19:00,Howler,"7-11 Dawson St, Brunswick VIC 3056, Australia",https://www.facebook.com/events/1213882050341916/,-37.7720304,144.9596527
[ Per Hammar ] x Trip___ | Fri 21.03.25 | 24Moons,2025-03-21,21:00,24 Moons,"2 Arthurton Rd, Northcote VIC 3070, Australia",https://www.facebook.com/events/1175370584216799/,-37.7691418,144.9982614
Drippin' in Gold: A Melbourne Fil-Oz Music Jam Night!,2025-03-21,00:00,Bar 303,"303 High St, Northcote VIC 3070, Australia",https://www.facebook.com/events/1230207375443452/,-37.7713296,144.99828116650363
Mana on Tap: Magic the Gathering ,2025-03-21,00:00,Fortress Melbourne,"Shop 25/23 Caledonian Ln, Melbourne VIC 3000, Australia",https://www.facebook.com/events/897086662507640/,-37.8120357,144.9642299
Explorer Adventure Tour: Secrets of Australian Plants,2025-03-21,00:00,Botanic gardens,"Birdwood Ave Melbourne VIC 3004, Australia",https://www.facebook.com/events/2038711696631934/,-37.82683271,144.97238679810675
Bebe's Bar - Atomic 80's Retro Power,2025-03-21,00:00,Musicland Melbourne,"1359 Sydney Rd, Fawkner VIC 3060, Australia",https://www.facebook.com/events/1319868292559261/,-37.6916774,144.9585701581541
OHEMCEE RAP BATTLES: GRAVE MISTAKES,2025-03-21,00:00,Laundry Bar,"50 Johnston St, Fitzroy VIC 3065, Australia",https://www.facebook.com/events/510154368762756/,-37.7983139,144.9764962
"Oh, Canada: Advance Screening",2025-03-21,19:00,Cinema Nova,"380 Lygon St, Carlton VIC 3053, Australia",https://www.facebook.com/events/2088936001549795/,-37.7978092,144.9680124
Worth The Wallet // Fri 21st March,2025-03-21,19:00,Kindred Bandroom,"3 Harris St, Footscray VIC 3011, Australia",https://www.facebook.com/events/9381984188524827/,-37.8119001,144.9008247
80s Mania,2025-03-21,20:00,Palais Theatre,"Lower Esplanade, St Kilda VIC 3182, Australia",https://www.facebook.com/events/1496869537622619/,-37.86708671,144.97599656199426
Jeremy Beggs & The Long Road Travellers | The Thornbury Local,2025-03-21,20:00,The Thornbury Local,"635 High St, Thornbury VIC 3071, Australia",https://www.facebook.com/events/1682852018995829/,-37.76165125,144.99987967655426
AU Underground x Revolver Fridays,2025-03-21,00:00,Revolver Upstairs,"Level 2/229 Chapel St, Prahran VIC 3181, Australia",https://www.facebook.com/events/642723651683961/,-37.8505902,144.9933469
MFWF x ST. ALi & The Queen,2025-03-21,17:30,ST. Ali & THE QUEEN,"1 Dhanga Djeembana Walk Melbourne, VIC 3000",https://www.eventbrite.com.au/e/mfwf-x-st-ali-the-queen-tickets-1091492205569?aff=ebdssbdestsearch,-37.8077727,144.958288
Gavin Somers & Pirritu,2025-03-21,20:00,Ragtime Tavern,"206 Tyler St, Preston VIC 3072, Australia",https://www.facebook.com/events/9381454665264749/,-37.7310367,145.0142411
REGULAR BOYS LIVE - Playing your Rock Classics @ Musicland ,2025-03-21,00:00,Musicland Melbourne,"1359 Sydney Rd, Fawkner VIC 3060, Australia",https://www.facebook.com/events/1889969795076059/,-37.6916774,144.9585701581541
Def Repplica - The Australian Def Leppard Tribute with special guests Streetlights - Journey Tribute,2025-03-21,20:00,Lucky 13 Garage,"8 Cochranes Rd, Moorabbin VIC 3189, Australia",https://www.facebook.com/events/1409074846726596/,-37.94349189,145.07036236060654
KOLOMBO | onesixone,2025-03-21,21:00,onesixone,"161 High St, Prahran VIC 3181, Australia",https://www.facebook.com/events/664879835959172/,-37.85425256,145.0112666323418
Ange & the Boss: Puskas in Australia: Extra Q&A added!,2025-03-21,18:40,Cinema Nova,"380 Lygon St, Carlton VIC 3053, Australia",https://www.facebook.com/events/1307689350333160/,-37.7978092,144.9680124
GUITAR WOLF (Japan) Australian Tour March 2025!,2025-03-21,20:30,THE CURTIN (John Curtin hotel),"29 Lygon St, Carlton VIC 3053, Australia",https://www.facebook.com/events/1305073317300030/,-37.8061581,144.9657057
"(Fri, Mar 21) PINKERTON PENDLEBURY",2025-03-21,00:00,George Lane St Kilda,"1 George Ln, St Kilda VIC 3182, Australia",https://www.facebook.com/events/477975028708774/,-37.85997305,144.9780306
Emily Williams – TWISTED LOVE SONGS,2025-03-21,00:00,The Jazz Lab,"27 Leslie St, Brunswick Melbourne, VIC, Australia, Victoria 3056",https://www.facebook.com/events/1763395110897963/,-37.76677279,144.9587122
Japanese Tea Ceremony with Harumi Oshitani,2025-03-22,11:00,Mystik River Gallery,"3 Southgate Avenue Southbank, VIC 3006",https://www.eventbrite.com.au/e/japanese-tea-ceremony-with-harumi-oshitani-tickets-1224378762839?aff=ebdssbdestsearch,-37.820556,144.965833
"Clayton Childbirth education-Labour, Birth & Baby: 22nd March, 2025",2025-03-22,08:30,246 Clayton Rd,"246 Clayton Road Clayton, VIC 3168",https://www.eventbrite.com/e/clayton-childbirth-education-labour-birth-baby-22nd-march-2025-tickets-1131410843289?aff=ebdssbdestsearch,-37.9105091,145.122742
Beer-y Brewery Bus Crawl,2025-03-22,12:00,Moon Dog World,"32-46 Chifley Drive Preston, VIC 3072",https://www.eventbrite.com.au/e/beer-y-brewery-bus-crawl-tickets-1010209663297?aff=ebdssbdestsearch,-37.7525167,145.0296323
Club Dua MELB - Dua Lipa Radical Optimism concert after party at POOF DOOF,2025-03-22,22:00,Chasers Nightclub,"386 Chapel Street South Yarra, VIC 3141",https://www.eventbrite.com.au/e/club-dua-melb-dua-lipa-radical-optimism-concert-after-party-at-poof-doof-tickets-1023762590467?aff=ebdssbdestsearch,-37.8459028,144.9947039
Melbourne Bottomless Booze-Free Lunch - Hosted by Mind The Sip,2025-03-22,13:00,Fable Melbourne,"168 Lonsdale Street #13 Melbourne, VIC 3000",https://www.eventbrite.com.au/e/melbourne-bottomless-booze-free-lunch-hosted-by-mind-the-sip-tickets-1232418580149?aff=ebdssbdestsearch,-37.8105688,144.967374
Christian Singles || Slow Friending Dinner,2025-03-22,18:30,270 Swan St,"270 Swan Street Richmond, VIC 3121",https://www.eventbrite.com.au/e/christian-singles-slow-friending-dinner-tickets-1243822018139?aff=ebdssbdestsearch,-37.82606579999999,144.9992661
AusTubers - Avatars After Hours - TGX Afterparty,2025-03-22,19:00,The Emerald Peacock,"Rooftop Bar 233 Lonsdale Street Melbourne, VIC 3000",https://www.eventbrite.com.au/e/austubers-avatars-after-hours-tgx-afterparty-tickets-1217224544379?aff=ebdssbdestsearch,-37.8115246,144.9655073
Confessions of a Comedian,2025-03-22,20:00,Goff's Comedy,"215 Swan Street Richmond, VIC 3121",https://www.eventbrite.com.au/e/confessions-of-a-comedian-tickets-1224391882079?aff=ebdssbdestsearch,-37.8256242,144.9994168
Melbourne - Hypermobility for Healthcare & Fitness Pro's,2025-03-22,12:00,Alpha Sports Medicine - Newport,"109 Blackshaws Road Newport, VIC 3015",https://www.eventbrite.com.au/e/melbourne-hypermobility-for-healthcare-fitness-pros-tickets-1210208047849?aff=ebdssbdestsearch,-37.83427,144.8741446
Navigating suicidality in therapy: a gestalt perspective,2025-03-22,09:30,Elie - 27 Royal Parade Parkville (Gestalt Centre Training Campus),"27 Royal Parade Parkville, VIC 3052",https://www.eventbrite.com.au/e/navigating-suicidality-in-therapy-a-gestalt-perspective-tickets-1064051660159?aff=ebdssbdestsearch,-37.7962081,144.9574069
A Wild Colonial Feast - Ned Kelly's Final Dinner,2025-03-22,18:30,Old Melbourne Gaol,"377 Russell Street Melbourne, VIC 3000",https://www.eventbrite.com.au/e/a-wild-colonial-feast-ned-kellys-final-dinner-tickets-1037636106527?aff=ebdssbdestsearch,-37.8079389,144.9650674
Megan Kennedy -  Can't Catch the Night. Single and film clip release,2025-03-22,19:00,The Wildflower Picture house & Bar,"318 Saint Georges Road Fitzroy North, VIC 3068",https://www.eventbrite.com.au/e/megan-kennedy-cant-catch-the-night-single-and-film-clip-release-tickets-1232435219919?aff=ebdssbdestsearch,-37.7804231,144.9866238
ANZLRS ASM,2025-03-22,08:00,The Larwill Studio Melbourne - Art Series,"48 Flemington Road Parkville, VIC 3052",https://www.eventbrite.com.au/e/anzlrs-asm-tickets-1218668523359?aff=ebdssbdestsearch,-37.79496090000001,144.9497837
FEMALE ATHLETE SUMMIT,2025-03-22,10:30,Foundry Athletic,"2/6 Wanrua Street #1 Cheltenham, VIC 3192",https://www.eventbrite.com.au/e/female-athlete-summit-tickets-1236731259489?aff=ebdssbdestsearch,-37.9572174,145.0396141
SPANK BEACHBALL 4- MEGA 80S 90S EURO mega BEACHPARTY,2025-03-22,19:00,Beachcomber Cafe and Beach Bar,"18 Jacka Boulevard #10 St Kilda, VIC 3182",https://www.eventbrite.com.au/e/spank-beachball-4-mega-80s-90s-euro-mega-beachparty-tickets-1141667400929?aff=ebdssbdestsearch,-37.86527359999999,144.9717383
An Evening With... Runway Four,2025-03-22,19:00,524 Flinders Street,"524 Flinders Street Melbourne, VIC 3000",https://www.eventbrite.com/e/an-evening-with-runway-four-tickets-1252638648919?aff=ebdssbdestsearch,-37.8203256,144.9567851
Deaf Mental Health Fundraiser,2025-03-22,18:00,"John Pierce Centre, 25/35 High Street, Prahran, VIC 3181","25/35 High Street Prahran, VIC 3130",https://www.eventbrite.com.au/e/deaf-mental-health-fundraiser-tickets-1215926030489?aff=ebdssbdestsearch,-37.8508172,144.9868685
ENS: SATURDAY NIGHT,2025-03-22,22:00,Royal Melbourne Hotel,"629 Bourke Street Melbourne, VIC 3000",https://www.eventbrite.com.au/e/ens-saturday-night-tickets-1117445663059?aff=ebdssbdestsearch,-37.8168528,144.9552468
Siren Sounds,2025-03-22,03:30,Stay Gold,"133 Sydney Road Brunswick, VIC 3056",https://www.eventbrite.com.au/e/siren-sounds-tickets-1131474824659?aff=ebdssbdestsearch,-37.7743822,144.9606172
Pilots Lounge - Second Birthday: The Overnight Flight.,2025-03-22,22:00,Chasers Nightclub,"386 Chapel Street South Yarra, VIC 3141",https://www.eventbrite.com/e/pilots-lounge-second-birthday-the-overnight-flight-tickets-1252570946419?aff=ebdssbdestsearch,-37.8459028,144.9947039
EMO NEVER SLEEPS: SATURDAY NIGHT,2025-03-22,22:00,Royal Melbourne Hotel,"629 Bourke Street Melbourne, VIC 3000",https://www.eventbrite.com.au/e/emo-never-sleeps-saturday-night-tickets-1117445663059?aff=ebdssbdestsearch,-37.8168528,144.9552468
"Beyond The Mask with Bryce Maher, Julia Vogl & Valli Maine",2025-03-22,14:30,75 Reid St,"75 Reid Street Fitzroy North, VIC 3068",https://www.eventbrite.com.au/e/beyond-the-mask-with-bryce-maher-julia-vogl-valli-maine-tickets-1252968796399?aff=ebdssbdestsearch,-37.7853324,144.9807648
Digital Marketing Success Summit Live in Melbourne,2025-03-22,10:00,"GMI @University College, The University of Melbourne","40 College Cres Parkville, VIC 3052",https://www.eventbrite.com.au/e/digital-marketing-success-summit-live-in-melbourne-tickets-1257738011249?aff=ebdssbdestsearch,-37.7922186,144.9590852
"[MEL] MEMORIES XI | TRUNG QUÂN, QUANG LINH, BÙI ANH TUẤN, PHẠM ANH DUY",2025-03-22,07:30,Club Italia Sporting Club,"128-132 Furlong Road Saint Albans, VIC 3021",https://www.eventbrite.com.au/e/mel-memories-xi-trung-quan-quang-linh-bui-anh-tuan-pham-anh-duy-tickets-1214270849799?aff=ebdssbdestsearch,-37.7605756,144.8176151
Damien Neylon x Mesa Verde: The Whole Hog,2025-03-22,05:30,Mesa Verde,"252 Swanston Street #level 6 Melbourne, VIC 3000",https://www.eventbrite.com/e/damien-neylon-x-mesa-verde-the-whole-hog-tickets-1003341279777?aff=ebdssbdestsearch,-37.8120073,144.965137
2025 VHS Reptile & Amphibian Expo brought to you by Minibeasts Enterprises,2025-03-22,09:00,Caulfield Racecourse,"Station Street Caulfield East, VIC 3145",https://www.eventbrite.com.au/e/2025-vhs-reptile-amphibian-expo-brought-to-you-by-minibeasts-enterprises-tickets-1238350743409?aff=ebdssbdestsearch,-37.8768701,145.0384828
The Stranglers,2025-03-22,19:30,Forum Melbourne,"180 Flinders St, Melbourne VIC 3000, Australia",https://premier.ticketek.com.au/shows/show.aspx?sh=STRANGLE25,-37.816602,144.9694678
Eat The Beat  pres: JORIS TURENHOUT (NL),2025-03-22,00:00,New Guernica,"64 Smith St, Collingwood VIC 3066, Australia",https://www.facebook.com/events/370153602859582/,-37.80624775,144.98331211946754
"(Sat, Mar 22) ATHENA LIM (CAN) (George Lane Matinee Sessions)",2025-03-22,00:00,George Lane St Kilda,"1 George Ln, St Kilda VIC 3182, Australia",https://www.facebook.com/events/1390271095756651/,-37.85997305,144.9780306
"C.O.F.F.I.N at Kindred Bandroom, Naarm/Melb w/ Dumb Punts + W.O.M.B.A.T (ALL AGES)",2025-03-22,14:00,Kindred Bandroom,"3 Harris St, Footscray VIC 3011, Australia",https://www.facebook.com/events/4107671349522098/,-37.8119001,144.9008247
"R.U.B x BACKHAND - SPLIT 7"" LAUNCH w/ support from JALANG, SHOCK VICTIM & HETEROPHOBES",2025-03-22,18:00,The Last Chance,"238 Victoria St, Melbourne VIC 3000, Australia",https://www.facebook.com/events/1140011284104680/,-37.8059962,144.9585654
myaeon presents... DOPPEL March 22nd 2025,2025-03-22,21:00,my aeon,"791 Sydney Road Brunswick, VIC 3056",https://www.eventbrite.com.au/e/myaeon-presents-doppel-march-22nd-2025-tickets-1235262446229?aff=ebdssbdestsearch,-37.7581868,144.9633301
BABE RAINBOW BABE RAINBOW,2025-03-22,00:00,Howler,"7-11 Dawson St, Brunswick VIC 3056, Australia",https://www.facebook.com/events/2487600111631569/,-37.7720304,144.9596527
YACHT ROCK REVIVAL @ L13G,2025-03-22,20:00,Lucky 13 Garage,"8 Cochranes Rd, Moorabbin VIC 3189, Australia",https://www.facebook.com/events/1781632399304337/,-37.94349189,145.07036236060654
HYDRA – The Australian TOTO Show | MEMO Music Hall,2025-03-22,19:00,MEMO Music Hall,"88 Acland St, St Kilda VIC 3182, Australia",https://www.facebook.com/events/3856877727963923/,-37.8671902,144.9786817
HYDRA - THE AUSTRALIAN TOTO Show at Memo Music Hall,2025-03-22,00:00,MEMO Music Hall,"88 Acland St, St Kilda VIC 3182, Australia",https://www.facebook.com/events/904794161094994/,-37.8671902,144.9786817
Homemade Natural Skincare,2025-03-22,00:00,CERES Environment Park,"Stewart St & Roberts St East, Brunswick VIC 3056, Australia",https://www.facebook.com/events/642825518218154/,-37.765454,144.9831564
Siren Sounds Festival,2025-03-22,15:30,Stay Gold,"133 Sydney Rd, Brunswick VIC 3056, Australia",https://www.facebook.com/events/2132464593849455/,-37.7743469,144.9607404
Sai Galaxy with Teymori (DJ set) & Horatio Luna,2025-03-22,23:00,The Night Cat,"137-141 Johnston St, Fitzroy VIC 3065, Australia",https://www.facebook.com/events/1190260659424390/,-37.7982971,144.978128
"MONKEY BUTLER, HOWL, Kung Fu Grip & Keggin rock Old Bar ",2025-03-22,20:00,The Old Bar,"74-76 Johnston St, Fitzroy VIC 3065, Australia",https://www.facebook.com/events/619077427586465/,-37.79833,144.97711
Secret Life of Birds Tour,2025-03-22,00:00,Botanic gardens,"Birdwood Ave Melbourne VIC 3004, Australia",https://www.facebook.com/events/1322481645459070/,-37.82683271,144.97238679810675
Rita Satch & Barney McAll – Spirit in the Dark,2025-03-22,00:00,The Jazz Lab,"27 Leslie St, Brunswick Melbourne, VIC, Australia, Victoria 3056",https://www.facebook.com/events/993776358891113/,-37.76677279,144.9587122
Ups and Downs 40th Anniversary Show - Brunswick,2025-03-22,18:30,The Flying Saucer Club,"979-985 Nepean Hwy, Moorabbin VIC 3189, Australia",https://www.facebook.com/events/519773777548154/,-37.9369432,145.0373674
Soirée feat. Ben Rau (DE) Foura (AU) + more,2025-03-22,14:00,Howler,"7-11 Dawson St, Brunswick VIC 3056, Australia",https://www.facebook.com/events/423407477497164/,-37.7720304,144.9596527
St Kilda v Geelong Cats - AFL Reserve,2025-03-22,19:35,Marvel Stadium,"740 Bourke St, Docklands VIC 3008, Australia",https://www.facebook.com/events/639615975418546/,-37.816529,144.94751697668812
Immersion x Sound Shower Vol. 2,2025-03-22,00:00,Second Story,"222A Johnston St, Collingwood VIC 3066, Australia",https://www.facebook.com/events/994805142701138/,-37.79913366,144.9859876802753
EMO DAY PARTY: MARCH 22ND,2025-03-22,14:00,EMO NEVER SLEEPS,"629 Bourke St, Melbourne VIC 3004, Australia",https://www.facebook.com/events/930350772499092/,-37.8167994,144.9552063
Gardens for Bandicoots and Wildlife,2025-03-22,00:00,Botanic gardens,"Birdwood Ave Melbourne VIC 3004, Australia",https://www.facebook.com/events/1157525925995773/,-37.82683271,144.97238679810675
St Kilda v Geelong Cats,2025-03-22,19:35,Marvel Stadium,"740 Bourke St, Docklands VIC 3008, Australia",https://www.facebook.com/events/616602631012307/,-37.816529,144.94751697668812
"C.O.F.F.I.N at Kindred Bandroom, Naarm/Melb w/ Loose Lips + Elvis 2 (18+)",2025-03-22,19:30,Kindred Bandroom,"3 Harris St, Footscray VIC 3011, Australia",https://www.facebook.com/events/1288550482428860/,-37.8119001,144.9008247
Bebe's bar - PRIVATE FUNCTION,2025-03-22,00:00,Musicland Melbourne,"1359 Sydney Rd, Fawkner VIC 3060, Australia",https://www.facebook.com/events/28310092898636792/,-37.6916774,144.9585701581541
Michael Stangel (Charming Sons) Live in the Glasshouse,2025-03-22,00:00,Transport Hotel,"Transport Hotel, Ground Level Federation Square, Melbourne VIC 3000, Australia",https://www.facebook.com/events/1661933588084349/,-37.81835059,144.9683925
ENS: SATURDAY NIGHT ,2025-03-22,00:00,EMO NEVER SLEEPS,"629 Bourke St, Melbourne VIC 3004, Australia",https://www.facebook.com/events/3970380573250302/,-37.8167994,144.9552063
Underground Lovers Moda Discoteca | Live at Punters Club *NEW DATE!,2025-03-22,23:00,Punters Club,"376 Brunswick St, Fitzroy VIC 3065, Australia",https://www.facebook.com/events/8604152376312446/,-37.7960561,144.9790327
Binary Pulse 'Under Granite Skies' Album Launch Tour - Melbourne,2025-03-22,20:00,Bergy Bandroom,"64 Sydney Rd, Brunswick VIC 3056, Australia",https://www.facebook.com/events/583822151074774/,-37.776327,144.9607158
"Black Aleph w/ Black Heart Death Cult, Kuiper (SA) & SANDS",2025-03-22,19:00,Shotkickers,"744 High St, Thornbury VIC 3071, Australia",https://www.facebook.com/events/2390323941315698/,-37.75592655,145.0013923
romaan at The Thornbury Local,2025-03-22,20:00,The Thornbury Local,"635 High St, Thornbury VIC 3071, Australia",https://www.facebook.com/events/1781474389315775/,-37.76165125,144.99987967655426
"Lindsay FIELD, Sam SEE & Glyn MASON with Special Guest Angus Burchall on drums",2025-03-22,00:00,arcobar heatherton,"8 Arco Ln, Heatherton VIC 3202, Australia",https://www.facebook.com/events/1323018065804637/,-37.94673685,145.07837928457485
MAYHEM BALL,2025-03-22,21:00,Laundry Bar,"50 Johnston St, Fitzroy VIC 3065, Australia",https://www.facebook.com/events/1273701213723193/,-37.7983139,144.9764962
"Joe Camilleri & The Black Sorrows @ Palms at Crown, Melbourne",2025-03-22,00:00,Palladium at Crown,"Level 1 Crown Towers, Crown Melbourne, 8 Whiteman St, Southbank VIC 3006, Australia",https://www.facebook.com/events/1145050143918771/,-37.822181,144.959875
Ross Wilson - 50 Years Of Hits Tour - Castlemaine,2025-03-22,19:00,The Flying Saucer Club,"979-985 Nepean Hwy, Moorabbin VIC 3189, Australia",https://www.facebook.com/events/8898864053490847/,-37.9369432,145.0373674
Pjammers,2025-03-22,19:00,Carnegie Hall,"60 Rosstown Rd, Carnegie VIC 3163, Australia",https://www.facebook.com/events/540476378462988/,-37.8864262,145.05686284914034
The Yachtski Brothers,2025-03-22,00:00,Musicland Melbourne,"1359 Sydney Rd, Fawkner VIC 3060, Australia",https://www.facebook.com/events/994669609380312/,-37.6916774,144.9585701581541
"The Stranglers - Forum, Melbourne",2025-03-22,19:30,Forum Melbourne,"154 Flinders St, Melbourne VIC 3000, Australia",https://www.facebook.com/events/489679643774316/,-37.81644145,144.9693768124984
The Neil Diamond Story Feat. Jason Taylor,2025-03-22,20:30,Oakleigh Carnegie RSL,"95/97 Drummond St, Oakleigh VIC 3166, Australia",https://www.facebook.com/events/964798088954043/,-37.8968576,145.08963741959553
Mat Jodrell Quartet,2025-03-22,19:30,Uptown Jazz Cafe,"1/177 Brunswick St, Fitzroy VIC 3065, Australia",https://www.facebook.com/events/1649590565656912/,-37.79705404,144.97869049756974
North Melbourne v Melbourne - AFL Reserve,2025-03-23,15:20,Marvel Stadium,"740 Bourke St, Docklands VIC 3008, Australia",https://www.facebook.com/events/1723693541541909/,-37.816529,144.94751697668812
"BUDDHADATTA (Jpn) FINAL Vic show FREE! SUN 23rd MARCH, 3pm @ The Gem w/ GOLD COAST LEATHERS",2025-03-23,00:00,The Gem Bar and Dining,"289 Wellington St, Collingwood VIC 3066, Australia",https://www.facebook.com/events/1663057585094449/,-37.7963837,144.9875917
The Anima Corps Book Launch,2025-03-23,14:00,MicDrop Carlton (Event Space),"333 Drummond Street Carlton, VIC 3053",https://www.eventbrite.com/e/the-anima-corps-book-launch-tickets-1256436317849?aff=ebdssbdestsearch,-37.7978487,144.9684975
RNB Sunday: One Evening on the Rooftop Vol. III,2025-03-23,18:00,Top Yard Rooftop,"King Street #Rear 60 Melbourne, VIC 3000",https://www.eventbrite.com.au/e/rnb-sunday-one-evening-on-the-rooftop-vol-iii-tickets-1259268468889?aff=ebdssbdestsearch,-37.8149036,144.9549857
Neha Kakkar,2025-03-23,12:00,Margaret Court Arena,"5XHH+G3 Melbourne VIC, Australia",https://premier.ticketek.com.au/shows/show.aspx?sh=KAKKAR25,-37.8211276,144.9776364
groupGig,2025-03-23,15:30,Artful Yoga Gallery,"1 Vale Street St Kilda, VIC 3182",https://www.eventbrite.com/e/groupgig-tickets-1237244334109?aff=ebdssbdestsearch,-37.866167,144.981767
"""Liberate Your Voice"" Workshop with Suntara - Melbourne",2025-03-23,09:00,Prana House,"885 High Street #Level 1 Thornbury, VIC 3071",https://www.eventbrite.com.au/e/liberate-your-voice-workshop-with-suntara-melbourne-tickets-1088514709799?aff=ebdssbdestsearch,-37.7537691,145.0011906
2025 Rippon Lea Estate Concours D'Elegance,2025-03-23,10:00,Rippon Lea Estate,"192 Hotham Street Elsternwick, VIC 3185",https://www.eventbrite.com/e/2025-rippon-lea-estate-concours-delegance-tickets-920622415427?aff=ebdssbdestsearch,-37.8786264,144.9978144
Shit Hot Sunday,2025-03-23,19:00,The Last Chance,"238 Victoria St, Melbourne VIC 3000, Australia",https://www.facebook.com/events/1703977253545743/,-37.8059962,144.9585654
Jack & Ruby (DACY) Live in the Glasshouse,2025-03-23,00:00,Transport Hotel,"Transport Hotel, Ground Level Federation Square, Melbourne VIC 3000, Australia",https://www.facebook.com/events/1348462092825330/,-37.81835059,144.9683925
40+ Lunch Club,2025-03-23,13:30,Neighbourhood Wine,"1 Reid Street Fitzroy North, VIC 3068",https://www.eventbrite.com/e/40-lunch-club-tickets-1105148371529?aff=ebdssbdestsearch,-37.7850504,144.977762
Eltham Longest Lunch: Celebrating Local Flavours,2025-03-23,12:00,Commercial Place,"Commercial Place Eltham, VIC 3095",https://www.eventbrite.com.au/e/eltham-longest-lunch-celebrating-local-flavours-tickets-1010197085677?aff=ebdssbdestsearch,-37.7134241,145.1493962
Vargas Blues Band | Brunswick Ballroom,2025-03-23,18:00,Brunswick Ballroom,"314 Sydney Rd, Brunswick VIC 3056, Australia",https://www.facebook.com/events/759378552935835/,-37.7704205,144.9617083
MFWF - Sips & Snacks: An Interactive Culinary Experience at Taxi Kitchen,2025-03-23,00:00,Taxi Kitchen,"Taxi Kitchen, Transport Hotel, Level 1 Federation Square, Melbourne VIC 3000, Australia",https://www.facebook.com/events/1226557665091782/,-37.81820779,144.9683928
Suzie So Blue + Tom Woodward @ Merri Creek Tavern,2025-03-23,00:00,The Merri Creek Tavern,"111 High St, Northcote VIC 3070, Australia",https://www.facebook.com/events/1614591009200835/,-37.7794356,144.996838
"Marbled Eye (USA) - Live at The Old Bar, Melbourne ",2025-03-23,20:00,The Old Bar,"74-76 Johnston St, Fitzroy VIC 3065, Australia",https://www.facebook.com/events/9475876025803762/,-37.79833,144.97711
Sunday Fundays - The Sociables (Classic Rock),2025-03-23,00:00,Musicland Melbourne,"1359 Sydney Rd, Fawkner VIC 3060, Australia",https://www.facebook.com/events/913622197524420/,-37.6916774,144.9585701581541
The Cherry Poppers Showcase - March Edition,2025-03-23,17:00,Max Watts,"125 Swanston St, Melbourne VIC 3000, Australia",https://www.facebook.com/events/640443671813043/,-37.8147557,144.9659879
Friends On Purpose: Breathwork & Connection,2025-03-23,11:30,No Name Studios | Breathwork,"298 Victoria Street #296 Brunswick, VIC 3056",https://www.eventbrite.com.au/e/friends-on-purpose-breathwork-connection-tickets-1247877347739?aff=ebdssbdestsearch,-37.7673128,144.963179
Domingo Latino - Quarter Street,2025-03-23,18:45,The Night Cat,"137-141 Johnston St, Fitzroy VIC 3065, Australia",https://www.facebook.com/events/641621255144230/,-37.7982971,144.978128
HYDRA - The Australian Toto Show Live Northcote Social Club March 23rd,2025-03-23,20:00,Northcote Social Club,"301 High St, Northcote VIC 3070, Australia",https://www.facebook.com/events/1034216921876525/,-37.771471,144.998414
Gallagath Presents: Eye Of The Claw (Double Single Launch) (with Lili-Violet and Gesunolike),2025-03-23,12:00,The Last Chance,"238 Victoria St, Melbourne VIC 3000, Australia",https://www.facebook.com/events/2415833942110072/,-37.8059962,144.9585654
Sabor Y Ritmo - Afro-Cuban Jazz at Paris Cat,2025-03-23,00:00,Paris Cat Jazz Club,"6 Goldie Pl, Melbourne VIC 3000, Australia",https://www.facebook.com/events/595834670126640/,-37.8133262,144.96060714767358
Esstee Big Band @ Paris Cat!,2025-03-23,18:00,Paris Cat Jazz Club,"6 Goldie Pl, Melbourne VIC 3000, Australia",https://www.facebook.com/events/965904289021595/,-37.8133262,144.96060714767358
North Melbourne v Melbourne,2025-03-23,15:20,Marvel Stadium,"740 Bourke St, Docklands VIC 3008, Australia",https://www.facebook.com/events/1329832854999182/,-37.816529,144.94751697668812
Groove Dimension - 70s/ Funk/ RnB/ Disco/ Soul | MEMO Music Hall,2025-03-23,15:00,MEMO Music Hall,"88 Acland St, St Kilda VIC 3182, Australia",https://www.facebook.com/events/834110992166298/,-37.8671902,144.9786817
Nepathya Live in Melbourne 2025,2025-03-24,19:00,Festival Hall,"300 Dudley St, West Melbourne VIC 3003, Australia",https://www.facebook.com/events/1532235024118991/,-37.8098193,144.9508057
THE FULL ENGLISH,2025-03-24,22:00,The Butterfly Club,"5 Carson Place Melbourne, VIC 3000",https://www.eventbrite.co.uk/e/the-full-english-tickets-1083420141809?aff=ebdssbdestsearch,-37.8154472,144.9652725
ASMR PARTY,2025-03-24,20:30,The Butterfly Club,"5 Carson Place Melbourne, VIC 3000",https://www.eventbrite.co.uk/e/asmr-party-tickets-1082813166329?aff=ebdssbdestsearch,-37.8154472,144.9652725
Op Shop ‘Till You Drop,2025-03-24,17:30,The Butterfly Club,"5 Carson Place Melbourne, VIC 3000",https://www.eventbrite.co.uk/e/op-shop-till-you-drop-tickets-1082801160419?aff=ebdssbdestsearch,-37.8154472,144.9652725
Williamstown Library Nature Play on Monday,2025-03-24,10:30,Williamstown Library,"104 Ferguson Street Williamstown, VIC 3016",https://www.eventbrite.com.au/e/williamstown-library-nature-play-on-monday-tickets-1128204131929?aff=ebdssbdestsearch,-37.85832,144.8961172
DAVINES - Freehand with Confidence Workshop VIC 2025,2025-03-24,10:00,shibui,"139 Toorak Road South Yarra, VIC 3141",https://www.eventbrite.com.au/e/davines-freehand-with-confidence-workshop-vic-2025-tickets-1115916579529?aff=ebdssbdestsearch,-37.8386846,144.991012
Pensive Like A Fox,2025-03-24,19:00,The Butterfly Club,"5 Carson Place Melbourne, VIC 3000",https://www.eventbrite.co.uk/e/pensive-like-a-fox-tickets-1034398603067?aff=ebdssbdestsearch,-37.8154472,144.9652725
Girt By Sea,2025-03-24,17:30,The Butterfly Club,"5 Carson Place Melbourne, VIC 3000",https://www.eventbrite.co.uk/e/girt-by-sea-tickets-1089507629649?aff=ebdssbdestsearch,-37.8154472,144.9652725
A Chance to Address the Amish Rumours,2025-03-24,19:00,The Butterfly Club,"5 Carson Place Melbourne, VIC 3000",https://www.eventbrite.co.uk/e/a-chance-to-address-the-amish-rumours-tickets-1083438617069?aff=ebdssbdestsearch,-37.8154472,144.9652725
The White Powder That Changed My Life,2025-03-24,22:00,The Butterfly Club,"5 Carson Place Melbourne, VIC 3000",https://www.eventbrite.co.uk/e/the-white-powder-that-changed-my-life-tickets-1089365093319?aff=ebdssbdestsearch,-37.8154472,144.9652725
A Couple Decides What to Have For Dinner,2025-03-24,20:30,The Butterfly Club,"5 Carson Place Melbourne, VIC 3000",https://www.eventbrite.co.uk/e/a-couple-decides-what-to-have-for-dinner-tickets-1083475838399?aff=ebdssbdestsearch,-37.8154472,144.9652725
"DAVINES - Freehand with Confidence Workshop Melbourne, VIC",2025-03-24,10:00,shibui,"139 Toorak Road South Yarra, VIC 3141",https://www.eventbrite.com.au/e/davines-freehand-with-confidence-workshop-melbourne-vic-tickets-1115916579529?aff=ebdssbdestsearch,-37.8386846,144.991012
Creative Collab MELBOURNE  hosted by Clive Allwright,2025-03-24,10:00,Salon Baby Hair,"Rear 423 Brunswick Street Fitzroy, VIC 3065",https://www.eventbrite.com.au/e/creative-collab-melbourne-hosted-by-clive-allwright-tickets-1106861966939?aff=ebdssbdestsearch,-37.7943663,144.9789302
Tavern Trivia - FREE Gaming & Pop Culture Trivia,2025-03-24,00:00,Fortress Melbourne,"Shop 25/23 Caledonian Ln, Melbourne VIC 3000, Australia",https://www.facebook.com/events/584700344451993/,-37.8120357,144.9642299
Ginger Root (姜根) | Melbourne,2025-03-24,19:00,Northcote Theatre,"216 High St, Northcote VIC 3070, Australia",https://www.facebook.com/events/1092821652121400/,-37.7737068,144.9982706
"‘Social Sanctuary’ Wild At Heart Takeover with Skink Tank, Clean Beast + Minky Lush",2025-03-24,19:00,Northcote Social Club,"301 High St, Northcote VIC 3070, Australia",https://www.facebook.com/events/1380300646724523/,-37.771471,144.998414
"Ellie Ware, Max Sturm and Strawberry Prince at the Retreat Hotel Brunswick (Front Bar)",2025-03-24,00:00,Retreat Hotel,"Level 1/280 Sydney Rd, Brunswick VIC 3056, Australia",https://www.facebook.com/events/1961663674312799/,-37.7711487,144.9615949
