Event_Title,Date,Time,Venue,Address,url,Latitude,Longitude
ELITE TALKS 2024,28/11/2024,16:30,Kathleen Fitzpatrick Theatre,"The University of Melbounre Parkville, VIC 3052",https://www.eventbrite.com.au/e/elite-talks-2024-registration-1040283254217?aff=ebdssbdestsearch,,
FAT’AZZ LIVE AT ONE2THREE BAR,29/11/2024,19:30,One2three Bar,"123 Queens Parade, Clifton Hill VIC 3068, Australia",https://www.facebook.com/events/878568654378283/,-37.7892833,144.9901391
Jazz and Grooves at Ragtime ,29/11/2024,20:00,Ragtime Tavern,"206 Tyler St, Preston VIC 3072, Australia",https://www.facebook.com/events/906656974302400/,-37.7310367,145.0142411
(SOLD OUT) The LINDA RONSTADT Show | Featuring Lisa Mio & The Wild Dreamers,29/11/2024,15:21,arcobar heatherton,"8 Arco Ln, Heatherton VIC 3202, Australia",https://www.facebook.com/events/1868337756994118/,-37.94673685,145.07837928457485
Hopeless Records 30th Birthday Bash!,29/11/2024,16:36,EMO NEVER SLEEPS,"629 Bourke St, Melbourne VIC 3004, Australia",https://www.facebook.com/events/8620341981386605/,-37.8167994,144.9552063
THE PENNY BLACK PRESENTS...A CHRISTMAS MASH UP,29/11/2024,19:00,The Penny Black,"420 Sydney Rd, Brunswick VIC 3056, Australia",https://www.facebook.com/events/890233243059084/,-37.7679775,144.9621651
Michael Meeking band last gig of the year,29/11/2024,15:27,The Thornbury Local,"635 High St, Thornbury VIC 3071, Australia",https://www.facebook.com/events/577925138057632/,-37.76165125,144.99987967655426
THE RIONS - MELBOURNE - NORTHCOTE THEATRE - HAPPINESS IN PLACES TOUR [LIC/AA],29/11/2024,19:00,Northcote Theatre,"216 High St, Northcote VIC 3070, Australia",https://www.facebook.com/events/461985866827664/,-37.7737068,144.9982706
3:30 Pick Up and Yard Duty at Lucky 13,29/11/2024,20:00,Lucky 13 Garage,"8 Cochranes Rd, Moorabbin VIC 3189, Australia",https://www.facebook.com/events/1575805869716619/,-37.94349189,145.07036236060654
Sniffer Dog / Eagle vs Drone joint Album Launch,29/11/2024,15:43,Bar 303,"303 High St, Northcote VIC 3070, Australia",https://www.facebook.com/events/408121785680711/,-37.7713296,144.99828116650363
Max König @ BAR OUSSOU! ,29/11/2024,22:00,Bar Oussou,"653 Sydney Rd, Brunswick VIC 3056, Australia",https://www.facebook.com/events/1080658566695749/,-37.7618155,144.9628753
Hudson Macushla 'Tried' single launch with Abby Sunborn at Merri Creek Tavern ,29/11/2024,19:30,The Merri Creek Tavern,"111 High St, Northcote VIC 3070, Australia",https://www.facebook.com/events/483483040677607/,-37.7794356,144.996838
An Evening with Andrew De Silva,29/11/2024,18:00,Bird's Basement,"11 Singers Ln, Melbourne VIC 3000, Australia",https://www.facebook.com/events/1020671796414112/,-37.81114416,144.95680390283175
Fotis Vergopoulos | Brunswick Ballroom,29/11/2024,18:30,Brunswick Ballroom,"314 Sydney Rd, Brunswick VIC 3056, Australia",https://www.facebook.com/events/964204142414565/,-37.7704205,144.9617083
"(Fri, Nov 29) BLACKBIRDS F.C. (Single Launch) + MEGAN MAIKE",29/11/2024,15:32,George Lane St Kilda,"1 George Ln, St Kilda VIC 3182, Australia",https://www.facebook.com/events/2888956524605191/,-37.85997305,144.9780306
Beaufort Beats x Revolver Fridays,29/11/2024,15:23,Revolver Upstairs,"Level 2/229 Chapel St, Prahran VIC 3181, Australia",https://www.facebook.com/events/1663607770865411/,-37.8505902,144.9933469
"The Idea of North: Live, actually | Melbourne",29/11/2024,19:30,The Thornbury Theatre,"859 High St, Thornbury VIC 3071, Australia",https://www.facebook.com/events/997685448516863/,-37.754662,145.0011167
"NEVER MIND THE BUZZERS, HERE'S RocKwiz Live!",29/11/2024,19:30,Palais Theatre,"Lower Esplanade, St Kilda VIC 3182, Australia",https://www.facebook.com/events/964344361619456/,-37.86708671,144.97599656199426
"AMPHI & Friends // with Interimm (Live), Bex and Mo",29/11/2024,15:29,Wax Music Lounge,"250 Flinders St, Melbourne VIC 3000, Australia",https://www.facebook.com/events/519102081100164/,-37.8176298,144.9661635
Katchafire - Melbourne *SOLD OUT*,29/11/2024,20:00,The Night Cat,"137-141 Johnston St, Fitzroy VIC 3065, Australia",https://www.facebook.com/events/387135807768962/,-37.7982971,144.978128
Cherry x Addictions (Double Headliner),29/11/2024,19:30,Howler,"7-11 Dawson St, Brunswick VIC 3056, Australia",https://www.facebook.com/events/563744352679178/,-37.7720304,144.9596527
"RADIUM DOLLS | MAN SCOUT SINGLE TOUR, The Curtin, Melbourne",29/11/2024,21:00,THE CURTIN (John Curtin hotel),"29 Lygon St, Carlton VIC 3053, Australia",https://www.facebook.com/events/1580879152527241/,-37.8061581,144.9657057
Cruel Britannia: After Frankenstein,29/11/2024,16:21,Arts Centre Melbourne,"100 St Kilda Rd, Southbank VIC 3004, Australia",https://www.facebook.com/events/7899113556871811/,-37.8216405,144.9683143
Milo Eastwood with Mothafunk at Kindred Bandroom,29/11/2024,20:00,Kindred Bandroom,"3 Harris St, Footscray VIC 3011, Australia",https://www.facebook.com/events/1934297767074884/,-37.8119001,144.9008247
ADHESION - 'UNLEADED' ALBUM LAUNCH,29/11/2024,16:41,Bad Decisions Bar,"46 Johnston St, Fitzroy VIC 3065, Australia",https://www.facebook.com/events/573894678367621/,-37.798246,144.9762881
ALWAYS LIVE and Arts Access Victoria Presents: WESTSIDE SNUG ROCK,29/11/2024,15:40,Mamma Chen's,"42A Albert St, Footscray VIC 3011, Australia",https://www.facebook.com/events/566229132473425/,-37.8047552,144.89727240000002
FightFit Challenge 28,29/11/2024,18:00,Melbourne Pavillion,"135-157 Racecourse Road Kensington, VIC 3031",https://www.eventbrite.com.au/e/fightfit-challenge-28-tickets-1038705444947?aff=ebdssbdestsearch,-37.7890068,144.936461
SHOOTERS SHOOT: NEVER COUNT US OUT,29/11/2024,18:00,3 Street Basketball,"61 Dohertys Road Altona North, VIC 3025",https://www.eventbrite.com/e/shooters-shoot-never-count-us-out-tickets-1085800621889?aff=ebdssbdestsearch,-37.831741,144.825357
ASCENSION EVENTS pres. INDUSTRIA V2,29/11/2024,23:00,Bourke Street Courtyard,"629 Bourke Street Melbourne, VIC 3004",https://www.eventbrite.com/e/ascension-events-pres-industria-v2-tickets-1061327231319?aff=ebdssbdestsearch,-37.8168528,144.9552468
Friends On Purpose: Friend Happy Hour,29/11/2024,19:00,Champagne Problems,"238 Little Collins Street Melbourne, VIC 3000",https://www.eventbrite.com.au/e/friends-on-purpose-friend-happy-hour-tickets-1050213074577?aff=ebdssbdestsearch,-37.8142781,144.9666247
SOS X FITSTOP FRIDAYS,29/11/2024,18:30,Fitstop South Yarra,"36 Garden Street South Yarra, VIC 3141",https://www.eventbrite.co.uk/e/sos-x-fitstop-fridays-tickets-1093910137669?aff=ebdssbdestsearch,-37.8434804,144.9970069
END OF EXAMS PARTY,29/11/2024,22:00,Key Club,"117 Lonsdale Street #Level 2 Melbourne, VIC 3000",https://www.eventbrite.com.au/e/end-of-exams-party-tickets-1072017716849?aff=ebdssbdestsearch,-37.8105172,144.9688196
Suck My Kiss - The Aus Red Hot Chili Peppers Tribute - with Killing in the Dame ,29/11/2024,15:07,Musicland Melbourne,"1359 Sydney Rd, Fawkner VIC 3060, Australia",https://www.facebook.com/events/984429260101844/,-37.6916774,144.9585701581541
DSM Christmas Market,29/11/2024,17:00,Deutsche Schule Melbourne,"96 Barkly Street Fitzroy North, VIC 3068",https://www.eventbrite.com.au/e/dsm-christmas-market-tickets-1023140399477?aff=ebdssbdestsearch,-37.77889265,144.9829291370925
Cloning | Melbourne | Australian Tour 2024 | The Workers Club,29/11/2024,20:00,The Workers Club,"51 Brunswick St, Fitzroy VIC 3065, Australia",https://www.facebook.com/events/1569289953942033/,-37.8055776,144.9769450659087
FEVERDREAMS  with Psychic Social Club + FJ & the Switch,29/11/2024,19:30,280 Sydney Rd,"280 Sydney Road Brunswick, VIC 3056",https://www.eventbrite.com.au/e/feverdreams-with-psychic-social-club-fj-the-switch-tickets-1059262495639?aff=ebdssbdestsearch,-37.7711488,144.9616353
TAMASHA presents Ruffest DJ Moh x DJ Kym Nickdee  Melbourne Takeover,29/11/2024,22:00,REVEL NIGHTCLUB MELBOURNE,"52 Albert Road South Melbourne, VIC 3205",https://www.eventbrite.com.au/e/tamasha-presents-ruffest-dj-moh-x-dj-kym-nickdee-melbourne-takeover-tickets-1070511431509?aff=ebdssbdestsearch,-37.8341181,144.97095
GYPSY!  The Australian Fleetwood Mac Tribute Show,29/11/2024,18:30,Olympic Hotel,"31 Albert Street Preston, VIC 3072",https://www.eventbrite.com.au/e/gypsy-the-australian-fleetwood-mac-tribute-show-tickets-1023087731947?aff=ebdssbdestsearch,-37.74658925,145.0214950221884
Linguas Awards and Honors Night,29/11/2024,18:30,Diesel Bar & Eatery,"202 Little Lonsdale Street Melbourne, VIC 3000",https://www.eventbrite.com.au/e/linguas-awards-and-honors-night-tickets-1077792017939?aff=ebdssbdestsearch,-37.8107335,144.9634703
ANALOGUE DATING: Speed Dating at EL CAMINO (25 to 35),29/11/2024,19:00,El Camino Cantina Fitzroy,"222 Brunswick Street Fitzroy, VIC 3065",https://www.eventbrite.com.au/e/analogue-dating-speed-dating-at-el-camino-25-to-35-tickets-1063875473179?aff=ebdssbdestsearch,-37.8009273,144.9782313
Mentor Walks Melbourne: Get guidance and grow your network,29/11/2024,7:10,"Under King Edward VII Monument (behind the floral clock), Queen Victoria Gardens","Saint Kilda Road Melbourne, VIC 3004",https://www.eventbrite.com.au/e/mentor-walks-melbourne-get-guidance-and-grow-your-network-tickets-856746430637?aff=ebdssbdestsearch,,
"Ablaze 'It's A Most Wonderful Time For A Beer', Cherry Bar FRI NOV 29",29/11/2024,20:00,"Cherry Bar, Little Collins Street, Melbourne VIC, Australia","68 Little Collins Street Melbourne, VIC 3000",https://www.eventbrite.com.au/e/ablaze-its-a-most-wonderful-time-for-a-beer-cherry-bar-fri-nov-29-tickets-1066272392429?aff=ebdssbdestsearch,-37.8129293,144.9714986
Rock The Boat With MenXclusive - Masquerade,29/11/2024,19:30,131 Harbour Esplanade,"131 Harbour Esplanade Docklands, VIC 3008",https://www.eventbrite.com.au/e/rock-the-boat-with-menxclusive-masquerade-tickets-921273853897?aff=ebdssbdestsearch,-37.8170713,144.9453813
Chapel Boxing Fight Night,29/11/2024,18:00,"Chapel Boxing and Fitness, Chapel Street, St Kilda VIC, Australia","2 Chapel Street St Kilda, VIC 3182",https://www.eventbrite.com/e/chapel-boxing-fight-night-tickets-1047744300407?aff=ebdssbdestsearch,-37.8588974,144.9927354
THE REGROWTH TOUR - NAARM,29/11/2024,20:00,Laundry Bar,"50 Johnston St, Fitzroy VIC 3065, Australia",https://www.facebook.com/events/1559493408003884/,-37.7983139,144.9764962
Euphoria Ecstatic Experience,29/11/2024,7:30,Studio Take Care,"1 Pitt Street Brunswick, VIC 3056",https://www.eventbrite.com.au/e/euphoria-ecstatic-experience-tickets-1037527100487?aff=ebdssbdestsearch,-37.7711984,144.9711714
Twisted XL feat. S.P.Y | Alcemist | Formula | Burt Cope,29/11/2024,21:00,The Third Day,"290 Macaulay Road North Melbourne, VIC 3051",https://www.eventbrite.com.au/e/twisted-xl-feat-spy-alcemist-formula-burt-cope-tickets-1054466380329?aff=ebdssbdestsearch,-37.7946786,144.9367079
Buena Vista Social Club | MEMO Music Hall,29/11/2024,19:00,MEMO Music Hall,"88 Acland St, St Kilda VIC 3182, Australia",https://www.facebook.com/events/1035953444748142/,-37.8671902,144.9786817
BEEFCAKE  This Friday,29/11/2024,21:00,New Guernica,"64 Smith St, Collingwood VIC 3066, Australia",https://www.facebook.com/events/1062987032227999/,-37.80624775,144.98331211946754
"Bollywood Club - BOLLYWOOD RAVE at Crown, Melbourne",29/11/2024,21:30,Crown Melbourne,"8 Whiteman Street Southbank, VIC 3006",https://www.eventbrite.com.au/e/bollywood-club-bollywood-rave-at-crown-melbourne-tickets-1048636609327?aff=ebdssbdestsearch,-37.8234367,144.9580861
POPPERS nothing but pop bangers! FRI NOV 29,29/11/2024,21:00,Yah Yahs,"99 Smith Street Fitzroy, VIC 3065",https://www.eventbrite.com.au/e/poppers-nothing-but-pop-bangers-fri-nov-29-tickets-1095724995959?aff=ebdssbdestsearch,-37.8058545,144.982966
G TANO - FAREWELL OPEN STUDIO !,29/11/2024,15:04,Open Studio,"204 High St, Northcote VIC 3070, Australia",https://www.facebook.com/events/528218920102132/,-37.7742382,144.9981587
Lottie Davitt with the Ibis Island band.,29/11/2024,15:04,Open Studio,"204 High St, Northcote VIC 3070, Australia",https://www.facebook.com/events/580292704323252/,-37.7742382,144.9981587
Tora Live in Melbourne @ 170 Russell,29/11/2024,19:00,170 Russell,"170 Russell St, Melbourne VIC 3000, Australia",https://www.facebook.com/events/549701127413257/,-37.8120109,144.9679369
turbo422 > 30.11,30/11/2024,22:00,turbo422,"422 Little Collins Street Melbourne, VIC 3000",https://www.eventbrite.com.au/e/turbo422-3011-tickets-1094926126519?aff=ebdssbdestsearch,-37.8160523,144.9603782
Yarra Valley Wine Tasting Tour | Melbourne Working Holiday Girls,30/11/2024,9:30,74 Spring St,"74 Spring Street East Melbourne, VIC 3002",https://www.eventbrite.com.au/e/yarra-valley-wine-tasting-tour-melbourne-working-holiday-girls-tickets-1061855962769?aff=ebdssbdestsearch,-37.8121744,144.9737322
"La Descarga Album Launch ""Fiesta de Corazon"" w/ Agobloco and DJ Paprika",30/11/2024,13:00,Brunswick Ballroom,"314 Sydney Rd, Brunswick VIC 3056, Australia",https://www.facebook.com/events/1352705972104342/,-37.7704205,144.9617083
Vaudeville Smash | Christmas Spectacular | Brunswick Ballroom | with Zevon Lee,30/11/2024,19:00,Brunswick Ballroom,"314 Sydney Rd, Brunswick VIC 3056, Australia",https://www.facebook.com/events/451153044154591/,-37.7704205,144.9617083
Grand WaZoo,30/11/2024,18:00,Bird's Basement,"11 Singers Ln, Melbourne VIC 3000, Australia",https://www.facebook.com/events/857820862910756/,-37.81114416,144.95680390283175
ARTHOUSE SELECTIVE presents PRESSED,30/11/2024,12:00,Monphell House,"7-9 Brunswick Road Brunswick East, VIC 3057",https://www.eventbrite.com.au/e/arthouse-selective-presents-pressed-tickets-1075310796539?aff=ebdssbdestsearch,-37.778799,144.9772746
Darebin Summer 2024 Chess Tournament,30/11/2024,13:00,Shire Hall Preston,"286 Gower Street Preston, VIC 3072",https://www.eventbrite.com.au/e/darebin-summer-2024-chess-tournament-registration-1052298652597?aff=ebdssbdestsearch,-37.7400654,145.0040959
CARABINERS / Fundraiser for Stell's Gender Affirmation,30/11/2024,15:40,Mamma Chen's,"42A Albert St, Footscray VIC 3011, Australia",https://www.facebook.com/events/1591460438244444/,-37.8047552,144.89727240000002
"An Afternoon With Swim State, Violet & No Turns",30/11/2024,14:00,280 Sydney Rd,"280 Sydney Road Brunswick, VIC 3056",https://www.eventbrite.com.au/e/an-afternoon-with-swim-state-violet-no-turns-tickets-1047677009137?aff=ebdssbdestsearch,-37.7711488,144.9616353
1D - Up All Night Anniversary,30/11/2024,23:00,Stay Gold,"133 Sydney Rd Brunswick Melbourne, VIC 3056",https://www.eventbrite.com.au/e/1d-up-all-night-anniversary-tickets-1081290662479?aff=ebdssbdestsearch,-37.7743822,144.9606172
"Urban Cocktail Trail // Collingwood (Melbourne, VIC)",30/11/2024,13:00,Collingwood,"Collingwood Collingwood, VIC 3066",https://www.eventbrite.com/e/urban-cocktail-trail-collingwood-melbourne-vic-tickets-979058760107?aff=ebdssbdestsearch,-37.8071124,144.9896458
VizConf 2024,30/11/2024,9:00,Kensington Town Hall,"30-34 Bellair Street Kensington, VIC 3031",https://www.eventbrite.com/e/vizconf-2024-tickets-987240682457?aff=ebdssbdestsearch,-37.7894484,144.9286227
"HOMEBASS feat. EPUTTY, BOYDEX & LENG LEWN",30/11/2024,15:43,Bar 303,"303 High St, Northcote VIC 3070, Australia",https://www.facebook.com/events/566445886073913/,-37.7713296,144.99828116650363
Yasss Queens Park 2024,30/11/2024,14:00,Queens Park,"Kellaway Avenue Moonee Ponds, VIC 3039",https://www.eventbrite.com.au/e/yasss-queens-park-2024-tickets-1021436974487?aff=ebdssbdestsearch,-37.7640651,144.9246036
CLIQUED x FOZZA PRESENTS: BITTER CREATURES,30/11/2024,20:00,Wolfhound Function and Event Space,"386-388 Brunswick Street Fitzroy, VIC 3065",https://www.eventbrite.com/e/cliqued-x-fozza-presents-bitter-creatures-tickets-1078505150939?aff=ebdssbdestsearch,-37.7956217,144.9791363
Beat Science @ BAR OUSSOU!,30/11/2024,22:00,Bar Oussou,"653 Sydney Rd, Brunswick VIC 3056, Australia",https://www.facebook.com/events/943993847787122/,-37.7618155,144.9628753
FULLY AMTD,30/11/2024,17:30,Stay Gold,"133 Sydney Rd Brunswick Melbourne, VIC 3056",https://www.eventbrite.com.au/e/fully-amtd-tickets-1082785603889?aff=ebdssbdestsearch,-37.7743822,144.9606172
MELBOURNE SINGLES NIGHT -Summer Edition! Deluxe Singles Party,30/11/2024,20:00,595 Mt Alexander Rd,"595 Mount Alexander Road Moonee Ponds, VIC 3039",https://www.eventbrite.com.au/e/melbourne-singles-night-summer-edition-deluxe-singles-party-tickets-1075818485049?aff=ebdssbdestsearch,-37.768313,144.925046
Rainbow Beach Tennis Pride Day,30/11/2024,9:30,"St Kilda West Beach, Saint Kilda West VIC, Australia","St Kilda West Beach, Saint Kilda West VIC, Australia Saint Kilda West, VIC 3182",https://www.eventbrite.com.au/e/rainbow-beach-tennis-pride-day-tickets-1070359818029?aff=ebdssbdestsearch,-37.858282,144.9670149
HAMISH ANDERSON -  ELECTRIC ALBUM LAUNCH ,30/11/2024,19:30,The Toff,"2f/252 Swanston St, Melbourne VIC 3000, Australia",https://www.facebook.com/events/1263990794639927/,-37.80660325,144.9628141258931
artspace exhibition 2024,30/11/2024,10:30,Glenroy Community Hub,"50 Wheatsheaf Road Glenroy, VIC 3046",https://www.eventbrite.com.au/e/artspace-exhibition-2024-tickets-995823122767?aff=ebdssbdestsearch,-37.7079717,144.9231182
AFRO MOSES - The Spirit of Bob Marley/ Lucky Dube @ BAR OUSSOU!,30/11/2024,18:00,Bar Oussou,"653 Sydney Rd, Brunswick VIC 3056, Australia",https://www.facebook.com/events/544873758255336/,-37.7618155,144.9628753
"Ronnie Simmons & The Redback Spiders live at Cherry Bar, Saturday Nov 30th",30/11/2024,20:30,"Cherry Bar, Little Collins Street, Melbourne VIC, Australia","68 Little Collins Street Melbourne, VIC 3000",https://www.eventbrite.com.au/e/ronnie-simmons-the-redback-spiders-live-at-cherry-bar-saturday-nov-30th-tickets-1022182775197?aff=ebdssbdestsearch,-37.8129293,144.9714986
John Williamson 'In Concert',30/11/2024,20:00,Palais Theatre,"Lower Esplanade, St Kilda VIC 3182, Australia",https://www.facebook.com/events/875899220610697/,-37.86708671,144.97599656199426
The Journey | Alchemy Trance Classics feat. Binary Finary (2 Hour Classics Set),30/11/2024,16:00,24 Moons,"2 Arthurton Rd, Northcote VIC 3070, Australia",https://www.facebook.com/events/1202441690991267/,-37.7691418,144.9982614
Alchemy | The Journey | Trance Classics feat Binary Finary,30/11/2024,20:00,24 Moons,"2 Arhurton Road Northcote, VIC 3070",https://www.eventbrite.com.au/e/alchemy-the-journey-trance-classics-feat-binary-finary-tickets-1037328576697?aff=ebdssbdestsearch,,
Williamstown Beer and Cider Festival 2024,30/11/2024,12:00,Seaworks Maritime Precinct,"82 Nelson Place Williamstown, VIC 3016",https://www.eventbrite.com.au/e/williamstown-beer-and-cider-festival-2024-tickets-954442331707?aff=ebdssbdestsearch,-37.8634293,144.9069007
Rebellion Muaythai 32: 63.50Kg Eliminator // Roots 27: Ring the Alarm,30/11/2024,16:00,Melbourne Pavilion,"135-157 Racecourse Road Kensington, VIC 3031",https://www.eventbrite.com/e/rebellion-muaythai-32-6350kg-eliminator-roots-27-ring-the-alarm-tickets-1066632870629?aff=ebdssbdestsearch,-37.7889557,144.9363556
FULLY AMTD 2024,30/11/2024,17:00,Stay Gold,"133 Sydney Rd, Brunswick VIC 3056, Australia",https://www.facebook.com/events/2021353361659738/,-37.7743469,144.9607404
Up All Night Anniversary Party,30/11/2024,11:00,Stay Gold,"133 Sydney Rd, Brunswick VIC 3056, Australia",https://www.facebook.com/events/1201626830924024/,-37.7743469,144.9607404
"BLOODLUST [NL] | Presented by Debaser, Pharmacy & XERA",30/11/2024,22:00,Platform One,"375 Flinders Street Melbourne, VIC 3000",https://www.eventbrite.com/e/bloodlust-nl-presented-by-debaser-pharmacy-xera-tickets-1052291089977?aff=ebdssbdestsearch,-37.8191789,144.9621961
Daisypicker @ Mamma Chen’s with April May & Lucy Harrington,30/11/2024,15:40,Mamma Chen's,"42A Albert St, Footscray VIC 3011, Australia",https://www.facebook.com/events/1194216934967309/,-37.8047552,144.89727240000002
Book Signing & Private Q & A  - Melbourne,30/11/2024,13:00,Darussalam Melbourne,"397 Sydney Road Coburg, VIC 3058",https://www.eventbrite.com.au/e/book-signing-private-q-a-melbourne-tickets-1071517801589?aff=ebdssbdestsearch,-37.7441958,144.9657113
"EAT THE BEAT FESTIVAL ft. CARL COX, CHRIS LIEBING, LILLY PALMER, MHA IRI",30/11/2024,15:00,PICA (Port Melbourne Industrial Centre for the Arts),"1 Thackray Road Port Melbourne, VIC 3207",https://www.eventbrite.com.au/e/eat-the-beat-festival-ft-carl-cox-chris-liebing-lilly-palmer-mha-iri-tickets-904718947727?aff=ebdssbdestsearch,-37.8284751,144.9254729
The Cake,30/11/2024,18:00,The Coopers Inn,"282 Exhibition Street Melbourne, VIC 3000",https://www.eventbrite.com.au/e/the-cake-tickets-1052321771747?aff=ebdssbdestsearch,-37.809136,144.9695482
Friends On Purpose: Picnic Mixer,30/11/2024,11:00,Treasury Gardens,"2-18 Spring Street East Melbourne, VIC 3002",https://www.eventbrite.com.au/e/friends-on-purpose-picnic-mixer-tickets-1049320976287?aff=ebdssbdestsearch,-37.8151334,144.9760012
Fleetwood Max | Live @ Pockets Tullamarine,30/11/2024,20:00,Pockets Tullamarine,"217 Mickleham Road #11 Tullamarine, VIC 3049",https://www.eventbrite.com.au/e/fleetwood-max-live-pockets-tullamarine-tickets-928920916467?aff=ebdssbdestsearch,-37.6854021,144.8807298
Disco X (Sat 2:30pm),30/11/2024,14:30,Transit Dance (Brunswick),"64 Dawson Street Brunswick, VIC 3056",https://www.eventbrite.com.au/e/disco-x-sat-230pm-tickets-1045281494087?aff=ebdssbdestsearch,-37.7701752,144.9559255
The Elvis Big Band - Christmas Spectacular!  Northcote Theatre Nov 30th,30/11/2024,19:00,Northcote Theatre,"216 High St, Northcote VIC 3070, Australia",https://www.facebook.com/events/866374311797614/,-37.7737068,144.9982706
Soul Chisel @ Oakleigh Music Hall,30/11/2024,20:30,Oakleigh Carnegie RSL,"95/97 Drummond St, Oakleigh VIC 3166, Australia",https://www.facebook.com/events/3513486142296206/,-37.8968576,145.08963741959553
"CHI WOW WAH CITY - Melbourne - Viken Arman (FR), Uone, Amaru Tribe-Live + ",30/11/2024,16:18,The Night Cat,"137-141 Johnston St, Fitzroy VIC 3065, Australia",https://www.facebook.com/events/491857240259009/,-37.7982971,144.978128
SATURDAY NIGHT PARTY AT YAH'S (till 5AM),30/11/2024,21:00,Yah Yahs,"99 Smith Street Fitzroy, VIC 3065",https://www.eventbrite.com.au/e/saturday-night-party-at-yahs-till-5am-tickets-1094850279659?aff=ebdssbdestsearch,-37.8058545,144.982966
Dub Divination Sound System Presents... Bergy Session,30/11/2024,16:08,Bergy Bandroom,"64 Sydney Rd, Brunswick VIC 3056, Australia",https://www.facebook.com/events/1236709104203511/,-37.776327,144.9607158
Sitar Recital by Shri Susanta Chowdhury,30/11/2024,7:30,Armagh Mansion,"226 Kooyong Road Toorak, VIC 3142",https://www.eventbrite.com.au/e/sitar-recital-by-shri-susanta-chowdhury-tickets-942364877717?aff=ebdssbdestsearch,-37.8405019,145.0238136
"TGDE & UO present ""The UNDROVTH Showcase""",30/11/2024,16:05,Kindred Bandroom,"3 Harris St, Footscray VIC 3011, Australia",https://www.facebook.com/events/584646327236308/,-37.8119001,144.9008247
"The Offtopics Album Launch ""Tomorrow Is A Month Away""",30/11/2024,19:00,280 Sydney Rd,"280 Sydney Road Brunswick, VIC 3056",https://www.eventbrite.com.au/e/the-offtopics-album-launch-tomorrow-is-a-month-away-tickets-1023142686317?aff=ebdssbdestsearch,-37.7711488,144.9616353
Techno vs Psytrance November Edition (Masquerade),30/11/2024,21:00,my aeon,"791 Sydney Road Brunswick, VIC 3056",https://www.eventbrite.com.au/e/techno-vs-psytrance-november-edition-masquerade-tickets-1078930021739?aff=ebdssbdestsearch,-37.7581868,144.9633301
"Mousik-ί Festival 2024- Featuring Anatreptix, Cats & the Canary, Delyrium and H Division ",30/11/2024,19:30,Northcote Social Club,"301 High St, Northcote VIC 3070, Australia",https://www.facebook.com/events/977051831099353/,-37.771471,144.998414
Casaloca Latin Night at The George on Collins,30/11/2024,22:00,The George on Collins,"162-168 Collins Street Melbourne, VIC 3000",https://www.eventbrite.com.au/e/casaloca-latin-night-at-the-george-on-collins-tickets-1086543182909?aff=ebdssbdestsearch,-37.8148781,144.9680956
The Gadflys | MEMO Music Hall,30/11/2024,19:00,MEMO Music Hall,"88 Acland St, St Kilda VIC 3182, Australia",https://www.facebook.com/events/986751182953996/,-37.8671902,144.9786817
Bebe's Bar - Beyond Vegas - ALBUM LAUNCH,30/11/2024,15:07,Musicland Melbourne,"1359 Sydney Rd, Fawkner VIC 3060, Australia",https://www.facebook.com/events/868742255350339/,-37.6916774,144.9585701581541
"SLOW GRIND FEVER #107 (*9pm, *CASH ONLY*)",30/11/2024,15:30,Bar Open,"317 Brunswick St, Fitzroy VIC 3065, Australia",https://www.facebook.com/events/1117439066603008/,-37.79773,144.978425
"Little Quirks - The Workers Club, FITZROY, VIC",30/11/2024,19:00,The Workers Club,"51 Brunswick St, Fitzroy VIC 3065, Australia",https://www.facebook.com/events/340764539005256/,-37.8055776,144.9769450659087
FREE ENTRY  CONTE MILANO - Cocktails and Grooves! ,30/11/2024,21:00,Open Studio,"204 High St, Northcote VIC 3070, Australia",https://www.facebook.com/events/567092599098608/,-37.7742382,144.9981587
Ella Fence & Danii: Indie Pop meets RnB - at Open Studio,30/11/2024,15:04,Open Studio,"204 High St, Northcote VIC 3070, Australia",https://www.facebook.com/events/979600963925160/,-37.7742382,144.9981587
"(Sat, Nov 30) PEPPERCREEK REVIVAL (George Lane Matinee Sessions)",30/11/2024,15:32,George Lane St Kilda,"1 George Ln, St Kilda VIC 3182, Australia",https://www.facebook.com/events/517026814446745/,-37.85997305,144.9780306
Blue Windows - Full Band - at The Thornbury Local,30/11/2024,15:27,The Thornbury Local,"635 High St, Thornbury VIC 3071, Australia",https://www.facebook.com/events/911754993922907/,-37.76165125,144.99987967655426
GN'R - Guns & Roses | The Aus Motley Crue Show | RIOT ACT - Skid Row,30/11/2024,15:07,Musicland Melbourne,"1359 Sydney Rd, Fawkner VIC 3060, Australia",https://www.facebook.com/events/855251476329965/,-37.6916774,144.9585701581541
DARTZ (NZ) live at Last Chance with ROMCOM & Hail Mary Jane,30/11/2024,19:00,The Last Chance,"238 Victoria St, Melbourne VIC 3000, Australia",https://www.facebook.com/events/2277593902595044/,-37.8059962,144.9585654
 INXSIVE live at LUCKY 13 GARAGE,30/11/2024,20:00,Lucky 13 Garage,"8 Cochranes Rd, Moorabbin VIC 3189, Australia",https://www.facebook.com/events/3469856299985636/,-37.94349189,145.07036236060654
Always Live presents Dug By Us live podcast show,30/11/2024,13:00,The Workers Club,"51 Brunswick St, Fitzroy VIC 3065, Australia",https://www.facebook.com/events/2262996257393322/,-37.8055776,144.9769450659087
(Last Tickets!) ELVIS by Anthony Petrucci | Christmas Special Dinner & Show,30/11/2024,15:21,arcobar heatherton,"8 Arco Ln, Heatherton VIC 3202, Australia",https://www.facebook.com/events/1957077524754581/,-37.94673685,145.07837928457485
"RVRB presents .VRIL live (Delsin, Dystopian, Giegling - DE)",30/11/2024,18:00,Howler,"7-11 Dawson St, Brunswick VIC 3056, Australia",https://www.facebook.com/events/924051169585668/,-37.7720304,144.9596527
"Gallery Recs - Glaze ft. Amaliah (UK), Human Movement, Stev Zar & Ruby May Moon",30/11/2024,15:19,Howler,"7-11 Dawson St, Brunswick VIC 3056, Australia",https://www.facebook.com/events/8705244386185188/,-37.7720304,144.9596527
Legends of Sunbury - 50th Anniversary Tour '74 to '24 // Kindred Bandroom,1/12/2024,13:30,Kindred Bandroom,"3 Harris St, Footscray VIC 3011, Australia",https://www.facebook.com/events/1175465936892121/,-37.8119001,144.9008247
Peter Vadiveloo at the Thornbury Local,1/12/2024,0:00,The Thornbury Local,"635 High St, Thornbury VIC 3071, Australia",https://www.facebook.com/events/727069972929444/,-37.76165125,144.99987967655426
Sunset Session Jazz Jam,1/12/2024,0:00,Ragtime Tavern,"206 Tyler St, Preston VIC 3072, Australia",https://www.facebook.com/events/732212515419065/,-37.7310367,145.0142411
Sunday Fundays - THE HERBERTS LAST SHOW AT MUSICLAND FOR 2024!,1/12/2024,0:00,Musicland Melbourne,"1359 Sydney Rd, Fawkner VIC 3060, Australia",https://www.facebook.com/events/858666056479424/,-37.6916774,144.9585701581541
Domingo Latino - La 45,1/12/2024,18:45,The Night Cat,"137-141 Johnston St, Fitzroy VIC 3065, Australia",https://www.facebook.com/events/446910421374355/,-37.7982971,144.978128
 FREE SUNDAY LIVE MUSIC | Featuring Geoff 'Coxy' Cox on Drums,1/12/2024,0:00,arcobar heatherton,"8 Arco Ln, Heatherton VIC 3202, Australia",https://www.facebook.com/events/1986174348562490/,-37.94673685,145.07837928457485
"(Sun, Dec 1) THIS IS JONI - THE MUSIC OF JONI MITCHELL",1/12/2024,0:00,George Lane St Kilda,"1 George Ln, St Kilda VIC 3182, Australia",https://www.facebook.com/events/1238225203958014/,-37.85997305,144.9780306
MOTEL by Tim Ross & Kit Warhurst | Brunswick Ballroom,1/12/2024,18:30,Brunswick Ballroom,"314 Sydney Rd, Brunswick VIC 3056, Australia",https://www.facebook.com/events/1559389414934099/,-37.7704205,144.9617083
A Symphony - A Grand Overture of Movement and Music,1/12/2024,19:30,Palais Theatre,"Lower Esplanade, St Kilda VIC 3182, Australia",https://www.facebook.com/events/2535863439939336/,-37.86708671,144.97599656199426
Sugargum @ The Workers Club ,1/12/2024,19:00,The Workers Club,"51 Brunswick St, Fitzroy VIC 3065, Australia",https://www.facebook.com/events/1469374653737888/,-37.8055776,144.9769450659087
Afro Moses: Spirit of Nelson Mandela @ BAR OUSSOU!,1/12/2024,20:00,Bar Oussou,"653 Sydney Rd, Brunswick VIC 3056, Australia",https://www.facebook.com/events/1307729773579590/,-37.7618155,144.9628753
Mick Pealing & Nick Charles @ Oakleigh Carnegie RSL - Carnegie Room,1/12/2024,14:30,Oakleigh Carnegie RSL,"95/97 Drummond St, Oakleigh VIC 3166, Australia",https://www.facebook.com/events/544003634753497/,-37.8968576,145.08963741959553
Douglas McDowell @ BAR OUSSOU!,1/12/2024,16:00,Bar Oussou,"653 Sydney Rd, Brunswick VIC 3056, Australia",https://www.facebook.com/events/866828465622916/,-37.7618155,144.9628753
Matinee: Day One ,1/12/2024,13:00,The Workers Club,"51 Brunswick St, Fitzroy VIC 3065, Australia",https://www.facebook.com/events/860269399636213/,-37.8055776,144.9769450659087
pale tides SINGLE LAUNCH @ Mamma Chen’s w/ Liam Morton + Nic Bosnic + Hann.,1/12/2024,0:00,Mamma Chen's,"42A Albert St, Footscray VIC 3011, Australia",https://www.facebook.com/events/3769450366601048/,-37.8047552,144.89727240000002
Charlie Lane ' I'm Okay Now But I Wasn't ' Album Tour @ Mama Chen's ,1/12/2024,0:00,Mamma Chen's,"42A Albert St, Footscray VIC 3011, Australia",https://www.facebook.com/events/3411549142311275/,-37.8047552,144.89727240000002
Beatles Legacy | MEMO Music Hall,1/12/2024,16:00,MEMO Music Hall,"88 Acland St, St Kilda VIC 3182, Australia",https://www.facebook.com/events/947678549775611/,-37.8671902,144.9786817
Kaiit | The Toff,1/12/2024,14:00,The Toff,"2f/252 Swanston St, Melbourne VIC 3000, Australia",https://www.facebook.com/events/1551662998824848/,-37.80660325,144.9628141258931
Mailey Mayhem with Left At The Avenue and A Stationary Frame ,1/12/2024,15:00,The Last Chance,"238 Victoria St, Melbourne VIC 3000, Australia",https://www.facebook.com/events/1276625326842437/,-37.8059962,144.9585654
"Mana MELBOURNE - Breath work, Spinal Energetics  & Sound/ 1st DEC",1/12/2024,15:00,75 Reid Street,"75 Reid St Fitzroy, VIC 3068",https://www.eventbrite.com.au/e/mana-melbourne-breath-work-spinal-energetics-sound-1st-dec-tickets-1017176290667?aff=ebdssbdestsearch,-37.7853324,144.9807648
Conscious Connection | Aura Flow Yoga + Friends,1/12/2024,14:00,At One Studio,"127 Buckley Street #L1 Essendon, VIC 3040",https://www.eventbrite.com.au/e/conscious-connection-aura-flow-yoga-friends-tickets-1090424120899?aff=ebdssbdestsearch,-37.7570386,144.9154857
GLY Xperience 2.0,1/12/2024,17:00,The Third Day,"290 Macaulay Road North Melbourne, VIC 3051",https://www.eventbrite.com.au/e/gly-xperience-20-tickets-1078936621479?aff=ebdssbdestsearch,-37.7946786,144.9367079
ABC14 Combined Scientific Meetings of ANZSB & ANZORS,1/12/2024,9:00,"John Street, Hawthorn VIC, Australia","John Street Hawthorn, VIC 3122",https://www.eventbrite.com/e/abc14-combined-scientific-meetings-of-anzsb-anzors-tickets-781037844217?aff=ebdssbdestsearch,-37.8215065,145.0390928
SOJI TRIVIA,1/12/2024,18:00,The Greenhouse,"518 High Street Northcote, VIC 3070",https://www.eventbrite.com.au/e/soji-trivia-tickets-1068024292409?aff=ebdssbdestsearch,-37.7633088,144.9998047
"Snuggle Party: connect, consent & cuddle",1/12/2024,13:00,Private Residence,"Riverdale Road Hawthorn East, VIC 3122",https://www.eventbrite.com.au/e/snuggle-party-connect-consent-cuddle-tickets-1068818919159?aff=ebdssbdestsearch,-37.8288232,145.0349047
候场喜剧一周年特别场,1/12/2024,19:00,Library at The Dock,"107 Victoria Harbour Promenade Docklands, VIC 3008",https://www.eventbrite.com/e/1078597567359?aff=ebdssbdestsearch,-37.8200128,144.9404861
BIG & HORNY - SAGITTARIAN  SUNDAY  Funking it up 70’s style,1/12/2024,3:30,Melbourne Bowling Club,"138 Union Street Windsor, VIC 3181",https://www.eventbrite.com.au/e/big-horny-sagittarian-sunday-funking-it-up-70s-style-tickets-1071985741209?aff=ebdssbdestsearch,-37.8546958,144.9915895
Heart to Heart - Community Connection Gathering,1/12/2024,10:30,Coburg Lake Reserve,"Gaffney Street Coburg North, VIC 3058",https://www.eventbrite.com.au/e/heart-to-heart-community-connection-gathering-tickets-1073864390299?aff=ebdssbdestsearch,-37.733092,144.9558542
The Magic Garden Festival Vol.5 - Community Connection Portal,1/12/2024,14:30,The Fitzroy Beer Garden,"245 Gertrude Street #243 Fitzroy, VIC 3065",https://www.eventbrite.com.au/e/the-magic-garden-festival-vol5-community-connection-portal-tickets-1077230277759?aff=ebdssbdestsearch,-37.806153,144.982572
Michael Avery School of Music: 2024 End-of-Year Recitals,1/12/2024,10:00,Abbotsford Convent,"1 Saint Heliers Street Abbotsford, VIC 3067",https://www.eventbrite.com/e/michael-avery-school-of-music-2024-end-of-year-recitals-tickets-1070284703359?aff=ebdssbdestsearch,-37.8026835,145.0027506
"Dylan Pinkerton ""After the Fall"" EP Launch W/ Abbey Rose + Sadie Mustoe",1/12/2024,19:00,280 Sydney Rd,"280 Sydney Road Brunswick, VIC 3056",https://www.eventbrite.com.au/e/dylan-pinkerton-after-the-fall-ep-launch-w-abbey-rose-sadie-mustoe-tickets-1049397786027?aff=ebdssbdestsearch,-37.7711488,144.9616353
Christmas Wine Market at Northside Wines,1/12/2024,12:00,Northside Wines,"543-545 High Street Northcote, VIC 3070",https://www.eventbrite.com.au/e/christmas-wine-market-at-northside-wines-tickets-1057757574379?aff=ebdssbdestsearch,-37.7642271,144.9994439
Debut Album Launch // Int Day of People with Disability Celebration,1/12/2024,0:00,Northcote Social Club,"301 High St, Northcote VIC 3070, Australia",https://www.facebook.com/events/2932385930235820/,-37.771471,144.998414
Stilla (STILLAVERSE Live),1/12/2024,20:00,Northcote Social Club,"301 High St, Northcote VIC 3070, Australia",https://www.facebook.com/events/571789725522311/,-37.771471,144.998414
"The Breath Code- ""Half Day Men's Event"" StKilda",1/12/2024,12:00,infinite co studio,"14 Pakington Street St Kilda, VIC 3182",https://www.eventbrite.com.au/e/the-breath-code-half-day-mens-event-stkilda-tickets-1041971664297?aff=ebdssbdestsearch,-37.8655601,144.9873231
Richmond Music Academy end of year concert,1/12/2024,18:00,Abbotsford Convent,"1 Saint Heliers Street Abbotsford, VIC 3067",https://www.eventbrite.com.au/e/richmond-music-academy-end-of-year-concert-tickets-1024543997677?aff=ebdssbdestsearch,-37.8026835,145.0027506
St Mary's Annual Festival,1/12/2024,1:30,Centenary Theatre,"71 Railway Place Williamstown, VIC 3016",https://www.eventbrite.com.au/e/st-marys-annual-festival-tickets-1022437587347?aff=ebdssbdestsearch,-37.8630723,144.8939035
PLAYAZ CLUB: LANEWAY HOOP SHOOTOUT,2/12/2024,0:00,Section 8,"27-29 Tattersalls Ln, Melbourne VIC 3000, Australia",https://www.facebook.com/events/1804239166982408/?event_time_id=1804239210315737,-37.8117457,144.965405
Funny Near The Brunny! - Free Live Comedy Every Monday,2/12/2024,0:00,Bergy Bandroom,"64 Sydney Rd, Brunswick VIC 3056, Australia",https://www.facebook.com/events/1068456871671985/?event_time_id=1068457781671894,-37.776327,144.9607158
 ﻿Zorzál Tango at open Studio ,2/12/2024,0:00,Open Studio,"204 High St, Northcote VIC 3070, Australia",https://www.facebook.com/events/478767035168808/,-37.7742382,144.9981587
MORBID MONDAYS AT OLD BAR - DECEMBER 2ND - USER & calyx - FREE ENTRY,2/12/2024,20:00,The Old Bar,"74-76 Johnston St, Fitzroy VIC 3065, Australia",https://www.facebook.com/events/1102936667886372/,-37.79833,144.97711
Rowena Wise - Mondays in December at the Merri Creek Tavern,2/12/2024,20:00,The Merri Creek Tavern,"111 High St, Northcote VIC 3070, Australia",https://www.facebook.com/events/513737978354432/,-37.7794356,144.996838
Acceptance and Commitment Therapy Basic Training for BPD (2-days),2/12/2024,9:00,Spectrum,"110 Church Street Richmond, VIC 3121",https://www.eventbrite.com.au/e/acceptance-and-commitment-therapy-basic-training-for-bpd-2-days-registration-1003314098477?aff=ebdssbdestsearch,-37.8142371,144.9995624
Beyond Basic Airway Management,2/12/2024,9:00,RMH Simulation Centre,"Grattan Street Grattan Street Parkville, VIC 3050",https://www.eventbrite.com.au/e/beyond-basic-airway-management-tickets-1028766126177?aff=ebdssbdestsearch,-37.8002748,144.9624282
SISTER PAUL (Jpn) FREE @ NSC for Social Sanctuary + COLD REGARDS & The Cars That Ate Paris 2nd Dec,2/12/2024,19:00,Northcote Social Club,"301 High St, Northcote VIC 3070, Australia",https://www.facebook.com/events/461738856322243/,-37.771471,144.998414
"BC #435 (Politics Of Dancing, Natural Bounce, Binofski + more)",2/12/2024,8:00,onesixone,"161 High Street Prahran, VIC 3181",https://www.eventbrite.com.au/e/bc-435-politics-of-dancing-natural-bounce-binofski-more-tickets-1091824459349?aff=ebdssbdestsearch,-37.8517323,144.9936589
Feedback Fitness for Leaders in Local Government,3/12/2024,9:00,Anglers Tavern,"2 Anglers Way Maribyrnong, VIC 3032",https://www.eventbrite.com.au/e/feedback-fitness-for-leaders-in-local-government-tickets-1041750011327?aff=ebdssbdestsearch,-37.7690157,144.9014911
Ground Zero,3/12/2024,18:30,The Mission to Seafarers Victoria,"717 Flinders Street Docklands, VIC 3008",https://www.eventbrite.com/e/ground-zero-tickets-1082168538229?aff=ebdssbdestsearch,-37.8225172,144.951249
Condensed Milk Tuesdays,3/12/2024,0:00,Section 8,"27-29 Tattersalls Ln, Melbourne VIC 3000, Australia",https://www.facebook.com/events/3806429379629971/,-37.8117457,144.965405
neoResus Advanced Resuscitation Program,3/12/2024,9:00,The Royal Children's Hospital,"50 Flemington Road Health and Education Learning Precinct (HELP), Level 1 Parkville, VIC 3052",https://www.eventbrite.com.au/e/neoresus-advanced-resuscitation-program-tickets-772697177057?aff=ebdssbdestsearch,-37.7902531,144.9433744
Prokick Australia - MELBOURNE TRY-OUTS NFL/COLLEGE *MULTIPLE SESSIONS*,3/12/2024,8:30,Gardiner Park,"46-61 Carroll Crescent Glen Iris, VIC 3146",https://www.eventbrite.com/e/prokick-australia-melbourne-try-outs-nflcollege-multiple-sessions-tickets-1070236619539?aff=ebdssbdestsearch,-37.8518283,145.048937
Clinical Ethics: Perioperative Care (Part 2),3/12/2024,8:30,Deakin Downtown,"727 Collins Street #tower 2 level 12 Melbourne, VIC 3008",https://www.eventbrite.com.au/e/clinical-ethics-perioperative-care-part-2-tickets-861945380837?aff=ebdssbdestsearch,-37.8206847,144.949995
Highly Suspect // Melbourne // Good Things Festival Sideshow // Max Watts,3/12/2024,19:00,Max Watts,"125 Swanston St, Melbourne VIC 3000, Australia",https://www.facebook.com/events/951901566984093/,-37.8147557,144.9659879
AMSI BioInfoSummer 2024,3/12/2024,9:30,The University of Melbourne,"The University of Melbourne Parkville, VIC 3052",https://www.eventbrite.com.au/e/amsi-bioinfosummer-2024-tickets-969527351407?aff=ebdssbdestsearch,-37.7983459,144.960974
Tix at 12,3/12/2024,0:00,Arts Centre Melbourne,"100 St Kilda Rd, Southbank VIC 3004, Australia",https://www.facebook.com/events/473885795706627/,-37.8216405,144.9683143
Unity in Autonomy Book Launch and End of Year Celebration,3/12/2024,17:30,Old Quadrangle Building,"The University of Melbourne Parkville, VIC 3052",https://www.eventbrite.com.au/e/unity-in-autonomy-book-launch-and-end-of-year-celebration-tickets-1068899740899?aff=ebdssbdestsearch,-37.7983459,144.960974
Spoken Word @ Bar Oussou!,3/12/2024,0:00,Bar Oussou,"653 Sydney Rd, Brunswick VIC 3056, Australia",https://www.facebook.com/events/492572360256978/?event_time_id=492572376923643,-37.7618155,144.9628753
"Monica Dean, with support set by Cam Prestipino﻿",3/12/2024,0:00,Open Studio,"204 High St, Northcote VIC 3070, Australia",https://www.facebook.com/events/2470529313151252/,-37.7742382,144.9981587
"Melbourne Singles, Ages 25-45 . 2 for 1 Deal !",4/12/2024,19:00,Champagne Problems,"238 Little Collins Street Melbourne, VIC 3000",https://www.eventbrite.com.au/e/melbourne-singles-ages-25-45-2-for-1-deal-tickets-1076231580629?aff=ebdssbdestsearch,-37.8142781,144.9666247
AACC End of Year Networking,4/12/2024,5:30,International Chamber House,"Level 5 121 Exhibition Street Melbourne, VIC 3000",https://www.eventbrite.com.au/e/aacc-end-of-year-networking-tickets-1090365706179?aff=ebdssbdestsearch,-37.8126466,144.9703748
The Melbourne Moth StorySLAM: SILVER LINING,4/12/2024,19:30,Howler,"7-11 Dawson St Brunswick, VIC 3056",https://www.eventbrite.com/e/the-melbourne-moth-storyslam-silver-lining-tickets-908470077457?aff=ebdssbdestsearch,-37.7720304,144.9596527
QLD • 2 Fast 2 Fastidious,4/12/2024,5:30,Five Senses Barista Academy,"135 Lake St Northbridge, WA 6003",https://www.eventbrite.com.au/e/qld-2-fast-2-fastidious-tickets-1057791325329?aff=ebdssbdestsearch,-31.944051,115.8589067
PER • 2 Fast 2 Fastidious,4/12/2024,5:30,Five Senses Barista Academy,"135 Lake St Northbridge, WA 6003",https://www.eventbrite.com.au/e/per-2-fast-2-fastidious-tickets-1057786882039?aff=ebdssbdestsearch,-31.944051,115.8589067
CALS-ANZ (CARDIAC SURGERY ADVANCED LIFE SUPPORT),4/12/2024,9:00,RMH Simulation Centre,"Grattan Street Grattan Street Parkville, VIC 3050",https://www.eventbrite.com.au/e/cals-anz-cardiac-surgery-advanced-life-support-tickets-793020855727?aff=ebdssbdestsearch,-37.8002748,144.9624282
Musicland Community Choir in Bebe's Bar @ MUSICLAND,4/12/2024,0:00,Musicland Melbourne,"1359 Sydney Rd, Fawkner VIC 3060, Australia",https://www.facebook.com/events/392049400005701/?event_time_id=392049480005693,-37.6916774,144.9585701581541
Kindred Studios & Sailor Jerry Presents: Battle Of The Bands - HEAT #4,4/12/2024,18:30,Kindred Bandroom,"3 Harris St, Footscray VIC 3011, Australia",https://www.facebook.com/events/8840628915980012/,-37.8119001,144.9008247
PLAY: Frequency,4/12/2024,0:00,Arts Centre Melbourne,"100 St Kilda Rd, Southbank VIC 3004, Australia",https://www.facebook.com/events/3779665475622037/,-37.8216405,144.9683143
Open Mic @ BAR OUSSOU! ,4/12/2024,0:00,Bar Oussou,"653 Sydney Rd, Brunswick VIC 3056, Australia",https://www.facebook.com/events/844277771021573/,-37.7618155,144.9628753
Bully Hay - Black Dogs and Songbirds Tour - Northcote Social Club (VIC),4/12/2024,20:00,Northcote Social Club,"301 High St, Northcote VIC 3070, Australia",https://www.facebook.com/events/1118010066694484/,-37.771471,144.998414
DUB FX  feat Sahida Apsara - INFINITE REFLECTION SHOWCASE - Support. Andy V,4/12/2024,20:00,The Night Cat,"137-141 Johnston St, Fitzroy VIC 3065, Australia",https://www.facebook.com/events/492862153570873/,-37.7982971,144.978128
Too Tired For Heartache Single Launch,4/12/2024,0:00,Bergy Bandroom,"64 Sydney Rd, Brunswick VIC 3056, Australia",https://www.facebook.com/events/451147214668525/,-37.776327,144.9607158
Detox Your Culture Book Launch,4/12/2024,17:00,Jasper Hotel,"489 Elizabeth Street Melbourne, VIC 3000",https://www.eventbrite.com/e/detox-your-culture-book-launch-tickets-1086774946119?aff=ebdssbdestsearch,-37.8074904,144.9597627
BAKERY MUSIC NIGHT @BAR GALER,4/12/2024,7:30,Bar Galer,"555 Swanston Street Carlton, VIC 3053",https://www.eventbrite.com.au/e/bakery-music-night-bar-galer-tickets-1086924653899?aff=ebdssbdestsearch,-37.8057745,144.9626168
MEL • 2 Fast 2 Fastidious,4/12/2024,5:30,Five Senses Barista Academy,"300 Rosslyn Street West Melbourne, VIC 3003",https://www.eventbrite.com.au/e/mel-2-fast-2-fastidious-tickets-1050188641497?aff=ebdssbdestsearch,-37.8108846,144.9455841
Shrub Comedy & Open Mic,4/12/2024,0:00,24 Moons,"2 Arthurton Rd, Northcote VIC 3070, Australia",https://www.facebook.com/events/9124178814281274/,-37.7691418,144.9982614
In Bold & Fox Events Co presents Merry Businessmas,4/12/2024,18:30,Le Ciel Events,"13 Cremorne Street #Level 6 Cremorne, VIC 3121",https://www.eventbrite.com.au/e/in-bold-fox-events-co-presents-merry-businessmas-tickets-1066179374209?aff=ebdssbdestsearch,,
The Melbourne Moth StorySLAM: SILVER LININGS,4/12/2024,19:30,Howler,"7-11 Dawson St, Brunswick VIC 3056, Australia",https://www.facebook.com/events/1122675559863044/,-37.7720304,144.9596527
From Ashes To New // Melbourne // Good Things Festival Sideshow // Stay Gold,4/12/2024,19:00,Stay Gold,"133 Sydney Rd, Brunswick VIC 3056, Australia",https://www.facebook.com/events/457421496842435/,-37.7743469,144.9607404
The Jazz Alchemists,4/12/2024,18:00,Bird's Basement,"11 Singers Ln, Melbourne VIC 3000, Australia",https://www.facebook.com/events/529828959832072/,-37.81114416,144.95680390283175
(SOLD OUT) SINGSONGS: Christmas Edition,4/12/2024,0:00,arcobar heatherton,"8 Arco Ln, Heatherton VIC 3202, Australia",https://www.facebook.com/events/3834739490186612/,-37.94673685,145.07837928457485
Piano CLub #10,4/12/2024,20:00,Ragtime Tavern,"206 Tyler St, Preston VIC 3072, Australia",https://www.facebook.com/events/1053580056510818/,-37.7310367,145.0142411
Riley Catherall (Band Show) St Kilda ALBUM LAUNCH George Lane,5/12/2024,0:00,George Lane St Kilda,"1 George Ln, St Kilda VIC 3182, Australia",https://www.facebook.com/events/2888228231341123/,-37.85997305,144.9780306
Madam Nightingale with special guest Aj’Zho,5/12/2024,19:00,Mamma Chen's,"42A Albert St, Footscray VIC 3011, Australia",https://www.facebook.com/events/1577988486234023/,-37.8047552,144.89727240000002
Keanu Jai  // Thursday Arvo Gig Series,5/12/2024,14:00,Kindred Bandroom,"3 Harris St, Footscray VIC 3011, Australia",https://www.facebook.com/events/462884989589480/,-37.8119001,144.9008247
VALENTA: CALL ME UR VANDAL,5/12/2024,0:00,Bad Decisions Bar,"46 Johnston St, Fitzroy VIC 3065, Australia",https://www.facebook.com/events/1119511592930893/,-37.798246,144.9762881
Anthony B In Conversation - Hosted by Stick Mareebo ,5/12/2024,0:00,Wax Music Lounge,"250 Flinders St, Melbourne VIC 3000, Australia",https://www.facebook.com/events/1258076311797465/,-37.8176298,144.9661635
MIKE (US) Melbourne ,5/12/2024,0:00,The Night Cat,"137-141 Johnston St, Fitzroy VIC 3065, Australia",https://www.facebook.com/events/1017555586818845/,-37.7982971,144.978128
Fotis Vergopoulos | Brunswick Ballroom,5/12/2024,18:30,Brunswick Ballroom,"314 Sydney Rd, Brunswick VIC 3056, Australia",https://www.facebook.com/events/1498695320776780/,-37.7704205,144.9617083
Gia Ransome 'A Woman Scorned' Tour - Melbourne,5/12/2024,19:30,Bergy Bandroom,"64 Sydney Rd, Brunswick VIC 3056, Australia",https://www.facebook.com/events/581433061161306/,-37.776327,144.9607158
AM//PM x Good Things Pre-Party // Melbourne,5/12/2024,0:00,Stay Gold,"133 Sydney Rd, Brunswick VIC 3056, Australia",https://www.facebook.com/events/543271131989367/,-37.7743469,144.9607404
"Lavender vs Rose & The GoldenFingers Dancers - The goodbye, farewell, love to Open Studio SHOW! ",5/12/2024,0:00,Open Studio,"204 High St, Northcote VIC 3070, Australia",https://www.facebook.com/events/930107725183916/,-37.7742382,144.9981587
Blusher - Melbourne Headline Show,5/12/2024,0:00,Northcote Social Club,"301 High St, Northcote VIC 3070, Australia",https://www.facebook.com/events/3742447942677245/,-37.771471,144.998414
(Last Tickets!) The Everly Brothers & Buddy Holly Tribute | Performed By RICK GAUCI & STEVE BURNS ,5/12/2024,0:00,arcobar heatherton,"8 Arco Ln, Heatherton VIC 3202, Australia",https://www.facebook.com/events/1138196443943231/,-37.94673685,145.07837928457485
"Waxahatchee with Good Morning | Forum, Melbourne - SOLD OUT!",5/12/2024,19:00,Forum Melbourne,"154 Flinders St, Melbourne VIC 3000, Australia",https://www.facebook.com/events/1949784432153887/,-37.81644145,144.9693768124984
Rufous Whistler & Possum @ Merri Creek Tavern,5/12/2024,19:30,The Merri Creek Tavern,"111 High St, Northcote VIC 3070, Australia",https://www.facebook.com/events/1615758892623707/,-37.7794356,144.996838
Violent Femmes - Sideshow,5/12/2024,19:30,Palais Theatre,"Lower Esplanade, St Kilda VIC 3182, Australia",https://www.facebook.com/events/1986012785160740/,-37.86708671,144.97599656199426
SNAILGUN - GUN LAWS - THE NOVA FIENDS @ LAST CHANCE,5/12/2024,20:00,The Last Chance,"238 Victoria St, Melbourne VIC 3000, Australia",https://www.facebook.com/events/2117098502038765/,-37.8059962,144.9585654
Melbourne speed dating for ages 25-39 by Cheeky Events Australia,5/12/2024,19:00,Bar Blanco,"102 Chapel Street Windsor Melbourne, VIC 3181",https://www.eventbrite.com.au/e/melbourne-speed-dating-for-ages-25-39-by-cheeky-events-australia-tickets-919898941497?aff=ebdssbdestsearch,-37.854455,144.993076
Fish Talk 2024 Year End Celebration,5/12/2024,17:30,380 Collins St,"380 Collins Street Melbourne, VIC 3000",https://www.eventbrite.com.au/e/fish-talk-2024-year-end-celebration-tickets-1026537630687?aff=ebdssbdestsearch,-37.8164941,144.961916
Women in Digital's Melbourne Jingle & Mingle!,5/12/2024,18:00,Oche Melbourne,"263-269 Elizabeth Street Melbourne, VIC 3000",https://www.eventbrite.com.au/e/women-in-digitals-melbourne-jingle-mingle-tickets-1073945482849?aff=ebdssbdestsearch,-37.8125796,144.9620973
Learning More About BPD: A Workshop For Families & Friends (1 day),5/12/2024,9:30,Spectrum,"110 Church Street Richmond, VIC 3121",https://www.eventbrite.com.au/e/learning-more-about-bpd-a-workshop-for-families-friends-1-day-registration-763224193107?aff=ebdssbdestsearch,-37.8142371,144.9995624
Connor Randles 'Paparella' EP Launch feat. Luke Willard,5/12/2024,19:00,The Workers Club,"51 Brunswick St, Fitzroy VIC 3065, Australia",https://www.facebook.com/events/488956507521551/,-37.8055776,144.9769450659087
Bill Barber and the Holding Cell  & Thursday Night Jam!,5/12/2024,0:00,Hume Blues Club Inc,"27 Ballantyne St, Thornbury VIC 3071, Australia",https://www.facebook.com/events/393907173459395/,-37.7588241,144.9985126
Professor Kate Crawford: Mapping Planetary AI,5/12/2024,19:30,State Library Victoria,"328 Swanston St Conversation Quarter Melbourne, VIC 3000",https://www.eventbrite.com.au/e/professor-kate-crawford-mapping-planetary-ai-tickets-1070309678059?aff=ebdssbdestsearch,,
RICS Victoria 2024 Christmas Curry Night,5/12/2024,17:30,Gaylords,"33 Spencer Street Melbourne, VIC 3008",https://www.eventbrite.com.au/e/rics-victoria-2024-christmas-curry-night-tickets-998065971187?aff=ebdssbdestsearch,-37.8203025,144.9543906
"Blanco Tranco, Comedy and Tommy-Carlos & the Masquerade",5/12/2024,0:00,The Old Bar,"74-76 Johnston St, Fitzroy VIC 3065, Australia",https://www.facebook.com/events/452381311217199/,-37.79833,144.97711
"WAH Presents: Edward Roussac, Damage, Gwot Lik & Clean Beast",5/12/2024,19:00,The Penny Black,"420 Sydney Rd, Brunswick VIC 3056, Australia",https://www.facebook.com/events/938047864914145/,-37.7679775,144.9621651
B# Big Band with Ross Wilson,5/12/2024,18:00,Bird's Basement,"11 Singers Ln, Melbourne VIC 3000, Australia",https://www.facebook.com/events/1188540485786119/,-37.81114416,144.95680390283175
𝗦𝗢𝗟𝗗 𝗢𝗨𝗧 | Imminence // Melbourne // Good Things Festival Sideshow // Stay Gold,5/12/2024,19:00,Stay Gold,"133 Sydney Rd, Brunswick VIC 3056, Australia",https://www.facebook.com/events/1092643912323747/,-37.7743469,144.9607404
Patrick Topping | 170 Russell - Naarm/Melbourne,6/12/2024,0:00,170 Russell,"170 Russell St, Melbourne VIC 3000, Australia",https://www.facebook.com/events/1444481526247205/,-37.8120109,144.9679369
The Bawdies Australia Tour 2024 @NSC,6/12/2024,20:00,Northcote Social Club,"301 High St, Northcote VIC 3070, Australia",https://www.facebook.com/events/1488866081817604/,-37.771471,144.998414
SoC- Spring #47,6/12/2024,0:00,Revolver Upstairs,"Level 2/229 Chapel St, Prahran VIC 3181, Australia",https://www.facebook.com/events/1063247328881371/,-37.8505902,144.9933469
(SOLD OUT) COME TOGETHER: The Music of The Beatles Tribute,6/12/2024,0:00,arcobar heatherton,"8 Arco Ln, Heatherton VIC 3202, Australia",https://www.facebook.com/events/1900967290411691/,-37.94673685,145.07837928457485
Good Things Official Afterparty // Melbourne,6/12/2024,0:00,Stay Gold,"133 Sydney Rd, Brunswick VIC 3056, Australia",https://www.facebook.com/events/1503960333430229/,-37.7743469,144.9607404
Ben Camden - 'Sunflowers' EP Launch,6/12/2024,19:30,One2three Bar,"123 Queens Parade, Clifton Hill VIC 3068, Australia",https://www.facebook.com/events/1267768264592686/,-37.7892833,144.9901391
3065 PARTYGIRL with GAY ROBERTO,6/12/2024,23:00,The Night Cat,"137-141 Johnston St, Fitzroy VIC 3065, Australia",https://www.facebook.com/events/1329499038214513/,-37.7982971,144.978128
BELLHOP vs LEGAL NOISE (TAS),6/12/2024,19:00,The Last Chance,"238 Victoria St, Melbourne VIC 3000, Australia",https://www.facebook.com/events/1279653323081333/,-37.8059962,144.9585654
Euphoric Beats,6/12/2024,0:00,Bad Decisions Bar,"46 Johnston St, Fitzroy VIC 3065, Australia",https://www.facebook.com/events/913719707091856/,-37.798246,144.9762881
Eddie Hale: 'Vanishing Point' Album Launch — Denude Records x Revolver Fridays,6/12/2024,0:00,Revolver Upstairs,"Level 2/229 Chapel St, Prahran VIC 3181, Australia",https://www.facebook.com/events/2873600136151357/,-37.8505902,144.9933469
1927 - THE REAL 1927 we all remember & LOVE,6/12/2024,0:00,Musicland Melbourne,"1359 Sydney Rd, Fawkner VIC 3060, Australia",https://www.facebook.com/events/1777316096423447/,-37.6916774,144.9585701581541
One Intimate Night with Reece Mastin | MEMO Music Hall,6/12/2024,19:00,MEMO Music Hall,"88 Acland St, St Kilda VIC 3182, Australia",https://www.facebook.com/events/2947316355436720/,-37.8671902,144.9786817
BOOTY BALL IV (+FREE BOTTOMLESS BOOZE) ,6/12/2024,0:00,New Guernica,"64 Smith St, Collingwood VIC 3066, Australia",https://www.facebook.com/events/925250086198839/,-37.80624775,144.98331211946754
"Sarah Blasko with guest Queenie // Melbourne, Northcote Theatre",6/12/2024,19:30,Northcote Theatre,"216 High St, Northcote VIC 3070, Australia",https://www.facebook.com/events/399039979467353/,-37.7737068,144.9982706
Litmus (NL) — AU Underground,6/12/2024,0:00,Revolver Upstairs,"Level 2/229 Chapel St, Prahran VIC 3181, Australia",https://www.facebook.com/events/2067806156988233/,-37.8505902,144.9933469
VARDOS TRIO - farewell Open Studio show! ,6/12/2024,0:00,Open Studio,"204 High St, Northcote VIC 3070, Australia",https://www.facebook.com/events/2865817033593993/,-37.7742382,144.9981587
EMO NEVER SLEEPS: DECEMBER,6/12/2024,0:00,EMO NEVER SLEEPS,"629 Bourke St, Melbourne VIC 3004, Australia",https://www.facebook.com/events/829633832582459/,-37.8167994,144.9552063
GAS End of Year at the Balmain Hotel,6/12/2024,17:00,Sydney: Balmain Hotel,"72-76 Mullens Rd Balmain, NSW 2041",https://www.eventbrite.com.au/e/gas-end-of-year-at-the-balmain-hotel-tickets-1076101641979?aff=ebdssbdestsearch,-33.8614113,151.1768085
Richard Marx,6/12/2024,19:00,Palais Theatre,"Lower Esplanade, St Kilda VIC 3182, Australia",https://www.facebook.com/events/1249715083066146/,-37.86708671,144.97599656199426
"Unreal x Klangkuenstler ""All Night Long"" Australia",6/12/2024,19:00,PICA - Port Melbourne Industrial Centre of the Arts,"11 Woolboard Road Port Melbourne, VIC 3027",https://www.eventbrite.com.au/e/unreal-x-klangkuenstler-all-night-long-australia-tickets-865232964087?aff=ebdssbdestsearch,-37.8301736,144.9248531
"(Fri, Dec 6) BARB WATERS",6/12/2024,0:00,George Lane St Kilda,"1 George Ln, St Kilda VIC 3182, Australia",https://www.facebook.com/events/1114208440321339/,-37.85997305,144.9780306
Joe Camilleri & The Black Sorrows w special guests Doc Halibut @ Brunswick Ballroom,6/12/2024,18:30,Brunswick Ballroom,"314 Sydney Rd, Brunswick VIC 3056, Australia",https://www.facebook.com/events/819422953234413/,-37.7704205,144.9617083
POSTPONED - EVENT DATE TBA B.I HYPE UP TOUR,6/12/2024,18:30,Festival Hall,"300 Dudley St, West Melbourne VIC 3003, Australia",https://www.facebook.com/events/1496960170949894/,-37.8098193,144.9508057
GTG UNDERGROUND,6/12/2024,21:00,Avalon The Bar,"387 Brunswick Street Fitzroy, VIC 3065",https://www.eventbrite.com/e/gtg-underground-tickets-1077228351999?aff=ebdssbdestsearch,-37.795606,144.978714
ESAANZ conference 2024,6/12/2024,8:30,The University of Melbourne,"100 Leicester Street Carlton, VIC 3010",https://www.eventbrite.com.au/e/esaanz-conference-2024-tickets-1007302136807?aff=ebdssbdestsearch,-37.8036874,144.9607534
Coffees & Careers,6/12/2024,7:45,Deakin Downtown,"727 Collins Street #Level 12, Tower 2 Docklands, VIC 3008",https://www.eventbrite.com.au/e/coffees-careers-tickets-1089271904589?aff=ebdssbdestsearch,-37.8204513,144.9500917
Human Forest - Old Growth. A Regenerative Touch Experience.,6/12/2024,18:45,Centre of You,"Upstairs, 217 Chapel St Prahran Melbourne, VIC 3181",https://www.eventbrite.com.au/e/human-forest-old-growth-a-regenerative-touch-experience-tickets-1081562856619?aff=ebdssbdestsearch,-37.8509316,144.9933031
Nocturne (Fri 7:30pm),6/12/2024,19:30,Transit Dance (Brunswick),"64 Dawson Street Brunswick, VIC 3056",https://www.eventbrite.com.au/e/nocturne-fri-730pm-tickets-1045287171067?aff=ebdssbdestsearch,-37.7701752,144.9559255
Comedy On Tap - Stand Up Comedy. St Luja - St Kilda,6/12/2024,7:45,St LuJa | Cocktail Bar,"9 Fitzroy Street St Kilda, VIC 3182",https://www.eventbrite.com/e/comedy-on-tap-stand-up-comedy-st-luja-st-kilda-tickets-1084902234789?aff=ebdssbdestsearch,-37.8627907,144.9733795
Chromakopia Release Party - Melbourne,6/12/2024,22:00,Laundry Bar,"50 Johnston Street Fitzroy, VIC 3065",https://www.eventbrite.com.au/e/chromakopia-release-party-melbourne-tickets-1059261221829?aff=ebdssbdestsearch,-37.79831,144.976368
Witchskull 10th Anniversary Special at Cherry Bar!,6/12/2024,20:00,"Cherry Bar, Little Collins Street, Melbourne VIC, Australia","68 Little Collins Street Melbourne, VIC 3000",https://www.eventbrite.com.au/e/witchskull-10th-anniversary-special-at-cherry-bar-tickets-1040318840657?aff=ebdssbdestsearch,-37.8129293,144.9714986
Kickoff summer 2024,6/12/2024,20:00,30-34 Charles St,"30-34 Charles Street Coburg North, VIC 3058",https://www.eventbrite.com/e/kickoff-summer-2024-tickets-1071515615049?aff=ebdssbdestsearch,-37.7288278,144.9551439
2010 Throwback Party,6/12/2024,21:00,Pre Drinks Bar,"149 Commercial Road South Yarra, VIC 3141",https://www.eventbrite.com/e/2010-throwback-party-tickets-1079102617979?aff=ebdssbdestsearch,-37.8463162,144.9913793
PSYCHIC HARMONY,6/12/2024,21:00,my aeon,"791 Sydney Road Brunswick, VIC 3056",https://www.eventbrite.com.au/e/psychic-harmony-tickets-1056386322929?aff=ebdssbdestsearch,-37.7581868,144.9633301
Join Cherry Picking Fun in Melbourne,6/12/2024,10:00,IDP Melbourne,"373 Lonsdale Street Melbourne, VIC 3000",https://www.eventbrite.com.au/e/join-cherry-picking-fun-in-melbourne-tickets-1056204448939?aff=ebdssbdestsearch,-37.8127529,144.9615244
EUPHORIA Friday 6th DECEMBER 2024,6/12/2024,21:00,Chasers Nightclub,"386 Chapel Street South Yarra, VIC 3141",https://www.eventbrite.com.au/e/euphoria-friday-6th-december-2024-tickets-1072004788179?aff=ebdssbdestsearch,-37.8459028,144.9947039
Kevin Borich Express,6/12/2024,18:00,Bird's Basement,"11 Singers Ln, Melbourne VIC 3000, Australia",https://www.facebook.com/events/941943751083077/,-37.81114416,144.95680390283175
Brolga with Canisha & Robert Champion,6/12/2024,19:00,Kindred Bandroom,"3 Harris St, Footscray VIC 3011, Australia",https://www.facebook.com/events/1001758158383548/,-37.8119001,144.9008247
EMO NEVER SLEEPS: DECEMBER,6/12/2024,22:00,Royal Melbourne Hotel,"629 Bourke Street Melbourne, VIC 3000",https://www.eventbrite.com.au/e/emo-never-sleeps-december-tickets-1059451651409?aff=ebdssbdestsearch,-37.8168528,144.9552468
Hedy Blaazer with Jim Dusty at Merri Creek Tavern (Naarm),6/12/2024,20:30,The Merri Creek Tavern,"111 High St, Northcote VIC 3070, Australia",https://www.facebook.com/events/1531114227545847/,-37.7794356,144.996838
Devil Dogs @ Mr Boogie Man Bar,6/12/2024,19:00,Mr Boogie Man Bar,"160 Hoddle St, Abbotsford VIC 3067, Australia",https://www.facebook.com/events/1090536999482729/,-37.80245,144.99295304614787
FULTON STREET ‘Hard Truths’ Album Launch,6/12/2024,0:00,Wax Music Lounge,"250 Flinders St, Melbourne VIC 3000, Australia",https://www.facebook.com/events/458819236788714/,-37.8176298,144.9661635
Absolutely 80s Xmas Show -Scott Carne - Brian Mannix – Wilbur Wilde,6/12/2024,20:00,Lucky 13 Garage,"8 Cochranes Rd, Moorabbin VIC 3189, Australia",https://www.facebook.com/events/406776375645564/,-37.94349189,145.07036236060654
Absolutely 80s Xmas Show- Scott Carne -Brian Mannix -Wilbur Wilde @L13,6/12/2024,20:00,Lucky 13 Garage,"8 Cochranes Rd, Moorabbin VIC 3189, Australia",https://www.facebook.com/events/406507045830906/,-37.94349189,145.07036236060654
THE ALGORYTHM COMMUNITY - XMAS PARTY,6/12/2024,18:00,Mamma Chen's,"42A Albert St, Footscray VIC 3011, Australia",https://www.facebook.com/events/1609453603333332/,-37.8047552,144.89727240000002
GOGO Group launch event “ASTRID” ~ local music ~ vintage fashion,7/12/2024,0:00,Mamma Chen's,"42A Albert St, Footscray VIC 3011, Australia",https://www.facebook.com/events/523681077163372/,-37.8047552,144.89727240000002
ALLER REVIENS SEASON 3,7/12/2024,21:00,Chaise Lounge,"105 Queen Street Basement Melbourne, VIC 3000",https://www.eventbrite.com/e/aller-reviens-season-3-tickets-1061209739899?aff=ebdssbdestsearch,-37.816116,144.960926
150 BPM X SALTARE PRES: V:SONNTAG [GERMANY],7/12/2024,19:00,Howler,"7-11 Dawson St, Brunswick VIC 3056, Australia",https://www.facebook.com/events/1926736231145832/,-37.7720304,144.9596527
Tom Waits Day ,7/12/2024,19:00,Ragtime Tavern,"206 Tyler St, Preston VIC 3072, Australia",https://www.facebook.com/events/576870491358087/,-37.7310367,145.0142411
Eat The Beat : Together,7/12/2024,0:00,New Guernica,"64 Smith St, Collingwood VIC 3066, Australia",https://www.facebook.com/events/557595343686869/,-37.80624775,144.98331211946754
Australian National Jigsaw Puzzle Championships 2024,7/12/2024,9:00,State Sport Centres - MSAC,"30 Aughtie Drive Albert Park, VIC 3206",https://www.eventbrite.com.au/e/australian-national-jigsaw-puzzle-championships-2024-tickets-896814946647?aff=ebdssbdestsearch,-37.8393229,144.9635459
"Pop, Bubble, Fizz! Champagne & Sparkling Masterclass | Melbourne",7/12/2024,14:00,Le Méridien Melbourne,"20 Bourke Street Melbourne, VIC 3000",https://www.eventbrite.com.au/e/pop-bubble-fizz-champagne-sparkling-masterclass-melbourne-tickets-1014159025947?aff=ebdssbdestsearch,-37.8113901,144.9722393
ALWAYS LIVE Presents Jamaica Music and Food,7/12/2024,11:00,Seaworks Maritime Precinct,"82 Nelson Place Williamstown, VIC 3016",https://www.eventbrite.com.au/e/always-live-presents-jamaica-music-and-food-tickets-947617137367?aff=ebdssbdestsearch,-37.8634293,144.9069007
"The Funk Factory - Ft Kodiak Kid, Wilma, Swim Inc (NSW) + MORE!",7/12/2024,15:00,Top Yard Rooftop,"King Street #Rear 60 Melbourne, VIC 3000",https://www.eventbrite.com/e/the-funk-factory-ft-kodiak-kid-wilma-swim-inc-nsw-more-tickets-1036278646327?aff=ebdssbdestsearch,-37.8134279,144.9544436
Nocturne (Sat 1:00pm),7/12/2024,13:00,Transit Dance (Brunswick),"64 Dawson Street Brunswick, VIC 3056",https://www.eventbrite.com.au/e/nocturne-sat-100pm-tickets-1045288184097?aff=ebdssbdestsearch,-37.7701752,144.9559255
Match & Mingle,7/12/2024,20:00,The Valiant Cocktail Bar,"412 Little Collins Street Melbourne, VIC 3000",https://www.eventbrite.com.au/e/match-mingle-tickets-1085869156879?aff=ebdssbdestsearch,-37.8157453,144.9607827
Retro28s - THE FINALE - FINAL EVER RETRO28'S | Over 28s Night Melb,7/12/2024,20:30,Deluxe Bar,"595 Mount Alexander Road Moonee Ponds, VIC 3039",https://www.eventbrite.com.au/e/retro28s-the-finale-final-ever-retro28s-over-28s-night-melb-tickets-1076948665449?aff=ebdssbdestsearch,-37.768313,144.925046
Dirty Rats Xmas Break Up with Special Guests New Age ! Wayne's back !,7/12/2024,0:00,Mr Boogie Man Bar,"160 Hoddle St, Abbotsford VIC 3067, Australia",https://www.facebook.com/events/454925357235617/,-37.80245,144.99295304614787
"[MEL] MEMORIES X 07.12.2024 | QUOC THIEN, PHUONG THAO, HUYNH TU, MINH KHA",7/12/2024,7:30,Golf Square Sunshine,"8 Annastasia Way Sunshine North, VIC 3020",https://www.eventbrite.com.au/e/mel-memories-x-07122024-quoc-thien-phuong-thao-huynh-tu-minh-kha-tickets-1044580888557?aff=ebdssbdestsearch,-37.77493547,144.8274425703173
Melbourne Mingle | Traffic Light Party 2024,7/12/2024,20:00,The Black Rabbit,"85 Queen Street Melbourne, VIC 3000",https://www.eventbrite.com.au/e/melbourne-mingle-traffic-light-party-2024-tickets-1072888050039?aff=ebdssbdestsearch,-37.81889,144.9625902
"Invite Only's ""Celebration"" 2nd birthday",7/12/2024,16:00,The Carlton Club,"193 Bourke Street Melbourne, VIC 3000",https://www.eventbrite.com.au/e/invite-onlys-celebration-2nd-birthday-tickets-1021438639467?aff=ebdssbdestsearch,-37.8132289,144.9676633
TERAMAZE w/Order Of Owls // Paeon // Adularia,7/12/2024,20:00,The Workers Club,"51 Brunswick St, Fitzroy VIC 3065, Australia",https://www.facebook.com/events/967993308679456/,-37.8055776,144.9769450659087
Jemma Cher,7/12/2024,18:00,Bird's Basement,"11 Singers Ln, Melbourne VIC 3000, Australia",https://www.facebook.com/events/505689158774765/,-37.81114416,144.95680390283175
A CRACKER KRANSKY CHRISTMAS with THE KRANSKY SISTERS | MEMO Music Hall - MELBOURNE,7/12/2024,0:00,MEMO Music Hall,"88 Acland St, St Kilda VIC 3182, Australia",https://www.facebook.com/events/1077738403774124/,-37.8671902,144.9786817
MANKIND (Tas) Take STAY GOLD w/Lazerlips & Blue Tongue Wizard,7/12/2024,19:00,Stay Gold,"133 Sydney Rd, Brunswick VIC 3056, Australia",https://www.facebook.com/events/8741751219193848/,-37.7743469,144.9607404
"Michael Ward Australian Tour - Workers Club, Fitzroy with Ally Row + HAZEL & The thief",7/12/2024,0:00,The Workers Club,"51 Brunswick St, Fitzroy VIC 3065, Australia",https://www.facebook.com/events/542160445024593/,-37.8055776,144.9769450659087
Claire Birchall's  'The Haunting' Album Launch,7/12/2024,20:00,Cactus Room,"614 High St, Thornbury VIC 3071, Australia",https://www.facebook.com/events/1739497739930389/,-37.76125825,145.00041662186553
Vox Chops | Brunswick Ballroom,7/12/2024,13:00,Brunswick Ballroom,"314 Sydney Rd, Brunswick VIC 3056, Australia",https://www.facebook.com/events/920552363157486/,-37.7704205,144.9617083
Joe Camilleri & The Black Sorrows,7/12/2024,0:00,Musicland Melbourne,"1359 Sydney Rd, Fawkner VIC 3060, Australia",https://www.facebook.com/events/504460198628939/,-37.6916774,144.9585701581541
LandDownUnder In Concert - When AusMusic Took The 80's By Storm | Brunswick Ballroom,7/12/2024,18:30,Brunswick Ballroom,"314 Sydney Rd, Brunswick VIC 3056, Australia",https://www.facebook.com/events/1946164542524493/,-37.7704205,144.9617083
Future Practice Owners Symposium,7/12/2024,7:00,Pullman Melbourne On The Park,"192 Wellington Parade East Melbourne, VIC 3002",https://www.eventbrite.com.au/e/future-practice-owners-symposium-tickets-952993438027?aff=ebdssbdestsearch,-37.8158404,144.9833174
The Show 2024 POP CHOIR Hearts Beating Loud,7/12/2024,19:30,Palais Theatre,"Lower Esplanade, St Kilda VIC 3182, Australia",https://www.facebook.com/events/529233529470528/,-37.86708671,144.97599656199426
BATTLE ROYALE: FACE 2 FACE,7/12/2024,21:00,My Aeon,"791 Sydney Rd, Brunswick Melbourne, VIC 3056",https://www.eventbrite.com.au/e/battle-royale-face-2-face-tickets-1082861711529?aff=ebdssbdestsearch,-37.7581868,144.9633301
MELBOURNE - 10 YEARS ,7/12/2024,20:00,The Last Chance,"238 Victoria St, Melbourne VIC 3000, Australia",https://www.facebook.com/events/811060947699669/,-37.8059962,144.9585654
"(Sat, Dec 7) THE CARTRIDGE FAMILY (George Lane Matinee Sessions)",7/12/2024,0:00,George Lane St Kilda,"1 George Ln, St Kilda VIC 3182, Australia",https://www.facebook.com/events/1235450207724200/,-37.85997305,144.9780306
FCCV Christmas Festa,7/12/2024,9:30,Veneto Club,"191 Bulleen Road Bulleen, VIC 3105",https://www.eventbrite.com.au/e/fccv-christmas-festa-tickets-1082864359449?aff=ebdssbdestsearch,-37.7721484,145.0777156
Queens of the Pool  2024 hosted by Art Simone,7/12/2024,20:30,Sircuit Bar,"103-105 Smith Street Fitzroy, VIC 3065",https://www.eventbrite.com.au/e/queens-of-the-pool-2024-hosted-by-art-simone-tickets-1054749396839?aff=ebdssbdestsearch,-37.80578,144.982912
The Shapeshifters - POOF DOOF Melbourne Sat 7 Dec,7/12/2024,22:00,Chasers Nightclub,"386 Chapel Street South Yarra, VIC 3141",https://www.eventbrite.com.au/e/the-shapeshifters-poof-doof-melbourne-sat-7-dec-tickets-1050221911007?aff=ebdssbdestsearch,-37.8459028,144.9947039
FULTON STREET 'Hard Truths' Album Launch ,7/12/2024,0:00,Wax Music Lounge,"250 Flinders St, Melbourne VIC 3000, Australia",https://www.facebook.com/events/478619644599035/,-37.8176298,144.9661635
Official JMFF After Party,7/12/2024,21:00,Kindred Bandroom,"3 Harris St, Footscray VIC 3011, Australia",https://www.facebook.com/events/1209798760167245/,-37.8119001,144.9008247
SKA Legends = Double trouble!,7/12/2024,0:00,THE CURTIN (John Curtin hotel),"29 Lygon St, Carlton VIC 3053, Australia",https://www.facebook.com/events/297884510062494/,-37.8061581,144.9657057
MDR Million Dollar Riff... Farewell Gig,7/12/2024,20:00,Lucky 13 Garage,"8 Cochranes Rd, Moorabbin VIC 3189, Australia",https://www.facebook.com/events/571689638547512/,-37.94349189,145.07036236060654
Ramble Tamble Christmas Show @ Oakleigh Music Hall,7/12/2024,20:30,Oakleigh Carnegie RSL,"95/97 Drummond St, Oakleigh VIC 3166, Australia",https://www.facebook.com/events/432473559634394/,-37.8968576,145.08963741959553
Kingston Farmers' Market,7/12/2024,0:00,Kingston City Hall,"979-985 Nepean Hwy, Moorabbin VIC 3189, Australia",https://www.facebook.com/events/771688524974680/,-37.93372508,145.0352972005879
SCARES: Live at the Bergy Bandroom w. Queen Hyena & Gull,7/12/2024,14:00,Bergy Bandroom,"64 Sydney Rd, Brunswick VIC 3056, Australia",https://www.facebook.com/events/1545485366327316/,-37.776327,144.9607158
"𝐈𝐧𝐟𝐢𝐧𝐢𝐭𝐲 𝐒𝐨𝐧𝐠 (𝐔𝐒𝐀) | Night cat, Melbourne",7/12/2024,19:00,The Night Cat,"137-141 Johnston St, Fitzroy VIC 3065, Australia",https://www.facebook.com/events/437216939124877/,-37.7982971,144.978128
(SOLD OUT) Frankie Valli & The 4 Seasons VS. Beach Boys | Dinner & Show,7/12/2024,0:00,arcobar heatherton,"8 Arco Ln, Heatherton VIC 3202, Australia",https://www.facebook.com/events/1011593337087604/,-37.94673685,145.07837928457485
Section 8 x Scuffed Recordings: Hedchef 'Time's Up' Release Party,7/12/2024,0:00,Section 8,"27-29 Tattersalls Ln, Melbourne VIC 3000, Australia",https://www.facebook.com/events/1008760291008021/,-37.8117457,144.965405
Gordon Koang,7/12/2024,14:00,Retreat Hotel,"Level 1/280 Sydney Rd, Brunswick VIC 3056, Australia",https://www.facebook.com/events/585286370841289/,-37.7711487,144.9615949
Nursery Crimes first headline show in 17 years!,7/12/2024,20:00,Shotkickers,"744 High St, Thornbury VIC 3071, Australia",https://www.facebook.com/events/2045166809276434/,-37.75592655,145.0013923
Toujours L'amour - Alan Kogosowski and Galit Klas,8/12/2024,14:30,Stonnington Uniting Church,"59 Burke Road Malvern East, VIC 3145",https://www.eventbrite.com.au/e/toujours-lamour-alan-kogosowski-and-galit-klas-tickets-1008870808747?aff=ebdssbdestsearch,-37.8722218,145.0486365
Domingo Latino - La Influencia,8/12/2024,18:45,The Night Cat,"137-141 Johnston St, Fitzroy VIC 3065, Australia",https://www.facebook.com/events/539382388707084/,-37.7982971,144.978128
Conscious Connection | Friendsmas Dinner (20-40),8/12/2024,16:00,Northside Wines,"543-545 High Street Northcote, VIC 3070",https://www.eventbrite.com.au/e/conscious-connection-friendsmas-dinner-20-40-tickets-1088456455559?aff=ebdssbdestsearch,-37.7642271,144.9994439
Circling Crows Album Launch,8/12/2024,14:00,Kindred Bandroom,"3 Harris St, Footscray VIC 3011, Australia",https://www.facebook.com/events/1581752352778393/,-37.8119001,144.9008247
The Rartel & Planets Caravan At The Old Bar,8/12/2024,16:00,The Old Bar,"74-76 Johnston St, Fitzroy VIC 3065, Australia",https://www.facebook.com/events/1233080594682590/,-37.79833,144.97711
d00b's MIXTAPE LAUNCH PARTY!,8/12/2024,19:00,Nighthawks,"136 Johnston Street Collingwood, VIC 3066",https://www.eventbrite.com/e/d00bs-mixtape-launch-party-tickets-1039868573897?aff=ebdssbdestsearch,-37.799333,144.989527
MCW End Game 2024,8/12/2024,15:00,Melbourne Pavilion,"135-157 Racecourse Road Kensington, VIC 3031",https://www.eventbrite.com.au/e/mcw-end-game-2024-tickets-1006014355017?aff=ebdssbdestsearch,-37.7889557,144.9363556
Juliet Fox - Revolver Sundays,8/12/2024,21:00,Revolver Upstairs,"Level 2/229 Chapel St, Prahran VIC 3181, Australia",https://www.facebook.com/events/1724506751461831/,-37.8505902,144.9933469
The Witches Faire,8/12/2024,10:00,Hawthorn Arts Centre,"360 Burwood Road Hawthorn, VIC 3122",https://www.eventbrite.com/e/the-witches-faire-tickets-1023098153117?aff=ebdssbdestsearch,-37.8230335,145.03588565533943
***SOLD OUT*** ROSS WILSON & THE PEACENIKS,8/12/2024,14:00,Way Out West Roots Music Club,"4 Market St, Newport VIC 3015, Australia",https://www.facebook.com/events/26559182147062741/,-37.8439028,144.8823845
Lakeview,8/12/2024,0:00,Bad Decisions Bar,"46 Johnston St, Fitzroy VIC 3065, Australia",https://www.facebook.com/events/1098212474573374/,-37.798246,144.9762881
"James Marriott at Northcote Theatre, Melbourne (Unlicensed All Ages)",8/12/2024,19:00,Northcote Theatre,"216 High St, Northcote VIC 3070, Australia",https://www.facebook.com/events/725997812926777/,-37.7737068,144.9982706
Rebecca Barnard & Billy Miller's Silly Season Singalong | MEMO Music Hall,8/12/2024,15:00,MEMO Music Hall,"88 Acland St, St Kilda VIC 3182, Australia",https://www.facebook.com/events/1431901437517606/,-37.8671902,144.9786817
"Sunday School: Blue Tongue Wizard, Wet Love, Hypnotic State",8/12/2024,0:00,Bergy Bandroom,"64 Sydney Rd, Brunswick VIC 3056, Australia",https://www.facebook.com/events/578201221256142/,-37.776327,144.9607158
CCCS Conference 2024: Grounding Global China,8/12/2024,9:00,Sidney Myer Asia Institute,"761 Swanston Street #325 Parkville, VIC 3052",https://www.eventbrite.com.au/e/cccs-conference-2024-grounding-global-china-tickets-911006022537?aff=ebdssbdestsearch,,
THE HACKKETS // NOISE SCAVENGERS // JAMES HULLICK,8/12/2024,0:00,JOLT Arts,"342 High St, Northcote VIC 3070, Australia",https://www.facebook.com/events/891020949804153/,-37.76999425,144.99908686916982
"Kirtan Fest 2024 - A Whole Day of Mantra, Chanting, Community & Love.",8/12/2024,10:00,Centre of You,"Upstairs, 217 Chapel St Prahran Melbourne, VIC 3181",https://www.eventbrite.com.au/e/kirtan-fest-2024-a-whole-day-of-mantra-chanting-community-love-tickets-1036563117187?aff=ebdssbdestsearch,-37.8509316,144.9933031
"(Sun, Dec  THE CALEDONIAN CASTAWAYS",8/12/2024,0:00,George Lane St Kilda,"1 George Ln, St Kilda VIC 3182, Australia",https://www.facebook.com/events/1073778794069623/,-37.85997305,144.9780306
The Herberts Christmas Show @ Oakleigh Music Hall,8/12/2024,14:30,Oakleigh Carnegie RSL,"95/97 Drummond St, Oakleigh VIC 3166, Australia",https://www.facebook.com/events/740031578235967/,-37.8968576,145.08963741959553
Carols by Kingston 2024,8/12/2024,0:00,Kingston City Hall,"979-985 Nepean Hwy, Moorabbin VIC 3189, Australia",https://www.facebook.com/events/1259790941826118/,-37.93372508,145.0352972005879
V Wine Salon x Marco Dazzan 2.0,8/12/2024,14:00,V Wine Salon,"673 Bourke Street Melbourne, VIC 3000",https://www.eventbrite.com.au/e/v-wine-salon-x-marco-dazzan-20-tickets-1072851290089?aff=ebdssbdestsearch,-37.8172245,144.9540853
Screening of John Hughes' documentary TWILIGHT TIME @ Cinema Nova,8/12/2024,16:30,Cinema Nova,"380 Lygon Street Carlton, VIC 3053",https://www.eventbrite.com/e/screening-of-john-hughes-documentary-twilight-time-cinema-nova-tickets-1052896761557?aff=ebdssbdestsearch,-37.7981335,144.9677286
"Reuben De Melo @ Melbourne Public, VIC (*ALL AGES)",8/12/2024,14:30,Melbourne Public,"11 Dukes Walk, South Wharf VIC 3006, Australia",https://www.facebook.com/events/450388088082419/,-37.82429308,144.95070613387392
Music Appreciation With Carmen Hendricks- Live at LOEV- Sun Dec 8th,8/12/2024,14:00,LOEV,"77 Keys Road Moorabbin, VIC 3189",https://www.eventbrite.com.au/e/music-appreciation-with-carmen-hendricks-live-at-loev-sun-dec-8th-tickets-1047508725797?aff=ebdssbdestsearch,-37.9484271,145.067727
Sabor Y Ritmo - Afro-Cuban Jazz at the Paris Cat,8/12/2024,0:00,Paris Cat Jazz Club,"6 Goldie Pl, Melbourne VIC 3000, Australia",https://www.facebook.com/events/1744326796398144/,-37.8133262,144.96060714767358
Dec13party,9/12/2024,10:00,Coburg,"73Coburg Melb, VIC 3089",https://www.eventbrite.com/e/dec13party-tickets-1077980882839?aff=ebdssbdestsearch,-37.6666174,145.1541397
Rowena Wise - Mondays in December at the Merri Creek Tavern,9/12/2024,20:00,The Merri Creek Tavern,"111 High St, Northcote VIC 3070, Australia",https://www.facebook.com/events/448372538303118/,-37.7794356,144.996838
"‘Social Sanctuary’ with Bec Sykes, Elaura & Pia + Anna Schneider (solo)",9/12/2024,19:00,Northcote Social Club,"301 High St, Northcote VIC 3070, Australia",https://www.facebook.com/events/1039015651355995/,-37.771471,144.998414
Össur Mobility Clinic on the Green - Melbourne,9/12/2024,9:00,The Metropolitan Golf Club,"Golf Road Oakleigh South, VIC 3167",https://www.eventbrite.com.au/e/ossur-mobility-clinic-on-the-green-melbourne-tickets-883117246457?aff=ebdssbdestsearch,-37.9155531,145.0885854
Morning Melodies 2024 Season,9/12/2024,0:00,Arts Centre Melbourne,"100 St Kilda Rd, Southbank VIC 3004, Australia",https://www.facebook.com/events/344932704872465/,-37.8216405,144.9683143
CME X Protagonist x Kitchen: Christmas Party,10/12/2024,16:00,St Kilda Sports Club,"66 Fitzroy Street St Kilda, VIC 3182",https://www.eventbrite.com.au/e/cme-x-protagonist-x-kitchen-christmas-party-tickets-1066516683109?aff=ebdssbdestsearch,-37.8586547,144.9780845
DPR - The Dream Reborn Tour 2024,10/12/2024,19:00,Festival Hall,"300 Dudley St, West Melbourne VIC 3003, Australia",https://www.facebook.com/events/443224371939943/,-37.8098193,144.9508057
Brava  Women Networking IN PERSON December 10th 2024 - Brighton,10/12/2024,12:00,The Deck  Brighton,"212 Bay Street Brighton, VIC 3186",https://www.eventbrite.com.au/e/brava-women-networking-in-person-december-10th-2024-brighton-tickets-853426009167?aff=ebdssbdestsearch,-37.9052818,144.999296
Santa Claus is Coming to Town,10/12/2024,0:00,The Clocktower Centre,"750 Mt Alexander Rd, Moonee Ponds VIC 3039, Australia",https://www.facebook.com/events/968126904794102/,-37.7656716,144.9248037207342
Church Growth International Conference Australia 2024,10/12/2024,10:00,215 Little Collins St,"215 Little Collins Street Melbourne, VIC 3000",https://www.eventbrite.co.uk/e/church-growth-international-conference-australia-2024-tickets-874160707207?aff=ebdssbdestsearch,-37.8143634,144.9668522
PLAY: Magicians at Work,11/12/2024,0:00,Arts Centre Melbourne,"100 St Kilda Rd, Southbank VIC 3004, Australia",https://www.facebook.com/events/7955852801173144/,-37.8216405,144.9683143
Pop Icon Dance / Oh Santa! (Christmas Dance Class),11/12/2024,19:00,Transit Dance Studio,"64 Dawson Street Brunswick, VIC 3056",https://www.eventbrite.com.au/e/pop-icon-dance-oh-santa-christmas-dance-class-tickets-1091859353719?aff=ebdssbdestsearch,-37.7701752,144.9559255
CHOOF & SATANIC DOG CUNTS,11/12/2024,19:00,The Last Chance,"238 Victoria St, Melbourne VIC 3000, Australia",https://www.facebook.com/events/555497527431855/,-37.8059962,144.9585654
"Cripps & Curnow LIVE at Shoppingtown Hotel, Doncaster!",11/12/2024,19:00,Shoppingtown Hotel,"19 Williamsons Road Doncaster, VIC 3108",https://www.eventbrite.com.au/e/cripps-curnow-live-at-shoppingtown-hotel-doncaster-tickets-1075300495729?aff=ebdssbdestsearch,-37.7851283,145.1227497
The Harmonix Experience,11/12/2024,18:00,Bird's Basement,"11 Singers Ln, Melbourne VIC 3000, Australia",https://www.facebook.com/events/385777254500813/,-37.81114416,144.95680390283175
(SOLD OUT) SINGSONGS: Christmas Edition Second Show,11/12/2024,0:00,arcobar heatherton,"8 Arco Ln, Heatherton VIC 3202, Australia",https://www.facebook.com/events/1272654983734462/,-37.94673685,145.07837928457485
"Mastering Music, Mastering Life",12/12/2024,0:00,Howler,"7-11 Dawson St, Brunswick VIC 3056, Australia",https://www.facebook.com/events/578209188089568/,-37.7720304,144.9596527
Sesame Girl,12/12/2024,19:00,Stay Gold,"133 Sydney Rd Brunswick Melbourne, VIC 3056",https://www.eventbrite.com.au/e/sesame-girl-tickets-1041515319357?aff=ebdssbdestsearch,-37.7743822,144.9606172
ATAR Results Party,12/12/2024,20:00,onesixone rooftop,"161 high st prahran, VIC 3181",https://www.eventbrite.com.au/e/atar-results-party-tickets-864801172587?aff=ebdssbdestsearch,-37.851542,144.9909994
Kingston Collective Christmas Party!,12/12/2024,18:00,LOEV,"77 Keys Road Moorabbin, VIC 3189",https://www.eventbrite.com.au/e/kingston-collective-christmas-party-tickets-1040255631597?aff=ebdssbdestsearch,-37.9484271,145.067727
HOLLY JOLLY QUEENS,12/12/2024,0:00,Murmur Piano Bar,"17 Warburton Ln, Melbourne VIC 3000, Australia",https://www.facebook.com/events/1269064844267980/,-37.8138247,144.9619345916501
The Blueberry Muffins at One2ThreeBar!,12/12/2024,19:00,One2three Bar,"123 Queens Parade, Clifton Hill VIC 3068, Australia",https://www.facebook.com/events/889334350036207/,-37.7892833,144.9901391
ALETHIA X Vanessa Estrada X Liana Perilla,12/12/2024,0:00,Bad Decisions Bar,"46 Johnston St, Fitzroy VIC 3065, Australia",https://www.facebook.com/events/942622567710868/,-37.798246,144.9762881
The Australian Ballet's The Nutcracker on the Big Screen,12/12/2024,0:00,Fed Square,"Swanston St &, Flinders St, Melbourne VIC 3000, Australia",https://www.facebook.com/events/580378198236956/,-37.81767355,144.9667825800355
Wolf and Willie & Thursday Night Jam!,12/12/2024,0:00,Hume Blues Club Inc,"27 Ballantyne St, Thornbury VIC 3071, Australia",https://www.facebook.com/events/506055805343156/,-37.7588241,144.9985126
Women Of Westpac Christmas Event,12/12/2024,4:30,150 Collins St,"150 Collins Street Melbourne, VIC 3000",https://www.eventbrite.com/e/women-of-westpac-christmas-event-tickets-1040251228427?aff=ebdssbdestsearch,-37.8164276,144.9630757
Strawberry Prince & Planet Pain at the Merri Creek Tavern,12/12/2024,0:00,The Merri Creek Tavern,"111 High St, Northcote VIC 3070, Australia",https://www.facebook.com/events/967472782075826/,-37.7794356,144.996838
Stupid F*ck Is Sick Of This Sh*t - fundraiser gig for Safe Steps,12/12/2024,19:00,The Last Chance,"238 Victoria St, Melbourne VIC 3000, Australia",https://www.facebook.com/events/1337355217675785/,-37.8059962,144.9585654
"Joe Camilleri presents Bakelite Radio ""Old Friends and New Companions",12/12/2024,17:00,Bird's Basement,"11 Singers Ln, Melbourne VIC 3000, Australia",https://www.facebook.com/events/2909499569218129/,-37.81114416,144.95680390283175
Master of Speech Pathology Celebration and Awards Evening 2024,12/12/2024,18:00,Melbourne Business School,"200 Leicester Street Carlton, VIC 3053",https://www.eventbrite.com.au/e/master-of-speech-pathology-celebration-and-awards-evening-2024-tickets-1033125515227?aff=ebdssbdestsearch,-37.801358,144.96116515896085
Spectrum Gala 2024,13/12/2024,19:00,Almina,"624 Sydney Road #1 Brunswick, VIC 3056",https://www.eventbrite.com.au/e/spectrum-gala-2024-tickets-1075331147409?aff=ebdssbdestsearch,,
"Acoutikiss Farewell show! Cherry Bar, FRI DEC 13th",13/12/2024,20:00,"Cherry Bar, Little Collins Street, Melbourne VIC, Australia","68 Little Collins Street Melbourne, VIC 3000",https://www.eventbrite.com.au/e/acoutikiss-farewell-show-cherry-bar-fri-dec-13th-tickets-1050152754157?aff=ebdssbdestsearch,-37.8129293,144.9714986
Manningham Social Club Christmas Party 2024!,13/12/2024,19:00,Welcome to Brunswick,"408 Sydney Road Brunswick, VIC 3056",https://www.eventbrite.com.au/e/manningham-social-club-christmas-party-2024-tickets-1034646364127?aff=ebdssbdestsearch,-37.7684338,144.9621623
Kindred Singles (20s-40s) Festive Edition - Dating for Conscious Relating.,13/12/2024,18:30,Centre of You,"Upstairs, 217 Chapel St Prahran Melbourne, VIC 3181",https://www.eventbrite.com.au/e/kindred-singles-20s-40s-festive-edition-dating-for-conscious-relating-tickets-1041811856307?aff=ebdssbdestsearch,-37.8509316,144.9933031
Melbourne Christmas Lunch,13/12/2024,12:00,"Q Events - Event Space Melbourne, Wedding Venue & Corporate Events Venue","123 Queen Street Melbourne, VIC 3000",https://www.eventbrite.com.au/e/melbourne-christmas-lunch-tickets-1015038636887?aff=ebdssbdestsearch,-37.8157528,144.9607103
DETTY DECEMBER,13/12/2024,21:00,Melbourne,"1 Melbourne, VIC 3030",https://www.eventbrite.com.au/e/detty-december-tickets-1079068285289?aff=ebdssbdestsearch,-37.938058,144.6753231
ATET Forever: The Journey,13/12/2024,19:00,Docklands,"docklands ferry Docklands, VIC 3008",https://www.eventbrite.com.au/e/atet-forever-the-journey-tickets-1093457453679?aff=ebdssbdestsearch,,
Warner Brothers  at The Lomond Hotel,13/12/2024,21:00,The Lomond Hotel,"225 Nicholson Street Brunswick East, VIC 3057",https://www.eventbrite.com.au/e/warner-brothers-at-the-lomond-hotel-tickets-1070420078269?aff=ebdssbdestsearch,-37.7670861,144.9800057
Opera Salon Series: Beautiful Music in Historic Venues - Como House,13/12/2024,18:30,Como House and Garden,"Cnr Wiliams Road and Lechlade Ave South Yarra, VIC",https://www.eventbrite.com.au/e/opera-salon-series-beautiful-music-in-historic-venues-como-house-tickets-902064628587?aff=ebdssbdestsearch,-37.8385449,145.0050826
R&B Takeover - Volume 1,13/12/2024,22:00,The Social Bar,"116 Chapel Street Windsor, VIC 3181",https://www.eventbrite.com.au/e/rb-takeover-volume-1-tickets-1075226213549?aff=ebdssbdestsearch,-37.8540861,144.9931502
The DOT presents GOLDIE (3 Hour Set),13/12/2024,21:00,The Third Day,"290 Macaulay Road North Melbourne, VIC 3051",https://www.eventbrite.com.au/e/the-dot-presents-goldie-3-hour-set-tickets-1079170641439?aff=ebdssbdestsearch,-37.79495975,144.93665199999998
Brian Cadd @ Oakleigh Music Hall,13/12/2024,20:30,Oakleigh Carnegie RSL,"95/97 Drummond St, Oakleigh VIC 3166, Australia",https://www.facebook.com/events/2309359212746084/,-37.8968576,145.08963741959553
"R.M.F.C, The Shifters, Sleeper & Snake live at the last chance",13/12/2024,19:00,The Last Chance,"238 Victoria St, Melbourne VIC 3000, Australia",https://www.facebook.com/events/1255920595431921/,-37.8059962,144.9585654
Ally Hocking Howe and The Tom Bell Trio,13/12/2024,0:00,One2three Bar,"123 Queens Parade, Clifton Hill VIC 3068, Australia",https://www.facebook.com/events/1633404017524109/,-37.7892833,144.9901391
Ally Hocking Howe. The Tom Bell Trio,13/12/2024,19:00,One2three Bar,"123 Queens Parade, Clifton Hill VIC 3068, Australia",https://www.facebook.com/events/540905888801304/,-37.7892833,144.9901391
House of Light with Penny Ikinger's Marbles+Esse & Nilstock @ Cactus (last gig in Australia for HoL),13/12/2024,8:00,Cactus Room,"614 High St, Thornbury VIC 3071, Australia",https://www.facebook.com/events/1504513676928278/,-37.76125825,145.00041662186553
Malcura at Mantra Studio on Friday December 13,13/12/2024,0:00,Mantra Studio Kitchen and Bar,"10 Campbell St, Yarraville VIC 3013, Australia",https://www.facebook.com/events/582500237655454/,-37.820684,144.8947691
An Evening With Malcura - Celebrating 'Flamenco Metal' ,13/12/2024,19:30,Mantra Studio Kitchen and Bar,"10 Campbell St, Yarraville VIC 3013, Australia",https://www.facebook.com/events/1767594000445805/,-37.820684,144.8947691
GROOVE DIMENSION 70s Funk RnB Disco,13/12/2024,20:00,Lucky 13 Garage,"8 Cochranes Rd, Moorabbin VIC 3189, Australia",https://www.facebook.com/events/1059289125439758/,-37.94349189,145.07036236060654
Kandy Carnival,13/12/2024,18:00,Festival Hall,"300 Dudley St, West Melbourne VIC 3003, Australia",https://www.facebook.com/events/2057102354735739/,-37.8098193,144.9508057
"BAND FROM HELL (PERTH) - The Best Of Pop-Punk, Nu-Metal & Rock | Revolver Melbourne",13/12/2024,0:00,Revolver Upstairs,"Level 2/229 Chapel St, Prahran VIC 3181, Australia",https://www.facebook.com/events/1257750862070412/,-37.8505902,144.9933469
Bubble x New Guernica Pres. OLDBOY (UK) & DJ COSWORTH (UK),13/12/2024,0:00,New Guernica,"64 Smith St, Collingwood VIC 3066, Australia",https://www.facebook.com/events/501350539568850/,-37.80624775,144.98331211946754
Huminal (NL) — Ugenius & Revolver Fridays,13/12/2024,0:00,Revolver Upstairs,"Level 2/229 Chapel St, Prahran VIC 3181, Australia",https://www.facebook.com/events/533490512993807/,-37.8505902,144.9933469
Henn & Stella Dunai @ The Merri Creek Tavern,13/12/2024,20:30,The Merri Creek Tavern,"111 High St, Northcote VIC 3070, Australia",https://www.facebook.com/events/3771032966470651/,-37.7794356,144.996838
National Startup Championship 2024 for kids and youth,14/12/2024,8:00,"Harbour Kitchen - Functions, Party and Events Venue","800 Bourke Street #Shop1 Docklands, VIC 3008",https://www.eventbrite.com.au/e/national-startup-championship-2024-for-kids-and-youth-registration-1077691276619?aff=ebdssbdestsearch,-37.8191708,144.9453257
Macleod Village Christmas Fair and Market - $15 UNLIMITED RIDES WRIST BANDS,14/12/2024,10:00,Macleod Village Rotunda,"Aberdeen Road Macleod, VIC 3085",https://www.eventbrite.com.au/e/macleod-village-christmas-fair-and-market-15-unlimited-rides-wrist-bands-tickets-1061855250639?aff=ebdssbdestsearch,-37.7273508,145.0701041
Movies Under the Stars — Home Alone,14/12/2024,18:00,Sir Douglas Nicholls Oval,"Watt Street Thornbury, VIC 3071",https://www.eventbrite.com.au/e/movies-under-the-stars-home-alone-tickets-1040342080167?aff=ebdssbdestsearch,-37.7534508,144.996446
DESIRE'S FINAL EVENT FOR 2024 (FIRE & DESIRE),14/12/2024,22:00,Club Pandora,"127 Dorcas Street South Melbourne, VIC 3205",https://www.eventbrite.com/e/desires-final-event-for-2024-fire-desire-tickets-1079095185749?aff=ebdssbdestsearch,-37.831769,144.96557
Tim Burton Emo Christmas - Emo Night Melbourne,14/12/2024,20:00,Deluxe Bar,"595 Mount Alexander Road Moonee Ponds, VIC 3039",https://www.eventbrite.com.au/e/tim-burton-emo-christmas-emo-night-melbourne-tickets-921351786997?aff=ebdssbdestsearch,-37.768313,144.925046
Christmas@ZCK,14/12/2024,5:30,ZEE CHENG KHOR COMMUNITY CENTRE,"14-26 Audsley Street #1 Clayton South, VIC 3169",https://www.eventbrite.com.au/e/christmaszck-tickets-1090295094979?aff=ebdssbdestsearch,-37.931192,145.122415
Edo Club Awareness Day Celebration 2024,14/12/2024,17:00,Collingwood Town Hall,"140 Hoddle Street Abbotsford, VIC 3067",https://www.eventbrite.com.au/e/edo-club-awareness-day-celebration-2024-tickets-1015096068667?aff=ebdssbdestsearch,-37.8039527,144.9929394
Celeste V2 - A night Unscripted,14/12/2024,18:00,400 City Rd,"400 City Road Southbank, VIC 3006",https://www.eventbrite.com/e/celeste-v2-a-night-unscripted-registration-1044577067127?aff=ebdssbdestsearch,-37.829386,144.9556897
Arcoíris Queer Latin Party: Santa en Verano,14/12/2024,22:00,Inflation Entertainment Complex,"60 King Street Melbourne, VIC 3000",https://www.eventbrite.com.au/e/arcoiris-queer-latin-party-santa-en-verano-tickets-1088590335999?aff=ebdssbdestsearch,-37.8188863,144.9571605
Sake x Ghibli Jazz (Special Robata lunch set menu),14/12/2024,12:30,KURA,"30 Lygon Street #Shop 1/22 Brunswick East, VIC 3057",https://www.eventbrite.com.au/e/sake-x-ghibli-jazz-special-robata-lunch-set-menu-tickets-1061202066949?aff=ebdssbdestsearch,-37.7778396,144.970932
TRIBE: FOREVER | DECEMBER 14th | Bourke Street Courtyard,14/12/2024,22:00,Bourke Street Courtyard,"629 Bourke Street Melbourne, VIC 3004",https://www.eventbrite.com.au/e/tribe-forever-december-14th-bourke-street-courtyard-tickets-1082890888799?aff=ebdssbdestsearch,-37.8168528,144.9552468
SERÜM. - 14/12/24,14/12/2024,21:00,134 Greville St,"134 Greville Street Prahran, VIC 3181",https://www.eventbrite.com.au/e/serum-141224-tickets-1089575071369?aff=ebdssbdestsearch,-37.8493753,144.9912467
Voyager 2024,14/12/2024,0:00,24 Moons,"2 Arthurton Rd, Northcote VIC 3070, Australia",https://www.facebook.com/events/2331006080585343/,-37.7691418,144.9982614
RINI - Somewhere in Time Tour | Naarm/Melbourne,14/12/2024,19:30,Forum Melbourne,"154 Flinders St, Melbourne VIC 3000, Australia",https://www.facebook.com/events/1326177275419144/,-37.81644145,144.9693768124984
Koorie Krismas,14/12/2024,0:00,Fed Square,"Swanston St &, Flinders St, Melbourne VIC 3000, Australia",https://www.facebook.com/events/8255812904524887/,-37.81767355,144.9667825800355
"Absolutely 80's Xmas Show - Scott Carne, Ally Fowler, Brian Mannix",14/12/2024,21:00,Missing Gorilla,"70 Commercial Place #1 Eltham, VIC 3095",https://www.eventbrite.com.au/e/absolutely-80s-xmas-show-scott-carne-ally-fowler-brian-mannix-tickets-929548112427?aff=ebdssbdestsearch,-37.7127434,145.1494258
"Xmas bash featuring Brown Spirits, Zelkova and more ..",14/12/2024,20:00,Cactus Room,"614 High St, Thornbury VIC 3071, Australia",https://www.facebook.com/events/549871414329915/,-37.76125825,145.00041662186553
The Tram Tracks Tour 2024 @ The Toff In Town,14/12/2024,0:00,The Toff,"2f/252 Swanston St, Melbourne VIC 3000, Australia",https://www.facebook.com/events/1759618528161451/,-37.80660325,144.9628141258931
"Dux Nuts, Showcasing Great Oz Rock",14/12/2024,20:00,Lucky 13 Garage,"8 Cochranes Rd, Moorabbin VIC 3189, Australia",https://www.facebook.com/events/1603161406938275/,-37.94349189,145.07036236060654
"(Sat, Dec 14) ALICE ANDERSEN + Beacs (George Lane Matinee Sessions)",14/12/2024,0:00,George Lane St Kilda,"1 George Ln, St Kilda VIC 3182, Australia",https://www.facebook.com/events/1612034022998514/,-37.85997305,144.9780306
Tangular: DJ Kiti + Friends,14/12/2024,0:00,Wax Music Lounge,"250 Flinders St, Melbourne VIC 3000, Australia",https://www.facebook.com/events/960319379453046/,-37.8176298,144.9661635
Adam Mendum & Carl Winfield @ The Thornbury Local,14/12/2024,20:00,The Thornbury Local,"635 High St, Thornbury VIC 3071, Australia",https://www.facebook.com/events/2097495117354005/,-37.76165125,144.99987967655426
AGE Of LOVE - P!NK Party,14/12/2024,21:00,The Nashaa Club,"8 Jackson Street Toorak, VIC 3142",https://www.eventbrite.com.au/e/age-of-love-pnk-party-tickets-964336274757?aff=ebdssbdestsearch,-37.8399924,145.0075974
Exek / R.M.F.C / G2g Live at The Curtin,14/12/2024,20:00,THE CURTIN (John Curtin hotel),"29 Lygon St, Carlton VIC 3053, Australia",https://www.facebook.com/events/1283234586029942/,-37.8061581,144.9657057
Christmas Cookie Swap,14/12/2024,10:00,Co.Bake Space,"239 Swan Street Richmond, VIC 3121",https://www.eventbrite.com/e/christmas-cookie-swap-tickets-1076332572699?aff=ebdssbdestsearch,-37.825764,145.000489
Vibe Studios 20th Anniversary Spectacular,14/12/2024,17:00,Palais Theatre,"Lower Esplanade, St Kilda VIC 3182, Australia",https://www.facebook.com/events/454960054288747/,-37.86708671,144.97599656199426
Warg presents Stef Mendesidis [LIVE],14/12/2024,19:00,The Third Day,"290 Macaulay Road North Melbourne, VIC 3051",https://www.eventbrite.com.au/e/warg-presents-stef-mendesidis-live-tickets-1075324327009?aff=ebdssbdestsearch,-37.79495975,144.93665199999998
"Mel Searle Presents: ‘The Christmas Song’ - An Ella, Nat King Cole & Friends Swingin' Christmas",14/12/2024,0:00,Paris Cat Jazz Club,"6 Goldie Pl, Melbourne VIC 3000, Australia",https://www.facebook.com/events/1662965077627158/,-37.8133262,144.96060714767358
"SHOOTERS SHOOT: 4TH MAJOR CHARITY BASKETBALL EVENT, 4 OURS",14/12/2024,10:00,Seaworks Maritime Precinct,"82 Nelson Place #82 Williamstown, VIC 3016",https://www.eventbrite.com/e/shooters-shoot-4th-major-charity-basketball-event-4-ours-tickets-1054456871889?aff=ebdssbdestsearch,,
The Blues Brothers Show @ Oakleigh Music Hall,14/12/2024,20:00,Oakleigh Carnegie RSL,"95/97 Drummond St, Oakleigh VIC 3166, Australia",https://www.facebook.com/events/536992059054981/,-37.8968576,145.08963741959553
Aria End Of Year Editions,15/12/2024,14:00,State of Grace,"27 King Street Melbourne, VIC 3000",https://www.eventbrite.com.au/e/aria-end-of-year-editions-tickets-1048369771207?aff=ebdssbdestsearch,-37.8197686,144.9570397
Ally Hocking Howe and Ragged Blossom,15/12/2024,0:00,Lulie Tavern,"225 Johnston St, Abbotsford VIC 3067, Australia",https://www.facebook.com/events/1497816807593958/,-37.8000264,144.9936498
GEOFF ACHISON and THE SOUL DIGGERS,15/12/2024,14:00,Way Out West Roots Music Club,"4 Market St, Newport VIC 3015, Australia",https://www.facebook.com/events/543100528176870/,-37.8439028,144.8823845
Family Fun Day,15/12/2024,0:00,Sunshine City Club,"24 Talmage St, Albion VIC 3020, Australia",https://www.facebook.com/events/2585079715009650/,-37.779028,144.8243730166129
VAS End of Year Showcase,15/12/2024,18:30,"St Bernard's College 41 Rosehill Road Essendon West VIC , Aust ( Frank Fitzgerald Auditorium)","41 Rosehill Road Essendon West, VIC 3040",https://www.eventbrite.com.au/e/vas-end-of-year-showcase-tickets-1053041213617?aff=ebdssbdestsearch,-37.7482985,144.8831264
ATET Forever: JÄMO & KUMI,15/12/2024,18:00,Docklands,"docklands ferry Docklands, VIC 3008",https://www.eventbrite.com.au/e/atet-forever-jamo-kumi-tickets-1091823285839?aff=ebdssbdestsearch,,
Rave Signal,15/12/2024,0:00,Howler,"7-11 Dawson St, Brunswick VIC 3056, Australia",https://www.facebook.com/events/2821725668004493/,-37.7720304,144.9596527
墨尔本-望子成凤返场,15/12/2024,7:30,Library at The Dock,"107 Victoria Harbour Promenade Docklands, VIC 3008",https://www.eventbrite.com/e/1079981617089?aff=ebdssbdestsearch,-37.8200204,144.94054449965813
Soulmate Speed Dating,15/12/2024,15:00,Moss Studios,"101 Evans Street Brunswick, VIC 3056",https://www.eventbrite.com.au/e/soulmate-speed-dating-tickets-1076274709629?aff=ebdssbdestsearch,-37.7703556,144.9709215
The Repeters Christmas Show @ Oakleigh Music Hall,15/12/2024,14:30,Oakleigh Carnegie RSL,"95/97 Drummond St, Oakleigh VIC 3166, Australia",https://www.facebook.com/events/1430247790987979/,-37.8968576,145.08963741959553
The Melbourne French Wine Festival,15/12/2024,10:00,The Mission to Seafarers Victoria,"717 Flinders Street Docklands, VIC 3008",https://www.eventbrite.com.au/e/the-melbourne-french-wine-festival-tickets-1053119361359?aff=ebdssbdestsearch,-37.8225172,144.951249
SUNDAYLICIOUS | THE PRECINCT | SUNDAY DEC 15 | 3pm- 11pm | LGBTQIA+ event,15/12/2024,15:00,The Precinct Hotel,"60 Swan Street Cremorne, VIC 3121",https://www.eventbrite.com.au/e/sundaylicious-the-precinct-sunday-dec-15-3pm-11pm-lgbtqia-event-tickets-941690550787?aff=ebdssbdestsearch,-37.8248049,144.9898477
HELL UPSTAIRS,15/12/2024,0:00,Bad Decisions Bar,"46 Johnston St, Fitzroy VIC 3065, Australia",https://www.facebook.com/events/8670011283113470/,-37.798246,144.9762881
The Tonalists @ Bar 303,15/12/2024,0:00,Bar 303,"303 High St, Northcote VIC 3070, Australia",https://www.facebook.com/events/1094027902250562/,-37.7713296,144.99828116650363
Dave Johnstone Band & Cyclone Mavis at the Old Bar,15/12/2024,15:30,The Old Bar,"74-76 Johnston St, Fitzroy VIC 3065, Australia",https://www.facebook.com/events/1501363610582411/,-37.79833,144.97711
