Event_Title,Date,Time,Venue,Address,url,Latitude,Longitude
Trivia Tuesday's at Temperance Hotel!,2025-03-25,19:30,Temperance Hotel,"426 Chapel St, South Yarra VIC 3141, Australia",https://www.facebook.com/events/609896718629673/,-37.84306185,144.99489592695178
Implementing SSP in Primary Schools Using PLD - Mar 2025 (VIC Melbourne),2025-03-25,10:00,United Co.,"425 Smith Street Fitzroy, VIC 3065",https://www.eventbrite.com.au/e/implementing-ssp-in-primary-schools-using-pld-mar-2025-vic-melbourne-tickets-1015094383627?aff=ebdssbdestsearch,-37.7956368,144.9844614
"CISA Melbourne, VIC In-person Class",2025-03-25,09:00,120 Collins St,"120 Collins Street Levels 31 & 50/120 Collins St Melbourne, VIC 3000",https://www.eventbrite.com/e/cisa-melbourne-vic-in-person-class-tickets-1044453668037?aff=ebdssbdestsearch,-37.8138656,144.9695281
The Barossa Cookery Book,2025-03-25,18:30,Books for Cooks,"115-121 Victoria St Queen Victoria Market Melbourne, VIC 3000",https://www.eventbrite.com.au/e/the-barossa-cookery-book-tickets-1271725006729?aff=ebdssbdestsearch,-37.8062382,144.9576549
Motivational Interactions - 2 Day Foundational Skills Workshop,2025-03-25,09:00,Medibank Head Office,"695 Collins Street #Level 2 Docklands, VIC 3008",https://www.eventbrite.com/e/motivational-interactions-2-day-foundational-skills-workshop-registration-1106827824819?aff=ebdssbdestsearch,-37.8201002,144.9513369
Melbourne Bar Crawl,2025-03-25,10:00,The Joint,"35 Elizabeth Street #Level 1 Melbourne, VIC 3000",https://www.eventbrite.es/e/melbourne-bar-crawl-tickets-1248151126619?aff=ebdssbdestsearch,-37.8174437,144.9643457
Understanding and responding to school refusal,2025-03-25,09:30,RCH Mental Health Clinic,"50 Flemington Street Travancore, VIC 3032",https://www.eventbrite.com.au/e/understanding-and-responding-to-school-refusal-tickets-1105113336739?aff=ebdssbdestsearch,-37.7813309,144.9353557
LUX VIP MELB : Co-Working Day at the Terminus Hotel,2025-03-25,09:00,Terminus Hotel Fitzroy North,"492 Queens Parade Fitzroy North, VIC 3068",https://www.eventbrite.com.au/e/lux-vip-melb-co-working-day-at-the-terminus-hotel-tickets-1271712659799?aff=ebdssbdestsearch,-37.7853246,144.994443
"Content Creation Unleashed: Tools, Techniques & Time-Savers",2025-03-25,18:00,iHarvest Coworking Sunshine,"301 Hampshire Road #Level 4 Sunshine, VIC 3020",https://www.eventbrite.com.au/e/content-creation-unleashed-tools-techniques-time-savers-tickets-1138541069989?aff=ebdssbdestsearch,-37.783111,144.8321327
GCA Behind the Scenes Look a MIFGS 2025,2025-03-25,12:00,Royal Exhibition Building,"9 Nicholson Street Carlton, VIC 3053",https://www.eventbrite.com/e/gca-behind-the-scenes-look-a-mifgs-2025-tickets-1248063855589?aff=ebdssbdestsearch,-37.80468640000001,144.9716488
Zero to 100 CANVA Skills,2025-03-25,18:00,iHarvest Coworking Sunshine,"301 Hampshire Road #Level 4 Sunshine, VIC 3020",https://www.eventbrite.com.au/e/zero-to-100-canva-skills-tickets-1138541069989?aff=ebdssbdestsearch,-37.783111,144.8321327
The Theatre of Life Workshop: discover your next act...,2025-03-25,13:30,141 Camberwell Rd,"141 Camberwell Road Hawthorn East, VIC 3123",https://www.eventbrite.com.au/e/the-theatre-of-life-workshop-discover-your-next-act-tickets-1225808659699?aff=ebdssbdestsearch,-37.8289776,145.0542476
"CISA Training Melbourne, VIC In-Person Class",2025-03-25,09:00,120 Collins St,"120 Collins Street Levels 31 & 50/120 Collins St Melbourne, VIC 3000",https://www.eventbrite.com/e/cisa-training-melbourne-vic-in-person-class-tickets-1021058221627?aff=ebdssbdestsearch,-37.8138656,144.9695281
March 25th 2025 In Person BNI Melbourne City Corporate Networking Event,2025-03-25,06:45,Rendezvous Hotel Melbourne,"328 Flinders Street Melbourne, VIC 3000",https://www.eventbrite.com.au/e/march-25th-2025-in-person-bni-melbourne-city-corporate-networking-event-tickets-1280202021709?aff=ebdssbdestsearch,-37.81831330000001,144.9636251
2nd Digital Factory Forum 2024,2025-03-25,09:00,Melbourne Marriott Hotel Docklands,"15 Waterfront Way Docklands, VIC 3008",https://www.eventbrite.com.au/e/2nd-digital-factory-forum-2024-tickets-998550951777?aff=ebdssbdestsearch,-37.8136886,144.939224
Feedback Fitness for Leaders,2025-03-25,09:00,Dorsett Melbourne,"615 Little Lonsdale Street Melbourne, VIC 3000",https://www.eventbrite.com.au/e/feedback-fitness-for-leaders-tickets-1245676394629?aff=ebdssbdestsearch,-37.8139857,144.9532276
SciencePlay Kids STEM PD/PL for Primary and early secondary educators,2025-03-25,10:00,SciencePlay Kids,"32 Lobelia Drive Altona North, VIC 3025",https://www.eventbrite.com.au/e/scienceplay-kids-stem-pdpl-for-primary-and-early-secondary-educators-tickets-987578833877?aff=ebdssbdestsearch,-37.8440482,144.8419237
B.HR: From Good to Great,2025-03-25,12:00,Ikon Park,"400 Royal Parade Carlton North, VIC 3054",https://www.eventbrite.com.au/e/bhr-from-good-to-great-tickets-1248932894909?aff=ebdssbdestsearch,-37.7835963,144.9605857
Female Founder Pitch Night,2025-03-25,18:00,The Commons Gipps St,"38 Gipps St Collingwood, VIC 3066",https://www.eventbrite.com.au/e/female-founder-pitch-night-tickets-1082718994659?aff=ebdssbdestsearch,-37.8041282,144.9882914
The Quantum Experience | Melbourne | 25th March,2025-03-25,09:30,Showtime Events Centre,"61 South Wharf Promenade South Wharf, VIC 3006",https://www.eventbrite.com.au/e/the-quantum-experience-melbourne-25th-march-tickets-1247628623799?aff=ebdssbdestsearch,-37.8239794,144.9488373
"CISSP Melbourne, VIC In-person Class",2025-03-25,09:00,120 Collins St,"120 Collins Street Levels 31 & 50/120 Collins St Melbourne, VIC 3000",https://www.eventbrite.com/e/cissp-melbourne-vic-in-person-class-tickets-1040073296227?aff=ebdssbdestsearch,-37.8138656,144.9695281
"CISSP Training Melbourne, VIC In-Person Class",2025-03-25,09:00,120 Collins St,"120 Collins Street Levels 31 & 50/120 Collins St Melbourne, VIC 3000",https://www.eventbrite.com/e/cissp-training-melbourne-vic-in-person-class-tickets-1024354801787?aff=ebdssbdestsearch,-37.8138656,144.9695281
AMPC National Safety Spotlight,2025-03-25,08:00,The Crown Promenade Melbourne,"8 Whiteman Street Southbank, VIC 3006",https://www.eventbrite.com.au/e/ampc-national-safety-spotlight-tickets-1218570048819?aff=ebdssbdestsearch,-37.82343669999999,144.9580861
Lawrence Mooney: Dead Set Country,2025-03-25,18:30,Melbourne International Comedy Festival,Melbourne,https://www.facebook.com/events/530302369880937/,-37.8136,144.9631
Freiburg Baroque Orchestra,2025-03-25,19:30,Melbourne Recital Centre,"31 Sturt St, Southbank VIC 3006, Australia",https://www.facebook.com/events/1310840113639371/,-37.82408485,144.96758763141432
Casual Underworlds at the Arena,2025-03-25,00:00,The Gaming Arena,"123 Bakers Rd, Coburg North VIC 3058, Australia",https://www.facebook.com/events/495373133657057/,-37.72715826,144.96115535488718
Carmen & Bolude: Meet the Filmmaker,2025-03-25,18:40,Cinema Nova,"380 Lygon St, Carlton VIC 3053, Australia",https://www.facebook.com/events/1308653970386862/,-37.7978092,144.9680124
Skills for responding to self-harm and suicide,2025-03-26,09:30,Orygen Colonial  Foundation Innovation Centre,"35 Poplar Road Parkville, VIC 3052",https://www.eventbrite.com.au/e/skills-for-responding-to-self-harm-and-suicide-tickets-1108921948399?aff=ebdssbdestsearch,-37.7801959,144.9478953
Best of the Edinburgh Fest,2025-03-26,19:45,Melbourne International Comedy Festival,Melbourne,https://www.facebook.com/events/1981180505689850/,-37.8136,144.9631
Too Sexy For France. Melb Comedy Festival Show.,2025-03-26,00:00,Club Voltaire,"1st Floor/14 Raglan St, North Melbourne VIC 3051, Australia",https://www.facebook.com/events/2767265246814959/,-37.8042869,144.9501372
Akmal,2025-03-26,21:00,Melbourne International Comedy Festival,Melbourne,https://www.facebook.com/events/1287250789290538/,-37.8136,144.9631
Freiburg Baroque Orchestra with Siobhan Stagg,2025-03-26,19:30,Melbourne Recital Centre,"31 Sturt St, Southbank VIC 3006, Australia",https://www.facebook.com/events/977452323741143/,-37.82408485,144.96758763141432
FRONT BAR BINGO,2025-03-26,19:00,Northcote Social Club,"301 High St, Northcote VIC 3070, Australia",https://www.facebook.com/events/617580111048784/,-37.771471,144.998414
Comedy House presents Stephen K Amos,2025-03-26,20:00,Altona Sports Club,"11 Altona Rd, Altona VIC 3018, Australia",https://www.facebook.com/events/985159826924777/,-37.85754867,144.85121805353086
The Jazz Alchemists,2025-03-26,18:00,Bird's Basement,"11 Singers Ln, Melbourne VIC 3000, Australia",https://www.facebook.com/events/960674705971816/,-37.81114416,144.95680390283175
Ginni & The Wiz! Jack Ginnivan & Nick Watson LIVE at Carlton Brewhouse!,2025-03-26,19:00,Carlton Brewhouse,"24 Thompson Street Abbotsford, VIC 3067",https://www.eventbrite.com.au/e/ginni-the-wiz-jack-ginnivan-nick-watson-live-at-carlton-brewhouse-tickets-1160684842609?aff=ebdssbdestsearch,-37.8096501,145.0041255
The Smart Investor: Commercial Property & Tax Secrets (Melbourne),2025-03-26,18:00,Oaks Melbourne on Market Hotel,"60 Market Street Melbourne, VIC 3000",https://www.eventbrite.com.au/e/the-smart-investor-commercial-property-tax-secrets-melbourne-tickets-1234587146389?aff=ebdssbdestsearch,-37.8178256,144.9607964
Hobsons Bay Toddler Art & Nature Play,2025-03-26,11:00,Hobsons Bay Toy Library,"51 Maddox Road Newport, VIC 3015",https://www.eventbrite.com.au/e/hobsons-bay-toddler-art-nature-play-tickets-1128242426469?aff=ebdssbdestsearch,-37.8456592,144.8677992
DBSC - Ultimate Battle 2025 Vol.1 - Gameology CLAYTON SOUTH - 26/03/25,2025-03-26,06:30,Gameology,"12 Eileen Road Clayton South, VIC 3169",https://www.eventbrite.com.au/e/dbsc-ultimate-battle-2025-vol1-gameology-clayton-south-260325-tickets-1252534677939?aff=ebdssbdestsearch,-37.9512104,145.1347381
Imported Wine Odyssey - Melbourne - Public Event,2025-03-26,18:00,"InterContinental Melbourne, an IHG Hotel","495 Collins Street Melbourne, VIC 3000",https://www.eventbrite.com.au/e/imported-wine-odyssey-melbourne-public-event-tickets-1236661591109?aff=ebdssbdestsearch,-37.8183605,144.9580642
"Peter James - Me, Again. Hello.",2025-03-26,20:35,Tasma Terrace,"5 Parliament Place Melbourne, VIC 3002",https://www.eventbrite.co.uk/e/peter-james-me-again-hello-tickets-1085019084289?aff=ebdssbdestsearch,-37.8117589,144.9752047
Jeremy Moses: 157 Years of Bad Slam Poetry,2025-03-26,19:40,DoubleTree by Hilton,"270 Flinders Street Melbourne, VIC 3002",https://www.eventbrite.co.uk/e/jeremy-moses-157-years-of-bad-slam-poetry-tickets-1085025001989?aff=ebdssbdestsearch,-37.8178608,144.9654542
Purple is the Gayest Colour,2025-03-26,19:25,Tasma Terrace,"5 Parliament Place Melbourne, VIC 3002",https://www.eventbrite.co.uk/e/purple-is-the-gayest-colour-tickets-1086514757889?aff=ebdssbdestsearch,-37.8117589,144.9752047
La Docena at Hacienda,2025-03-26,18:30,"m28/3 southgate avenue, Southbank 3006","3 Southgate Avenue Southbank, VIC 3006",https://www.eventbrite.com/e/la-docena-at-hacienda-tickets-1041764344197?aff=ebdssbdestsearch,-37.820556,144.965833
Laneway Night Bites,2025-03-26,17:45,Penny Young,"22 Young Street Moonee Ponds, VIC 3039",https://www.eventbrite.com/e/laneway-night-bites-tickets-1037639235887?aff=ebdssbdestsearch,-37.7677056,144.9231243
Whack Job!,2025-03-26,18:40,Tasma Terrace,"5 Parliament Place Melbourne, VIC 3002",https://www.eventbrite.co.uk/e/whack-job-tickets-1094821142509?aff=ebdssbdestsearch,-37.8117589,144.9752047
Oldest Newcomer,2025-03-26,18:15,Tasma Terrace,"5 Parliament Place Melbourne, VIC 3002",https://www.eventbrite.co.uk/e/oldest-newcomer-tickets-1085016927839?aff=ebdssbdestsearch,-37.8117589,144.9752047
Change Makers Evening Experience 26th March 2025,2025-03-26,18:30,Rice Paper Scissors,"307 Brunswick Street Fitzroy, VIC 3065",https://www.eventbrite.com.au/e/change-makers-evening-experience-26th-march-2025-tickets-1147831658389?aff=ebdssbdestsearch,-37.7978594,144.9783926
Melbourne Supper Club,2025-03-26,06:30,Cam’s Kiosk (Cafe & Bar),"1 Saint Heliers Street Abbotsford, VIC 3067",https://www.eventbrite.com.au/e/melbourne-supper-club-tickets-1105141831969?aff=ebdssbdestsearch,-37.8031791,145.0037812
"Dark Times, Darker Comedy",2025-03-26,08:30,Goff's Comedy,"215 Swan Street Richmond, VIC 3121",https://www.eventbrite.com.au/e/dark-times-darker-comedy-tickets-1112315618959?aff=ebdssbdestsearch,-37.8256242,144.9994168
Macbeth! The Scotch Play - by Booze & the Bard,2025-03-26,21:50,DoubleTree by Hilton,"270 Flinders Street Melbourne, VIC 3002",https://www.eventbrite.co.uk/e/macbeth-the-scotch-play-by-booze-the-bard-tickets-1085027138379?aff=ebdssbdestsearch,-37.8178608,144.9654542
"Adele, Adele, Adele…Cliff It Isn’t The Consequences Of My Own Actions",2025-03-26,18:00,Tasma Terrace,"5 Parliament Place Melbourne, VIC 3002",https://www.eventbrite.co.uk/e/adele-adele-adelecliff-it-isnt-the-consequences-of-my-own-actions-tickets-1112253814099?aff=ebdssbdestsearch,-37.8117589,144.9752047
MPM Networking Event  - Wednesday 26th March 2025,2025-03-26,17:00,Le Ciel Events,"13 Cremorne Street #Level 6 Cremorne, VIC 3121",https://www.eventbrite.com.au/e/mpm-networking-event-wednesday-26th-march-2025-tickets-1235323639259?aff=ebdssbdestsearch,-37.8257408,144.9912567
"High, Functioning, Autistic",2025-03-26,21:45,Tasma Terrace,"5 Parliament Place Melbourne, VIC 3002",https://www.eventbrite.co.uk/e/high-functioning-autistic-tickets-1086683572819?aff=ebdssbdestsearch,-37.8117589,144.9752047
Apologetically Me,2025-03-26,17:45,Tasma Terrace,"5 Parliament Place Melbourne, VIC 3002",https://www.eventbrite.co.uk/e/apologetically-me-tickets-1085010097409?aff=ebdssbdestsearch,-37.8117589,144.9752047
Sheepish,2025-03-26,21:00,Tasma Terrace,"5 Parliament Place Melbourne, VIC 3002",https://www.eventbrite.co.uk/e/sheepish-tickets-1083789015119?aff=ebdssbdestsearch,-37.8117589,144.9752047
SciencePlay Kids PD/PL for EARLY YEARS educators,2025-03-26,10:00,SciencePlay Kids,"32 Lobelia Drive Altona North, VIC 3025",https://www.eventbrite.com.au/e/scienceplay-kids-pdpl-for-early-years-educators-tickets-987816976167?aff=ebdssbdestsearch,-37.8440482,144.8419237
Sound Healing - NURTURE Sound Bath with Romy,2025-03-26,19:30,Private Studio in St Kilda East (see email for address),"Alma Road St Kilda East, VIC 3183",https://www.eventbrite.com.au/e/sound-healing-nurture-sound-bath-with-romy-tickets-1266975751579?aff=ebdssbdestsearch,-37.8626178,145.0005983
Alanah Parkin’s Garage Sale,2025-03-26,20:45,DoubleTree by Hilton,"270 Flinders Street Melbourne, VIC 3002",https://www.eventbrite.co.uk/e/alanah-parkins-garage-sale-tickets-1085026666969?aff=ebdssbdestsearch,-37.8178608,144.9654542
One For The Record Books,2025-03-26,18:35,DoubleTree by Hilton,"270 Flinders Street Melbourne, VIC 3002",https://www.eventbrite.co.uk/e/one-for-the-record-books-tickets-1085022083259?aff=ebdssbdestsearch,-37.8178608,144.9654542
Melbourne speed dating for ages 26-44 by Cheeky Events Australia,2025-03-27,19:00,Bar Blanco,"102 Chapel Street Windsor Melbourne, VIC 3181",https://www.eventbrite.com.au/e/melbourne-speed-dating-for-ages-26-44-by-cheeky-events-australia-tickets-1020558356517?aff=ebdssbdestsearch,-37.8544756,144.9930723
Big John Blues Experience - Thursday Night Jam!,2025-03-27,00:00,Hume Blues Club Inc,"27 Ballantyne St, Thornbury VIC 3071, Australia",https://www.facebook.com/events/1121337375896360/,-37.7588241,144.9985126
ECA Vic Research Forum 2025,2025-03-27,18:00,Melbourne Polytechnic (Preston Campus),"77 Saint Georges Road Preston, VIC 3072",https://www.eventbrite.com.au/e/eca-vic-research-forum-2025-tickets-1269893478579?aff=ebdssbdestsearch,-37.741723,144.997681
Where food meets art,2025-03-27,06:30,"Lanson Place Parliament Gardens, Melbourne","502 Albert Street East Melbourne, VIC 3002",https://www.eventbrite.com/e/where-food-meets-art-tickets-1096868636619?aff=ebdssbdestsearch,-37.8089788,144.9740264
RICH WEBB & THE LIARS + Truckers for Christ - Lulie Tav - Thurs 27 Mar - 8pm,2025-03-27,20:00,Lulie Tavern,"225 Johnston St, Abbotsford VIC 3067, Australia",https://www.facebook.com/events/1312839553200747/,-37.8000264,144.9936498
Wine & Insights: The Power & Potential of a Minority Government,2025-03-27,05:30,FTI Consulting,"Level 50 600 Bourke Street Melbourne, VIC 3000",https://www.eventbrite.com.au/e/wine-insights-the-power-potential-of-a-minority-government-tickets-1252722379359?aff=ebdssbdestsearch,-37.8158765,144.9562239
UNSW Machine Condition Monitoring Workshop,2025-03-27,09:00,Deakin Downtown,"727 Collins Street #tower 2 level 12 Melbourne, VIC 3008",https://www.eventbrite.com.au/e/unsw-machine-condition-monitoring-workshop-tickets-1013300116927?aff=ebdssbdestsearch,-37.8206847,144.949995
MASS Corporate Cocktails 2025,2025-03-27,18:00,The Promenade Docklands,"78 Newquay Promenade #Suite 2, Level 1 Docklands, VIC 3008",https://www.eventbrite.com.au/e/mass-corporate-cocktails-2025-tickets-1279122623199?aff=ebdssbdestsearch,-37.8145014,144.9392306
2025 Svenson Barristers Family Law CPD Day,2025-03-27,08:30,RACV City Club,"501 Bourke Street Melbourne, VIC 3000",https://www.eventbrite.com.au/e/2025-svenson-barristers-family-law-cpd-day-tickets-1108806372709?aff=ebdssbdestsearch,-37.8154838,144.9594302
Imported Wine Odyssey - Hobart - Public Event,2025-03-27,18:00,Franklin Wharf Function Centre - Murray Street Pier,"28 Morrison Street Hobart, TAS 7000",https://www.eventbrite.com.au/e/imported-wine-odyssey-hobart-public-event-tickets-1236687669109?aff=ebdssbdestsearch,-42.8858889,147.3336743
Greek Wine Regions masterclass at Northside Wines,2025-03-27,18:30,Northside Wines,"543-545 High Street Northcote, VIC 3070",https://www.eventbrite.com.au/e/greek-wine-regions-masterclass-at-northside-wines-tickets-1206285104219?aff=ebdssbdestsearch,-37.7642271,144.9994439
WtT: End of Summer Social & Quiz (Melbourne),2025-03-27,18:00,Hophaus Bar,"3 Southgate Avenue #MR5 Southbank, VIC 3006",https://www.eventbrite.com.au/e/wtt-end-of-summer-social-quiz-melbourne-tickets-1246851860479?aff=ebdssbdestsearch,-37.8202212,144.9657009
We Rise Bayside/Glen Eira ”Becoming the Woman I Want to Be in 2025”,2025-03-27,11:00,hotel brighton,"286 bay street brighton, VIC 4017",https://www.eventbrite.com.au/e/we-rise-baysideglen-eira-becoming-the-woman-i-want-to-be-in-2025-tickets-1266792593749?aff=ebdssbdestsearch,-37.9056749,145.0017201
Comedy Out West: The Final Show Down,2025-03-27,07:30,Kindred Studios Creative Spaces,"3 Harris Street Yarraville, VIC 3013",https://www.eventbrite.com.au/e/comedy-out-west-the-final-show-down-tickets-1075319372189?aff=ebdssbdestsearch,-37.8118874,144.9008424
"Speed Dating' Board Games: Meet, Play, and Meet New People!",2025-03-27,19:00,Boardies Bar,"189 Smith Street Fitzroy, VIC 3065",https://www.eventbrite.com/e/speed-dating-board-games-meet-play-and-meet-new-people-tickets-1262087691259?aff=ebdssbdestsearch,-37.8035501,144.9832272
Sustainable Style Workshop | Green Collect,2025-03-27,06:30,Green Collect Yarraville,"71 Anderson Street Yarraville, VIC 3013",https://www.eventbrite.com/e/sustainable-style-workshop-green-collect-tickets-1257616397499?aff=ebdssbdestsearch,-37.816592,144.889109
CEP's Rural Education Forum and Dinner,2025-03-27,18:00,Radisson on Flagstaff Gardens Melbourne,"380 William Street Melbourne, VIC 3000",https://www.eventbrite.com/e/ceps-rural-education-forum-and-dinner-tickets-1022305221437?aff=ebdssbdestsearch,-37.8102736,144.9561287
ITI Evening Seminar Melbourne: The Immediacy Debate with Dr. Adam Rosenberg,2025-03-27,06:30,Courtyard by Marriott Melbourne Flagstaff Gardens,"50 Batman Street West Melbourne, VIC 3003",https://www.eventbrite.com.au/e/iti-evening-seminar-melbourne-the-immediacy-debate-with-dr-adam-rosenberg-tickets-1143599881029?aff=ebdssbdestsearch,-37.8110063,144.9503694
Select All & No Questions Double Headliner,2025-03-27,19:00,Stay Gold,"133 Sydney Road Brunswick, VIC 3056",https://www.eventbrite.com.au/e/select-all-no-questions-double-headliner-tickets-1258948090629?aff=ebdssbdestsearch,-37.77435880000001,144.9606103
MSN Meet & Greet,2025-03-27,05:30,Imperial Hotel,"2-8 Bourke Street Melbourne, VIC 3000",https://www.eventbrite.com.au/e/msn-meet-greet-tickets-1247693838859?aff=ebdssbdestsearch,-37.8112554,144.972688
Gay Men Speed Dating | Melbourne Singles Event | Fancy a Go?,2025-03-27,19:00,The Metropolitan Hotel,"265 William Street Melbourne, VIC 3000",https://www.eventbrite.com/e/gay-men-speed-dating-melbourne-singles-event-fancy-a-go-tickets-1224947493929?aff=ebdssbdestsearch,-37.812902,144.9566615
Speedy dating,2025-03-27,20:00,Top Yard Rooftop,"King Street #Rear 60 Melbourne, VIC 3000",https://www.eventbrite.co.uk/e/speedy-dating-tickets-1236751118889?aff=ebdssbdestsearch,-37.8149036,144.9549857
LILITH HOUR BURLESQUE,2025-03-27,19:30,Hail Lilith,"40A Leeds Street Footscray, VIC 3011",https://www.eventbrite.com/e/lilith-hour-burlesque-tickets-1281838526539?aff=ebdssbdestsearch,-37.8005159,144.9008399
Melbourne Gay Men Singles Night | MyCheekyGayDate,2025-03-27,19:00,The Metropolitan Hotel,"265 William Street Melbourne, VIC 3000",https://www.eventbrite.com/e/melbourne-gay-men-singles-night-mycheekygaydate-tickets-1224864345229?aff=ebdssbdestsearch,-37.812902,144.9566615
Secure and  Succeed: Commercial Property Insights,2025-03-27,05:30,Novotel Melbourne Glen Waverley,"285 Springvale Road Glen Waverley, VIC 3150",https://www.eventbrite.com/e/secure-and-succeed-commercial-property-insights-tickets-1252637455349?aff=ebdssbdestsearch,-37.8812875,145.1647251
Moonee Ponds Comedy Night: Peter Rowsthorn & More!!!,2025-03-27,20:00,Mt Alexander Hotel,"690-694 Mount Alexander Road Moonee Ponds, VIC 3039",https://www.eventbrite.com/e/moonee-ponds-comedy-night-peter-rowsthorn-more-tickets-1252630273869?aff=ebdssbdestsearch,-37.76876499999999,144.925657
SOLD OUT | Thornhill ‘Bodies’ Album Preview Show – Melbourne 18+,2025-03-27,00:00,Howler,"7-11 Dawson St, Brunswick VIC 3056, Australia",https://www.facebook.com/events/1524713544873264/,-37.7720304,144.9596527
Cody Johnson,2025-03-27,12:00,Rod Laver Arena,"200 Batman Ave, Melbourne VIC 3000, Australia",https://premier.ticketek.com.au/shows/show.aspx?sh=CODYJOHN25,-37.8216161,144.9785584
Jonathan Bufalino: Headline Debut,2025-03-27,19:00,Bergy Bandroom,"64 Sydney Rd, Brunswick VIC 3056, Australia",https://www.facebook.com/events/2794400707427214/,-37.776327,144.9607158
Akmal,2025-03-27,21:00,Melbourne International Comedy Festival,Melbourne,https://www.facebook.com/events/3853492004881537/,-37.8136,144.9631
The Outernet,2025-03-27,18:00,Bird's Basement,"11 Singers Ln, Melbourne VIC 3000, Australia",https://www.facebook.com/events/947663580149806/,-37.81114416,144.95680390283175
"Jemma Cher ""Let's Do It"" Album Launch | MEMO Music Hall",2025-03-27,19:00,MEMO Music Hall,"88 Acland St, St Kilda VIC 3182, Australia",https://www.facebook.com/events/588709937410367/,-37.8671902,144.9786817
Nelly,2025-03-27,12:00,John Cain Arena,"35 Olympic Blvd, Melbourne VIC 3000, Australia",https://premier.ticketek.com.au/shows/show.aspx?sh=NELLY25,-37.8227725,144.9819687
Sculpting in Time: The Films of Andrei Tarkovsky,2025-03-27,00:00,Lido Cinemas,"675 Glenferrie Rd, Hawthorn VIC 3122, Australia",https://www.facebook.com/events/1246560979775077/,-37.8205529,145.0355738
Joel Creasey | Melbourne,2025-03-27,00:00,Max Watts,"125 Swanston St, Melbourne VIC 3000, Australia",https://www.facebook.com/events/4048633545399184/,-37.8147557,144.9659879
Comedy Out West: The Final Showdown,2025-03-27,19:30,Kindred Bandroom,"3 Harris St, Footscray VIC 3011, Australia",https://www.facebook.com/events/1293556568364323/,-37.8119001,144.9008247
FIRM FILTERS [SINGLE LAUNCH] + MUNROE + TOU-CAN,2025-03-27,00:00,The Old Bar,"74-76 Johnston St, Fitzroy VIC 3065, Australia",https://www.facebook.com/events/618276067687963/,-37.79833,144.97711
Margy Party! | onesixone Thursdays,2025-03-27,00:00,onesixone,"161 High St, Prahran VIC 3181, Australia",https://www.facebook.com/events/888943396585572/,-37.85425256,145.0112666323418
Essendon v Port Adelaide - AFL Reserve,2025-03-27,19:30,Marvel Stadium,"740 Bourke St, Docklands VIC 3008, Australia",https://www.facebook.com/events/1829845547790564/,-37.816529,144.94751697668812
Human Nature,2025-03-27,12:00,MyState Bank Arena,"601 Brooker Hwy, Glenorchy TAS 7010, Australia",https://premier.ticketek.com.au/shows/show.aspx?sh=HUMANNAT25&v=MYB,-42.82416569999999,147.2827222
Best of the Edinburgh Fest,2025-03-27,19:45,Melbourne International Comedy Festival,Melbourne,https://www.facebook.com/events/8697015490380490/,-37.8136,144.9631
Essendon v Port Adelaide,2025-03-27,19:30,Marvel Stadium,"740 Bourke St, Docklands VIC 3008, Australia",https://www.facebook.com/events/676904597998380/,-37.816529,144.94751697668812
"GUERNS THURS : $4 Pots, Seltzers $6 Vodkas!",2025-03-27,00:00,New Guernica,"64 Smith St, Collingwood VIC 3066, Australia",https://www.facebook.com/events/946627770589726/,-37.80624775,144.98331211946754
Yunior Terry,2025-03-27,00:00,The Jazz Lab,"27 Leslie St, Brunswick Melbourne, VIC, Australia, Victoria 3056",https://www.facebook.com/events/2328439950844450/,-37.76677279,144.9587122
Melbourne Short Film Festival 2025 ,2025-03-27,18:00,Thornbury Picture House,"802 High St, Thornbury VIC 3071, Australia",https://www.facebook.com/events/1172730381105652/,-37.75393655,145.0017325
Lace Dress with Her Trash and The Bin Stompers live at the The Last Chance,2025-03-27,19:00,The Last Chance,"238 Victoria St, Melbourne VIC 3000, Australia",https://www.facebook.com/events/452363451201327/,-37.8059962,144.9585654
Lawrence Mooney: Dead Set Country,2025-03-27,18:30,Melbourne International Comedy Festival,Melbourne,https://www.facebook.com/events/509155232119533/,-37.8136,144.9631
Leather Coptic Stitch Journal Workshop,2025-03-28,09:30,Leffler Leather,"171 Kensington Road West Melbourne, VIC 3003",https://www.eventbrite.com.au/e/leather-coptic-stitch-journal-workshop-tickets-1256038608289?aff=ebdssbdestsearch,-37.8002118,144.9177331
"CONTENT.NET.AU presents 'STINGA' w/ZK king, Blood Lotus, Voidhood & Samatar",2025-03-28,19:30,280 Sydney Rd,"280 Sydney Road Brunswick, VIC 3056",https://www.eventbrite.com.au/e/contentnetau-presents-stinga-wzk-king-blood-lotus-voidhood-samatar-tickets-1180863708139?aff=ebdssbdestsearch,-37.7711488,144.9616353
Gestalt community event at Grandview Hotel,2025-03-28,18:00,Grandview Hotel Brunswick West,"47 Pearson St Brunswick West, VIC 3055",https://www.eventbrite.com.au/e/gestalt-community-event-at-grandview-hotel-tickets-1102546840279?aff=ebdssbdestsearch,-37.7663509,144.9488381
小佳陈晓靖《女人和病人》双拼 - 墨尔本国际喜剧节,2025-03-28,07:30,Box Hill Town Hall,"1022 Whitehorse Road Box Hill, VIC 3128",https://www.eventbrite.com/e/1200564563929?aff=ebdssbdestsearch,-37.8187759,145.1266518
ONE DIRECTION ALWAYS  PARTY MELBOURNE - 4.5HRS 100% 1D +LIAM TRIBUTE,2025-03-28,20:30,595 Mt Alexander Rd,"595 Mount Alexander Road Moonee Ponds, VIC 3039",https://www.eventbrite.com.au/e/one-direction-always-party-melbourne-45hrs-100-1d-liam-tribute-tickets-1252777263519?aff=ebdssbdestsearch,-37.768313,144.925046
"Bollywood Club - Desi Me Rollin at Crown, Melbourne",2025-03-28,21:30,Crown Melbourne,"8 Whiteman Street Southbank, VIC 3006",https://www.eventbrite.com.au/e/bollywood-club-desi-me-rollin-at-crown-melbourne-tickets-1263732139849?aff=ebdssbdestsearch,-37.82343669999999,144.9580861
Introduction to Lean Construction - Melbourne,2025-03-28,08:30,"Japanese Room, Level 4, Glyn Davis Building (MSD), University of Melbourne","Masson Road Parkville, VIC 3052",https://www.eventbrite.com.au/e/introduction-to-lean-construction-melbourne-tickets-1259087868709?aff=ebdssbdestsearch,-37.7976557,144.9625097
Rhythmic Ecstatic Dance: Rhythmic SPIRIT,2025-03-28,06:30,Moss Studios,"101 Evans Street Brunswick, VIC 3056",https://www.eventbrite.com.au/e/rhythmic-ecstatic-dance-rhythmic-spirit-tickets-1254183098409?aff=ebdssbdestsearch,-37.77035559999999,144.9709215
Brava  Women Networking IN PERSON March 28th 2025 - Moorabbin,2025-03-28,10:00,RSEA Park - St Kilda Football Club,"60 Linton Street #32 Moorabbin, VIC 3189",https://www.eventbrite.com.au/e/brava-women-networking-in-person-march-28th-2025-moorabbin-tickets-1109395444639?aff=ebdssbdestsearch,-37.9371005,145.0435478
Gestalt community event and VAGP AGM at Grandview Hotel,2025-03-28,17:30,Grandview Hotel Brunswick West,"47 Pearson St Brunswick West, VIC 3055",https://www.eventbrite.com.au/e/gestalt-community-event-and-vagp-agm-at-grandview-hotel-tickets-1102546840279?aff=ebdssbdestsearch,-37.7663509,144.9488381
A Fever You Can't Sweat Out - 20 Year Anniversary Party,2025-03-28,19:00,Stay Gold,"133 Sydney Road Brunswick, VIC 3056",https://www.eventbrite.com.au/e/a-fever-you-cant-sweat-out-20-year-anniversary-party-tickets-1172120517019?aff=ebdssbdestsearch,-37.7743822,144.9606172
Dance & Bites 1.0,2025-03-28,19:00,Talk To Me,"153 Commercial Road South Yarra, VIC 3141",https://www.eventbrite.co.uk/e/dance-bites-10-tickets-1222611266209?aff=ebdssbdestsearch,-37.846331,144.9915011
3AM - TOUCHDOWN,2025-03-28,21:00,Chasers Nightclub,"386 Chapel Street South Yarra, VIC 3141",https://www.eventbrite.com.au/e/3am-touchdown-tickets-1224348181369?aff=ebdssbdestsearch,-37.8459028,144.9947039
Taking Control of My Time -  Breakfast Bite 2025,2025-03-28,09:30,Melbourne,"Melbourne Melbourne, VIC 3000",https://www.eventbrite.com.au/e/taking-control-of-my-time-breakfast-bite-2025-tickets-1077157199179?aff=ebdssbdestsearch,-37.8152065,144.963937
Final Fridays: Film + Music Industry Night Melbourne,2025-03-28,19:00,1806,"169 Exhibition Street Melbourne, VIC 3000",https://www.eventbrite.com/e/final-fridays-film-music-industry-night-melbourne-tickets-1258649106359?aff=ebdssbdestsearch,-37.8116478,144.9701118
Friends On Purpose: Games Night,2025-03-28,19:00,Blackwoods Wine & Cocktail Bar,"137 Chapel Street Windsor, VIC 3181",https://www.eventbrite.com.au/e/friends-on-purpose-games-night-tickets-1247872964629?aff=ebdssbdestsearch,-37.8530954,144.9928641
SASHI PERERA & FRIENDS - MELBOURNE INTERNATIONAL COMEDY FESTIVAL - MARCH 28,2025-03-28,06:20,The Coopers Inn,"282 Exhibition Street Melbourne, VIC 3000",https://www.eventbrite.com.au/e/sashi-perera-friends-melbourne-international-comedy-festival-march-28-tickets-1202651415759?aff=ebdssbdestsearch,-37.809147,144.9695339
March Madness,2025-03-28,10:00,Rubix Warehouse,"36 Phoenix Street Brunswick, VIC 3056",https://www.eventbrite.com/e/march-madness-tickets-1264729693559?aff=ebdssbdestsearch,-37.7697909,144.957525
"Rosco Mule live at  Cherry Bar, FRI March 28th",2025-03-28,20:00,"Cherry Bar, Little Collins Street, Melbourne VIC, Australia","68 Little Collins Street Melbourne, VIC 3000",https://www.eventbrite.com.au/e/rosco-mule-live-at-cherry-bar-fri-march-28th-tickets-1244199507219?aff=ebdssbdestsearch,-37.8129293,144.9714986
Comedy On Tap - March 28th. St Luja - St Kilda,2025-03-28,19:30,St LuJa | Cocktail Bar,"9 Fitzroy Street St Kilda, VIC 3182",https://www.eventbrite.com/e/comedy-on-tap-march-28th-st-luja-st-kilda-tickets-1273138544659?aff=ebdssbdestsearch,-37.8627907,144.9733795
Energetic Sound Healing & New Moon Clearing,2025-03-28,19:00,"Oracle of Crystals, 228 Glenferrie Road, Malvern VIC, Australia","228 Glenferrie Road Malvern, VIC 3144",https://www.eventbrite.com.au/e/energetic-sound-healing-new-moon-clearing-tickets-1260157217159?aff=ebdssbdestsearch,-37.8585334,145.0292064
revival.melbourne,2025-03-28,18:00,Captain Baxter,"10-18 Jacka Boulevard #10 St Kilda, VIC 3182",https://www.eventbrite.com/e/revivalmelbourne-tickets-1145108342879?aff=ebdssbdestsearch,-37.8654191,144.9719441
This Show Will Be Considered for Awards,2025-03-28,20:30,The Butterfly Club,"5 Carson Place Melbourne, VIC 3000",https://www.eventbrite.co.uk/e/this-show-will-be-considered-for-awards-tickets-1082819344809?aff=ebdssbdestsearch,-37.8154472,144.9652725
Nutrition and Mental Health Workshop,2025-03-28,10:30,Diamond Valley Learning Centre,"1 Diamond Creek Road Greensborough, VIC 3088",https://www.eventbrite.com.au/e/nutrition-and-mental-health-workshop-tickets-1263606072779?aff=ebdssbdestsearch,-37.6993526,145.1072464
Creating Strong Boundaries – A Key to Healthy Relationships & Self-Worth.,2025-03-28,06:30,Centre of You,"Upstairs, 217 Chapel St Prahran Melbourne, VIC 3181",https://www.eventbrite.com.au/e/creating-strong-boundaries-a-key-to-healthy-relationships-self-worth-tickets-1260291558979?aff=ebdssbdestsearch,-37.8509316,144.9933031
PRIVATE CELLAR DINNER: Old Australian Cabernets,2025-03-28,19:00,"Life's Too Short Bar, Tribeca Arcade, Victoria Parade, East Melbourne VIC, Australia","412 Victoria Parade #Shop 2 East Melbourne, VIC 3002",https://www.eventbrite.com.au/e/private-cellar-dinner-old-australian-cabernets-tickets-964310397357?aff=ebdssbdestsearch,-37.8096207,144.985273
BRING IT BACK - A Y2K POP PARTY,2025-03-28,23:00,Stay Gold,"133 Sydney Road Brunswick, VIC 3056",https://www.eventbrite.com.au/e/bring-it-back-a-y2k-pop-party-tickets-1246777768869?aff=ebdssbdestsearch,-37.77435880000001,144.9606103
Bollywood Night - Cocktail Party,2025-03-28,20:00,The Nashaa Club,"8 Jackson Street Toorak, VIC 3142",https://www.eventbrite.com.au/e/bollywood-night-cocktail-party-tickets-1249825745449?aff=ebdssbdestsearch,-37.8401524,145.0079428
Fundamentals of AI for Mortgage Brokers ( Powered by EFFI ),2025-03-28,10:00,555 Collins St,"555 Collins Street Melbourne, VIC 3000",https://www.eventbrite.com.au/e/fundamentals-of-ai-for-mortgage-brokers-powered-by-effi-tickets-1236667899979?aff=ebdssbdestsearch,-37.8186833,144.9562849
Join B2B Exclusive REAL ESTATE Business Community.,2025-03-28,09:00,Sapore,"162 Whitehorse Road Blackburn, VIC 3130",https://www.eventbrite.com.au/e/join-b2b-exclusive-real-estate-business-community-tickets-1250404967919?aff=ebdssbdestsearch,-37.8181744,145.1554372
Arj Barker: The Mind Field | MICF 2025,2025-03-28,00:00,Palladium at Crown,"Level 1 Crown Towers, Crown Melbourne, 8 Whiteman St, Southbank VIC 3006, Australia",https://www.facebook.com/events/573144425370526/,-37.822181,144.959875
Leila Forouhar and Kamyar,2025-03-28,20:00,Palais Theatre,"Lower Esplanade, St Kilda VIC 3182, Australia",https://www.facebook.com/events/585968797445903/,-37.86708671,144.97599656199426
"BRAINCHIP ""I am NPC"" single launch",2025-03-28,20:00,Shotkickers,"744 High St, Thornbury VIC 3071, Australia",https://www.facebook.com/events/2422898108047463/,-37.75592655,145.0013923
Carlton v Western Bulldogs,2025-03-28,19:40,Marvel Stadium,"740 Bourke St, Docklands VIC 3008, Australia",https://www.facebook.com/events/1457353399002875/,-37.816529,144.94751697668812
INTHEHOUSE X Tangle presents: SILVA BUMPA (ALL NIGHT LONG),2025-03-28,00:00,The Night Cat,"137-141 Johnston St, Fitzroy VIC 3065, Australia",https://www.facebook.com/events/612766631554898/,-37.7982971,144.978128
girlhood is a spectrum - pop party,2025-03-28,23:00,Laundry Bar,"50 Johnston St, Fitzroy VIC 3065, Australia",https://www.facebook.com/events/674262125247039/,-37.7983139,144.9764962
Lenny Owens & The Love Struck Bucks With Freya Josephine Hollick,2025-03-28,20:00,The Gem Bar and Dining,"289 Wellington St, Collingwood VIC 3066, Australia",https://www.facebook.com/events/628169150153689/,-37.7963837,144.9875917
Jimeoin - Pandemonium,2025-03-28,19:30,The Clocktower Centre,"750 Mt Alexander Rd, Moonee Ponds VIC 3039, Australia",https://www.facebook.com/events/621791867159365/,-37.7656716,144.9248037207342
Buena Vista Social Club Tribute Night,2025-03-28,19:00,The Night Cat,"137-141 Johnston St, Fitzroy VIC 3065, Australia",https://www.facebook.com/events/1189268402589001/,-37.7982971,144.978128
Hugh Stuckey Trio,2025-03-28,19:30,Uptown Jazz Cafe,"1/177 Brunswick St, Fitzroy VIC 3065, Australia",https://www.facebook.com/events/629574373010023/,-37.79705404,144.97869049756974
L.F.T. (DE) — Revolver Fridays,2025-03-28,00:00,Revolver Upstairs,"Level 2/229 Chapel St, Prahran VIC 3181, Australia",https://www.facebook.com/events/1012059980774783/,-37.8505902,144.9933469
"Everyday Believer ""Slump"" Single Launch - w/ Dog Door and Wriding (Debut Show)",2025-03-28,19:00,The Last Chance,"238 Victoria St, Melbourne VIC 3000, Australia",https://www.facebook.com/events/424975010671715/,-37.8059962,144.9585654
'The Romans' Ft.  Amelia Evans,2025-03-28,00:00,Paris Cat Jazz Club,"6 Goldie Pl, Melbourne VIC 3000, Australia",https://www.facebook.com/events/1176741057125945/,-37.8133262,144.96060714767358
The Thrillseekers | 25 Years of Trance | Open To Close pres. by Alchemy & Way Back When,2025-03-28,21:00,24 Moons,"2 Arthurton Rd, Northcote VIC 3070, Australia",https://www.facebook.com/events/1335883450736299/,-37.7691418,144.9982614
Best of the Edinburgh Fest,2025-03-28,19:45,Melbourne International Comedy Festival,Melbourne,https://www.facebook.com/events/1937836663405881/,-37.8136,144.9631
Bonnie & Mickey at Ragtime ,2025-03-28,20:00,Ragtime Tavern,"206 Tyler St, Preston VIC 3072, Australia",https://www.facebook.com/events/1162143782239230/,-37.7310367,145.0142411
The George Trimmer Band ,2025-03-28,00:00,George Trimmer Band,"144 Melville Rd, Pascoe Vale VIC 3044, Australia",https://www.facebook.com/events/482058661364604/,-37.74953737,144.94644916615485
Atomic: The Songs of Blondie + Black Market Clash LIVE!,2025-03-28,19:30,Kindred Bandroom,"3 Harris St, Footscray VIC 3011, Australia",https://www.facebook.com/events/1667842800605585/,-37.8119001,144.9008247
Lawrence Mooney: Dead Set Country,2025-03-28,18:30,Melbourne International Comedy Festival,Melbourne,https://www.facebook.com/events/1843987192671723/,-37.8136,144.9631
Opa! Bato at Bar 303! ,2025-03-28,00:00,Bar 303,"303 High St, Northcote VIC 3070, Australia",https://www.facebook.com/events/2084151662062259/,-37.7713296,144.99828116650363
The Australian INXS Tribute Show | MEMO Music Hall,2025-03-28,19:00,MEMO Music Hall,"88 Acland St, St Kilda VIC 3182, Australia",https://www.facebook.com/events/908716217473088/,-37.8671902,144.9786817
'THE ROCKSTARS'  **Classic '80s... and MORE!!!**,2025-03-28,20:00,Lucky 13 Garage,"8 Cochranes Rd, Moorabbin VIC 3189, Australia",https://www.facebook.com/events/4048142745469692/,-37.94349189,145.07036236060654
Death of a Unicorn: Advance Screening,2025-03-28,18:50,Cinema Nova,"380 Lygon St, Carlton VIC 3053, Australia",https://www.facebook.com/events/1324609145325367/,-37.7978092,144.9680124
The Good Life Tour - Melbourne,2025-03-28,18:30,170 Russell,"170 Russell St, Melbourne VIC 3000, Australia",https://www.facebook.com/events/1189676218990688/,-37.8120109,144.9679369
The Thrillseekers | 25 Years of Trance | Open To Close,2025-03-28,21:00,24 Moons,"2 Arhurton Road Northcote, VIC 3070",https://www.eventbrite.com.au/e/the-thrillseekers-25-years-of-trance-open-to-close-tickets-1095957110219?aff=ebdssbdestsearch,-37.769148,144.9982808
The Abundance Experience 28th March 2025,2025-03-28,18:30,Moonhouse,"282 Carlisle Street Balaclava, VIC 3183",https://www.eventbrite.com.au/e/the-abundance-experience-28th-march-2025-tickets-1086865145909?aff=ebdssbdestsearch,-37.8685333,144.9934417
Sacred Trancefusion 3.0 ft. Amber Savage,2025-03-28,21:00,my aeon,"791 Sydney Road Brunswick, VIC 3056",https://www.eventbrite.com.au/e/sacred-trancefusion-30-ft-amber-savage-tickets-1257978691129?aff=ebdssbdestsearch,-37.7581868,144.9633301
Del Barrio presents New York Latin Rhythms @ Plough Hotel Footscray,2025-03-28,19:00,333 Barkly St,"333 Barkly Street Footscray, VIC 3011",https://www.eventbrite.com.au/e/del-barrio-presents-new-york-latin-rhythms-plough-hotel-footscray-tickets-1221761975959?aff=ebdssbdestsearch,-37.7991718,144.8928504
Drag Bingo @ Felecia,2025-03-28,19:30,Felecia,"201 Nelson Place Williamstown, VIC 3016",https://www.eventbrite.com.au/e/drag-bingo-felecia-tickets-1257698844099?aff=ebdssbdestsearch,-37.86241750000001,144.9026564
Arcoíris Queer Latin Party: Perreo Rojo,2025-03-29,21:00,Sircuit Bar,"103-105 Smith Street Fitzroy, VIC 3065",https://www.eventbrite.com.au/e/arcoiris-queer-latin-party-perreo-rojo-tickets-1266703146209?aff=ebdssbdestsearch,-37.8058061,144.9830037
It's a House Thing Season Finale @ OneSixOne Rooftop | 29 March 2025,2025-03-29,19:00,onesixone,"161 High Street Prahran, VIC 3181",https://www.eventbrite.com.au/e/its-a-house-thing-season-finale-onesixone-rooftop-29-march-2025-tickets-1266847247219?aff=ebdssbdestsearch,-37.85173229999999,144.9936589
"King Stingray | Forum, Melbourne",2025-03-29,19:00,Forum Melbourne,"154 Flinders St, Melbourne VIC 3000, Australia",https://www.facebook.com/events/1788208028672389/,-37.81644145,144.9693768124984
Andrew Swann Jump Funk Combo Live int he Glasshouse,2025-03-29,00:00,Transport Hotel,"Transport Hotel, Ground Level Federation Square, Melbourne VIC 3000, Australia",https://www.facebook.com/events/1151857889154459/,-37.81835059,144.9683925
The U2 Show Achtung Baby | MEMO Music Hall,2025-03-29,19:00,MEMO Music Hall,"88 Acland St, St Kilda VIC 3182, Australia",https://www.facebook.com/events/870080978610083/,-37.8671902,144.9786817
"The Poems, Prayers & Promises of John Denver starring Darren Coggan",2025-03-29,19:30,The Clocktower Centre,"750 Mt Alexander Rd, Moonee Ponds VIC 3039, Australia",https://www.facebook.com/events/465905376605473/,-37.7656716,144.9248037207342
Soul Sacrifice - The Music Of Santana @ OMH,2025-03-29,20:30,Oakleigh Carnegie RSL,"95/97 Drummond St, Oakleigh VIC 3166, Australia",https://www.facebook.com/events/625996509992686/,-37.8968576,145.08963741959553
"TELENOVA :: NORTHCOTE THEATRE, MELBOURNE :: ALL AGES",2025-03-29,19:00,Northcote Theatre,"216 High St, Northcote VIC 3070, Australia",https://www.facebook.com/events/1683280975584231/,-37.7737068,144.9982706
"HOMEBASS feat. Fantastic Fkn Boombots, Lo.tess & Auramechanic ",2025-03-29,00:00,Bar 303,"303 High St, Northcote VIC 3070, Australia",https://www.facebook.com/events/967557008801975/,-37.7713296,144.99828116650363
King Stingray,2025-03-29,12:00,Forum Melbourne,"180 Flinders St, Melbourne VIC 3000, Australia",https://premier.ticketek.com.au/shows/show.aspx?sh=STINGRAY25,-37.816602,144.9694678
"Book launch: ""This Teeming Mess of Glory"" by Matthew Pullar",2025-03-29,12:30,St. Eanswythe's Anglican Church Altona,"7 Bent Street Altona, VIC 3018",https://www.eventbrite.com/e/book-launch-this-teeming-mess-of-glory-by-matthew-pullar-tickets-1248941982089?aff=ebdssbdestsearch,-37.8691557,144.8312306
Kalai Neram - An Evening of Music & Dance,2025-03-29,18:00,Kel Watson Theatre - Forest Hill College,"178-180 Mahoneys Rd Forest Hill, VIC 3131",https://www.eventbrite.com.au/e/kalai-neram-an-evening-of-music-dance-tickets-1264690265629?aff=ebdssbdestsearch,-37.84940539999999,145.1618649
VISUALIS 'RITES OF ECLIPSE' ALBUM LAUNCH,2025-03-29,19:00,Stay Gold,"133 Sydney Road Brunswick, VIC 3056",https://www.eventbrite.com.au/e/visualis-rites-of-eclipse-album-launch-tickets-1249851452339?aff=ebdssbdestsearch,-37.77435880000001,144.9606103
TYLER TOLMAN presents RETURN OF THE DJEDI March 2025- Melbourne,2025-03-29,18:30,Melbourne Convention and Exhibition Centre (MCEC),"1 Convention Centre Place South Wharf, VIC 3006",https://www.eventbrite.com.au/e/tyler-tolman-presents-return-of-the-djedi-march-2025-melbourne-tickets-1143560112079?aff=ebdssbdestsearch,-37.82520299999999,144.952251
CHARADES13 | PETER VAN HOESEN [HYBRID SET] + SPECIAL GUEST,2025-03-29,22:00,Sub Club Melbourne,"Flinders Court Melbourne, VIC 3000",https://www.eventbrite.com.au/e/charades13-peter-van-hoesen-hybrid-set-special-guest-tickets-1232406453879?aff=ebdssbdestsearch,-37.8179755,144.9644539
Appreciate Her Awards,2025-03-29,18:00,Crown Towers Melbourne,"8 Whiteman Street Southbank, VIC 3006",https://www.eventbrite.com.au/e/appreciate-her-awards-tickets-1204543615379?aff=ebdssbdestsearch,-37.82343669999999,144.9580861
Dangerous Goods Presents - HIVE Australia Tour - Melbourne,2025-03-29,14:00,Melbourne Pavilion,"135-157 Racecourse Road Kensington, VIC 3031",https://www.eventbrite.com.au/e/dangerous-goods-presents-hive-australia-tour-melbourne-tickets-1027705935117?aff=ebdssbdestsearch,-37.7890068,144.936461
The Tullamarines & Purée | NO INTERNET TOUR | MELBOURNE,2025-03-29,19:00,The Workers Club,"51 Brunswick St, Fitzroy VIC 3065, Australia",https://www.facebook.com/events/872077755136313/,-37.8055776,144.9769450659087
Intermission.vol 3,2025-03-29,00:00,Laundry Bar,"50 Johnston St, Fitzroy VIC 3065, Australia",https://www.facebook.com/events/1987697771742634/,-37.7983139,144.9764962
GARAGE SALE,2025-03-29,12:00,Northcote Social Club,"301 High St, Northcote VIC 3070, Australia",https://www.facebook.com/events/1164302008645950/,-37.771471,144.998414
The BBC at The Retreat Hotel,2025-03-29,00:00,Retreat Hotel,"Level 1/280 Sydney Rd, Brunswick VIC 3056, Australia",https://www.facebook.com/events/1349678709507505/,-37.7711487,144.9615949
Out on the Deck with Plonk,2025-03-29,13:00,Kindred Bandroom,"3 Harris St, Footscray VIC 3011, Australia",https://www.facebook.com/events/1072146051386124/,-37.8119001,144.9008247
Pet Expo 2025,2025-03-29,00:00,Kingston City Hall,"979-985 Nepean Hwy, Moorabbin VIC 3189, Australia",https://www.facebook.com/events/640060685108400/,-37.93372508,145.0352972005879
Anything Goes! the songs of Cole Porter starring Jennifer Salisbury,2025-03-29,18:30,Paris Cat Jazz Club,"6 Goldie Pl, Melbourne VIC 3000, Australia",https://www.facebook.com/events/491817940620651/,-37.8133262,144.96060714767358
Deep Sea Arcade with Milou Moon | Live at Punters Club,2025-03-29,22:00,Punters Club,"376 Brunswick St, Fitzroy VIC 3065, Australia",https://www.facebook.com/events/1084934369766987/,-37.7960561,144.9790327
Disco Mediterranea & Proto Exotica present D.D. Mirage (Live),2025-03-29,21:00,The Night Cat,"137-141 Johnston St, Fitzroy VIC 3065, Australia",https://www.facebook.com/events/3366311640177066/,-37.7982971,144.978128
Rhythms Of The South,2025-03-29,00:00,Laundry Bar,"50 Johnston St, Fitzroy VIC 3065, Australia",https://www.facebook.com/events/1340547180411083/,-37.7983139,144.9764962
"The Songs of HELEN REDDY: I Am Reddy, Hear Me Roar! | Dinner & Show",2025-03-29,00:00,arcobar heatherton,"8 Arco Ln, Heatherton VIC 3202, Australia",https://www.facebook.com/events/1249479506339260/,-37.94673685,145.07837928457485
Footy Fun Day,2025-03-29,14:00,Studley Park Boathouse,"1 Boathouse Rd, Kew VIC 3101, Australia",https://www.facebook.com/events/902380535315492/,-37.801382,145.0077832
 Louie & The Party Boyz,2025-03-29,20:00,Lucky 13 Garage,"8 Cochranes Rd, Moorabbin VIC 3189, Australia",https://www.facebook.com/events/441252768955790/,-37.94349189,145.07036236060654
CHARADES13 | PETER VAN HOESEN [HYBRID SET] + SPECIAL GUEST,2025-03-29,22:00,Sub Club Melbourne,"Flinders Ct, Melbourne VIC 3000, Australia",https://www.facebook.com/events/563302196691269/,-37.81776587,144.96433104920948
Beltin' Elton - Elton John Sing-a-long with Nitida ,2025-03-29,20:00,Ragtime Tavern,"206 Tyler St, Preston VIC 3072, Australia",https://www.facebook.com/events/2359711734414623/,-37.7310367,145.0142411
Brett Williams Trio,2025-03-29,19:30,Uptown Jazz Cafe,"1/177 Brunswick St, Fitzroy VIC 3065, Australia",https://www.facebook.com/events/618791971121572/,-37.79705404,144.97869049756974
Eat The Beat pres. MARKET MEMORIES,2025-03-29,22:00,New Guernica,"64 Smith St, Collingwood VIC 3066, Australia",https://www.facebook.com/events/516490784442764/,-37.80624775,144.98331211946754
The Music of ENNIO MORRICONE & the Spaghetti West - performed by THE COUNTERFEIT,2025-03-29,18:30,Brunswick Ballroom,"314 Sydney Rd, Brunswick VIC 3056, Australia",https://www.facebook.com/events/1333938251107870/,-37.7704205,144.9617083
TYLER TOLMAN LONGEVITY TOUR March 2025 - Melbourne,2025-03-29,09:00,Melbourne Convention and Exhibition Centre (MCEC),"1 Convention Centre Place South Wharf, VIC 3006",https://www.eventbrite.com.au/e/tyler-tolman-longevity-tour-march-2025-melbourne-tickets-1143574595399?aff=ebdssbdestsearch,-37.82520299999999,144.952251
Salt March Returns to Melbourne in 2025,2025-03-29,10:30,Shrine of Remembrance,"Birdwood Ave Melbourne, VIC 3001",https://www.eventbrite.com.au/e/salt-march-returns-to-melbourne-in-2025-tickets-1247833105409?aff=ebdssbdestsearch,-37.8311108,144.9767163
Conscious Connection | Cosmic Connections (Gals aged 25-40),2025-03-29,06:30,She'll Space,"8 McIver Street Brunswick, VIC 3056",https://www.eventbrite.com.au/e/conscious-connection-cosmic-connections-gals-aged-25-40-tickets-1278982293469?aff=ebdssbdestsearch,-37.768709,144.963746
Holi Festival Melbourne CBD - 29th March,2025-03-29,11:00,Ron Barassi Snr Park,"Docklands Drive Docklands, VIC 3008",https://www.eventbrite.com.au/e/holi-festival-melbourne-cbd-29th-march-tickets-1122654863919?aff=ebdssbdestsearch,-37.8146686,144.9383432
Dangerous Goods Presents - HIVE Australia Tour - Melbourne - 90% SOLD OUT,2025-03-29,14:00,Melbourne Pavilion,"135-157 Racecourse Road Kensington, VIC 3031",https://www.eventbrite.com.au/e/dangerous-goods-presents-hive-australia-tour-melbourne-90-sold-out-tickets-1027705935117?aff=ebdssbdestsearch,-37.7891081,144.9364233
Braai & Brews - Autumn Grooves,2025-03-29,16:00,Cavalier Brewing & Taproom,"2 Derrimut Drive #Unit 5 Derrimut, VIC 3026",https://www.eventbrite.com/e/braai-brews-autumn-grooves-tickets-1268115911829?aff=ebdssbdestsearch,-37.81045659999999,144.7558173
"MSA Trips: 1,000 Steps Day Trip",2025-03-29,10:00,Robert Blackwood Hall,"49 Scenic Boulevard Monash University, VIC 3800",https://www.eventbrite.com.au/e/msa-trips-1000-steps-day-trip-tickets-1247690157849?aff=ebdssbdestsearch,-37.9127953,145.1352488
Accelerate Action! An IWD event at RAW Garden Pavilion,2025-03-29,02:30,RAW Australia,"325 South Road Brighton East, VIC 3187",https://www.eventbrite.com.au/e/accelerate-action-an-iwd-event-at-raw-garden-pavilion-tickets-1271871183949?aff=ebdssbdestsearch,-37.9311996,145.0228622
AMAROO (City Edition),2025-03-29,16:00,Circus Bar,"199 Commercial Road South Yarra, VIC 3141",https://www.eventbrite.com.au/e/amaroo-city-edition-tickets-1145253717699?aff=ebdssbdestsearch,-37.8465589,144.993086
"Clayton Childbirth education-Labour, Birth & Baby: 29th March, 2025",2025-03-29,08:30,246 Clayton Rd,"246 Clayton Road Clayton, VIC 3168",https://www.eventbrite.com/e/clayton-childbirth-education-labour-birth-baby-29th-march-2025-tickets-1131411073979?aff=ebdssbdestsearch,-37.9205757,145.1227608
DJ AERREO Live in Melbourne,2025-03-29,21:00,REVEL NIGHTCLUB MELBOURNE,"52 Albert Road South Melbourne, VIC 3205",https://www.eventbrite.com.au/e/dj-aerreo-live-in-melbourne-tickets-1250980740069?aff=ebdssbdestsearch,-37.8341181,144.97095
Westside Wanders: St Albans Street Eats,2025-03-29,11:00,St Albans Market,"3 Saint Albans Road Saint Albans, VIC 3021",https://www.eventbrite.com.au/e/westside-wanders-st-albans-street-eats-tickets-1063932644179?aff=ebdssbdestsearch,-37.7459028,144.8016903
Celestial journey 2025,2025-03-29,17:00,Rubix Warehouse,"36 Phoenix Street Brunswick, VIC 3056",https://www.eventbrite.com.au/e/celestial-journey-2025-tickets-1234126117439?aff=ebdssbdestsearch,-37.7697909,144.957525
Techno vs Psytrance : 2025 [Episode 2],2025-03-29,21:00,my aeon,"791 Sydney Road Brunswick, VIC 3056",https://www.eventbrite.com.au/e/techno-vs-psytrance-2025-episode-2-tickets-1254026158999?aff=ebdssbdestsearch,-37.7581868,144.9633301
Meet Rose Inserra,2025-03-29,13:00,8 May Rd,"8 May Road Lalor, VIC 3075",https://www.eventbrite.com/e/meet-rose-inserra-tickets-1256984678009?aff=ebdssbdestsearch,-37.6725808,145.0178349
"Rainbow Karaoke Night- March 29th, LOEV Moorabbin",2025-03-29,19:00,LOEV,"77 Keys Road Moorabbin, VIC 3189",https://www.eventbrite.com.au/e/rainbow-karaoke-night-march-29th-loev-moorabbin-tickets-1126569041329?aff=ebdssbdestsearch,-37.9484271,145.067727
What happens when we... - An exploration of Authentic Relating.,2025-03-29,06:30,Centre of You,"Upstairs, 217 Chapel St Prahran Melbourne, VIC 3181",https://www.eventbrite.com.au/e/what-happens-when-we-an-exploration-of-authentic-relating-tickets-1143539540549?aff=ebdssbdestsearch,-37.8509316,144.9933031
GIRLZ&COCKTAILS MARCH MADNESS: MELBOURNE,2025-03-29,21:00,Bourke Street Courtyard,"629 Bourke Street Melbourne, VIC 3004",https://www.eventbrite.com/e/girlzcocktails-march-madness-melbourne-tickets-1271965536159?aff=ebdssbdestsearch,-37.8168528,144.9552468
Xclusive  The Show | By MenXclusive Melbourne 29 March,2025-03-29,19:00,Platform One,"375 Flinders Street Melbourne, VIC 3000",https://www.eventbrite.com.au/e/xclusive-the-show-by-menxclusive-melbourne-29-march-tickets-1075260696689?aff=ebdssbdestsearch,-37.8192278,144.9622577
MELBOURNE DIVORCED DAD ROCK NIGHT,2025-03-29,20:00,Deluxe Bar,"595 Mount Alexander Road Moonee Ponds, VIC 3039",https://www.eventbrite.com.au/e/melbourne-divorced-dad-rock-night-tickets-1256111385969?aff=ebdssbdestsearch,-37.768313,144.925046
Battle in the Bay 2025,2025-03-29,09:00,Melbourne Convention and Exhibition Centre (MCEC),"1 Convention Centre Place South Wharf, VIC 3006",https://www.eventbrite.com/e/battle-in-the-bay-2025-tickets-1115152484099?aff=ebdssbdestsearch,-37.82520299999999,144.952251
Masquerade Latin Cruise - Melbourne,2025-03-29,19:00,131 Harbour Esplanade,"131 Harbour Esplanade Docklands, VIC 3008",https://www.eventbrite.com.au/e/masquerade-latin-cruise-melbourne-tickets-1256039781799?aff=ebdssbdestsearch,-37.81707129999999,144.9453813
"HOMEBASS feat. FANTASTIC FKN BOOMBOTS, AURAMECHANIC & LO.TESS",2025-03-29,20:30,Bar 303,"303 High Street Northcote, VIC 3070",https://www.eventbrite.com.au/e/homebass-feat-fantastic-fkn-boombots-auramechanic-lotess-tickets-1268281236319?aff=ebdssbdestsearch,-37.7713256,144.9982378
Euphoric in Owerri,2025-03-29,21:00,Club Owerri,"160-162 Lygon Street Carlton, VIC 3053",https://www.eventbrite.com.au/e/euphoric-in-owerri-tickets-1243209596369?aff=ebdssbdestsearch,-37.8034401,144.9667471
Intermission.vol 3,2025-03-29,21:00,Laundry Bar,"50 Johnston Street Fitzroy, VIC 3065",https://www.eventbrite.com.au/e/intermissionvol-3-tickets-1201746900329?aff=ebdssbdestsearch,-37.79831,144.976368
"Sander Õigus: ""Otse Kümnesse"" - Melbourne",2025-03-29,19:00,Estonian House Co-Op Ltd.,"43 Melville Road Brunswick West, VIC 3055",https://www.eventbrite.com.au/e/sander-oigus-otse-kumnesse-melbourne-tickets-1243232224049?aff=ebdssbdestsearch,-37.7651135,144.9435142
"Kiss + Tell w/ Mathys Lenne [FRA], Kait Xri & Sempra",2025-03-29,08:00,Solace Bar,"21-25 Croft Alley Melbourne, VIC 3000",https://www.eventbrite.com/e/kiss-tell-w-mathys-lenne-fra-kait-xri-sempra-tickets-1252651326839?aff=ebdssbdestsearch,-37.812055,144.969092
Scrumptious St Albans,2025-03-29,11:00,St Albans Market,"3 Saint Albans Road Saint Albans, VIC 3021",https://www.eventbrite.com.au/e/scrumptious-st-albans-tickets-1063932644179?aff=ebdssbdestsearch,-37.7458854,144.801726
"Three Regions, One Season: A Masterclass in France, Italy and Argentina",2025-03-29,14:00,The Vincent Wine Shop,"111 Victoria Avenue Albert Park, VIC 3206",https://www.eventbrite.com/e/three-regions-one-season-a-masterclass-in-france-italy-and-argentina-tickets-1273469574779?aff=ebdssbdestsearch,-37.8450308,144.9508355
Eat The Beat pres. MARKET MEMORIES,2025-03-29,22:00,New Guernica,"64 Smith Street Collingwood, VIC 3066",https://www.eventbrite.com.au/e/eat-the-beat-pres-market-memories-tickets-1271880000319?aff=ebdssbdestsearch,-37.8062529,144.9832565
Hands-on Bike Maintenance,2025-03-29,10:30,The Craig Family Centre Inc.,"7 Samarinda Avenue Ashburton, VIC 3147",https://www.eventbrite.com.au/e/hands-on-bike-maintenance-tickets-1220359872229?aff=ebdssbdestsearch,-37.8668073,145.0839321
CERES Harvest Festival 2025,2025-03-29,10:00,CERES Community Environment Park,"Cnr Roberts and Stewart Streets East Brunswick, VIC 3057",https://www.eventbrite.com.au/e/ceres-harvest-festival-2025-tickets-1276048026999?aff=ebdssbdestsearch,-37.7645684,144.9729273
"REACT with DJ Stingray 313, Schacke + Kia",2025-03-29,18:00,The Third Day,"290 Macaulay Road North Melbourne, VIC 3051",https://www.eventbrite.com.au/e/react-with-dj-stingray-313-schacke-kia-tickets-1255187091379?aff=ebdssbdestsearch,-37.7946786,144.9367079
Immersive Studio Ghibli Art Workshop by The Warehouse Melbourne,2025-03-29,02:30,Studio Take Care,"1 Pitt Street Brunswick, VIC 3056",https://www.eventbrite.com.au/e/immersive-studio-ghibli-art-workshop-by-the-warehouse-melbourne-tickets-1121091006379?aff=ebdssbdestsearch,-37.7711984,144.9711714
"Learn The Art Of Sicilian Sausage: Making, Curing and Cooking",2025-03-29,10:30,132 Lygon St,"132 Lygon Street Brunswick East, VIC 3057",https://www.eventbrite.com.au/e/learn-the-art-of-sicilian-sausage-making-curing-and-cooking-tickets-1052994192977?aff=ebdssbdestsearch,-37.774024,144.9714771
Sarah Light 'Control' Single Launch,2025-03-29,19:00,Lyrebird Lounge,"61 Glen Eira Road Ripponlea, VIC 3185",https://www.eventbrite.com.au/e/sarah-light-control-single-launch-tickets-1224275243209?aff=ebdssbdestsearch,-37.876638,144.99709
Paraquay at The Retreat Hotel Brunswick w/ My Giddy Aunt + Erica Avenue,2025-03-29,19:30,280 Sydney Rd,"280 Sydney Road Brunswick, VIC 3056",https://www.eventbrite.com.au/e/paraquay-at-the-retreat-hotel-brunswick-w-my-giddy-aunt-erica-avenue-tickets-1261815607449?aff=ebdssbdestsearch,-37.7711488,144.9616353
MTG - Lunar New Year Chaos Draft - Gameology CLAYTON SOUTH - 29/03/25,2025-03-29,14:00,Gameology,"12 Eileen Road Clayton South, VIC 3169",https://www.eventbrite.com.au/e/mtg-lunar-new-year-chaos-draft-gameology-clayton-south-290325-tickets-1252536322859?aff=ebdssbdestsearch,-37.9512104,145.1347381
100 x 100m - 2025,2025-03-30,08:00,Fitzroy Swimming Pool,"160 Alexandra Parade Fitzroy, VIC 3065",https://www.eventbrite.com.au/e/100-x-100m-2025-registration-1142503070439?aff=ebdssbdestsearch,-37.7938185,144.9810318
Drive For Mens Mental Health,2025-03-30,09:00,3/365 Plummer St,"365 Plummer Street 3 Port Melbourne, VIC 3207",https://www.eventbrite.com.au/e/drive-for-mens-mental-health-tickets-1209420943599?aff=ebdssbdestsearch,-37.8324848,144.9226431
Integral’s Selective Entry Public Mock Exam for 2025 Aspirants,2025-03-30,09:00,Victoria University - Footscray Park Campus,"104 Ballarat Road #70 Footscray, VIC 3011",https://www.eventbrite.com.au/e/integrals-selective-entry-public-mock-exam-for-2025-aspirants-registration-1266868821749?aff=ebdssbdestsearch,-37.793719,144.8985475
Soulful Sunday Singles - The George on Collins,2025-03-30,14:00,The George on Collins,"162-168 Collins Street Melbourne, VIC 3000",https://www.eventbrite.com.au/e/soulful-sunday-singles-the-george-on-collins-tickets-1230965584199?aff=ebdssbdestsearch,-37.8148781,144.9680956
Her Holy Heartache - Navigating Grief with Grace.,2025-03-30,11:00,Centre of You,"Upstairs, 217 Chapel St Prahran Melbourne, VIC 3181",https://www.eventbrite.com.au/e/her-holy-heartache-navigating-grief-with-grace-tickets-1238528284439?aff=ebdssbdestsearch,-37.8509316,144.9933031
Fascial Freedom Journey: Release and Transform to Thrive and Perform,2025-03-30,09:30,567 Glen Huntly Rd,"567 Glen Huntly Road Elsternwick, VIC 3185",https://www.eventbrite.com/e/fascial-freedom-journey-release-and-transform-to-thrive-and-perform-tickets-1263131734019?aff=ebdssbdestsearch,-37.8852905,145.0120933
Sabor 'Til Sundown: A Latin Takeover on Yewers Street with Papelón,2025-03-30,12:00,4 Yewers St,"4 Yewers Street Footscray, VIC 3011",https://www.eventbrite.com.au/e/sabor-til-sundown-a-latin-takeover-on-yewers-street-with-papelon-tickets-1033029076777?aff=ebdssbdestsearch,-37.8019246,144.9068372
Holi Festival Melbourne CBD - 30th March,2025-03-30,11:00,Ron Barassi Snr Park,"Docklands Drive Docklands, VIC 3008",https://www.eventbrite.com.au/e/holi-festival-melbourne-cbd-30th-march-tickets-1122934540439?aff=ebdssbdestsearch,-37.8146686,144.9383432
Manchester Unity Building Tour,2025-03-30,10:00,Manchester Unity Building,"Ground Floor 220 Collins Street Melbourne, VIC 3000",https://www.eventbrite.com.au/e/manchester-unity-building-tour-tickets-1115082895959?aff=ebdssbdestsearch,-37.8153781,144.9661231
MFWF 2025: Lobley at Lane's Edge,2025-03-30,13:30,Lane's Edge Wine Bar,"39 Bourke Street Melbourne, VIC 3000",https://www.eventbrite.com.au/e/mfwf-2025-lobley-at-lanes-edge-tickets-1082856626319?aff=ebdssbdestsearch,-37.8118663,144.9720579
Detox Your Life - Melbourne,2025-03-30,13:00,Renew Health Co.,"136 Wood Street Preston, VIC 3072",https://www.eventbrite.com.au/e/detox-your-life-melbourne-tickets-1265621360559?aff=ebdssbdestsearch,-37.7348798,145.021609
Beautilism x NU.TECHNO presents Nandu (3hrs),2025-03-30,14:00,Bourke Street Courtyard,"629 Bourke Street Melbourne, VIC 3004",https://www.eventbrite.com.au/e/beautilism-x-nutechno-presents-nandu-3hrs-tickets-1250920760669?aff=ebdssbdestsearch,-37.8168528,144.9552468
Term 1 Vocal Showcase - SHOW 3,2025-03-30,17:30,level 1/67L Matthews Ave,"67L Matthews Avenue #level 1 Airport West, VIC 3042",https://www.eventbrite.com.au/e/term-1-vocal-showcase-show-3-tickets-1278957960689?aff=ebdssbdestsearch,-37.7284038,144.8900169
Crackpot Comedy - Queer Comedy in Collingwood,2025-03-30,10:00,"Wheat, Wine & Whisky","284 Smith Street Collingwood, VIC 3066",https://www.eventbrite.com.ar/e/crackpot-comedy-queer-comedy-in-collingwood-tickets-1252748367089?aff=ebdssbdestsearch,-37.8008428,144.9842391
The Nikodimos Orchestra Live at the Northcote Uniting Church,2025-03-30,16:00,Northcote Uniting Church,"251 High Street Northcote, VIC 3070",https://www.eventbrite.com.au/e/the-nikodimos-orchestra-live-at-the-northcote-uniting-church-tickets-1264555462429?aff=ebdssbdestsearch,-37.7729931,144.9978028
Sunday Salsa  – Dance  and Socialise!,2025-03-30,16:00,Ela Rose Studios,"20 Chingford Street Fairfield, VIC 3078",https://www.eventbrite.com.au/e/sunday-salsa-dance-and-socialise-tickets-1255415735259?aff=ebdssbdestsearch,-37.7696884,145.0239564
Waterfall & Sculpture Photography-Landscape Photography Course,2025-03-30,10:00,Marysville,"Murchison St Parkville Marysville, VIC 3779",https://www.eventbrite.com.au/e/waterfall-sculpture-photography-landscape-photography-course-tickets-927093851667?aff=ebdssbdestsearch,-37.5105378,145.7424923
Basic Bike Maintenance - Darebin Loves Bikes,2025-03-30,13:00,Reservoir Leisure Centre,"2A Cuthbert Road Reservoir, VIC 3073",https://www.eventbrite.com.au/e/basic-bike-maintenance-darebin-loves-bikes-tickets-1225770856629?aff=ebdssbdestsearch,-37.7162759,145.0188735
Malcura at Mantra Studio on Sunday March 30th,2025-03-30,00:00,Mantra Studio Kitchen and Bar,"10 Campbell St, Yarraville VIC 3013, Australia",https://www.facebook.com/events/582500237655454/,-37.820684,144.8947691
NEW DATE - In Session with Malcura - Celebrating 'Flamenco Metal' ,2025-03-30,13:00,Mantra Studio Kitchen and Bar,"10 Campbell St, Yarraville VIC 3013, Australia",https://www.facebook.com/events/1767594000445805/,-37.820684,144.8947691
19-TWENTY,2025-03-30,14:00,Way Out West Roots Music Club,"4 Market St, Newport VIC 3015, Australia",https://www.facebook.com/events/9207519666003002/,-37.8439028,144.8823845
Luna's Dark Secret ALBUM launch SUN MARCH 30 The Workers CLUB,2025-03-30,07:00,The Workers Club,"51 Brunswick St, Fitzroy VIC 3065, Australia",https://www.facebook.com/events/1294023405239423/,-37.8055776,144.9769450659087
"The Salmon Sisters, with Harriet Wraith, No Turns and Edie Mitchell",2025-03-30,15:00,The Last Chance,"238 Victoria St, Melbourne VIC 3000, Australia",https://www.facebook.com/events/1680312586255560/,-37.8059962,144.9585654
Phil Coyne & The Wayward Aces Live in the Glasshouse,2025-03-30,00:00,Transport Hotel,"Transport Hotel, Ground Level Federation Square, Melbourne VIC 3000, Australia",https://www.facebook.com/events/531936399251669/,-37.81835059,144.9683925
"Exosquelette (Single Launch), Mark Campbell & the Ravens, Nampo play Merri Creek",2025-03-30,00:00,The Merri Creek Tavern,"111 High St, Northcote VIC 3070, Australia",https://www.facebook.com/events/2632913116915911/,-37.7794356,144.996838
Amaya Laucirica at The Retreat Hotel (free show in the courtyard!),2025-03-30,15:00,Retreat Hotel,"Level 1/280 Sydney Rd, Brunswick VIC 3056, Australia",https://www.facebook.com/events/644162971505241/,-37.7711487,144.9615949
Moonboots - Revolver Sundays,2025-03-30,22:00,Revolver Upstairs,"Level 2/229 Chapel St, Prahran VIC 3181, Australia",https://www.facebook.com/events/1289854315642525/,-37.8505902,144.9933469
Easter Kids Art in Williamstown Library,2025-03-31,10:30,Williamstown Library,"104 Ferguson Street Williamstown, VIC 3016",https://www.eventbrite.com.au/e/easter-kids-art-in-williamstown-library-tickets-1123859767819?aff=ebdssbdestsearch,-37.85832,144.8961172
Clinical Ethics: End-of-Life Care,2025-03-31,08:30,Deakin Downtown,"727 Collins Street #tower 2 level 12 Melbourne, VIC 3008",https://www.eventbrite.com.au/e/clinical-ethics-end-of-life-care-tickets-1118435323159?aff=ebdssbdestsearch,-37.8206847,144.949995
WWB Presents WHISKY & WINE TASTING,2025-03-31,19:00,Watsonia Wine Bar,"3-5 Watsonia Road Watsonia, VIC 3087",https://www.eventbrite.com.au/e/wwb-presents-whisky-wine-tasting-tickets-1257921480009?aff=ebdssbdestsearch,-37.7121785,145.0822469
Sound Shower - Transformation & Healing Through Sound.,2025-03-31,18:30,Centre of You,"Upstairs, 217 Chapel St Prahran Melbourne, VIC 3181",https://www.eventbrite.com.au/e/sound-shower-transformation-healing-through-sound-tickets-1259132783049?aff=ebdssbdestsearch,-37.8509316,144.9933031
"	‘Social Sanctuary’ GRID Series Pals with Franjapan, Jag + ELAURA",2025-03-31,19:00,Northcote Social Club,"301 High St, Northcote VIC 3070, Australia",https://www.facebook.com/events/488543640756458/,-37.771471,144.998414
GUINNESS WORLD RECORD SPLIT THE G ATTEMPT,2025-03-31,19:00,Lulie Tavern,"225 Johnston St, Abbotsford VIC 3067, Australia",https://www.facebook.com/events/1081527177323427/,-37.8000264,144.9936498
Clinical Ethics: Perioperative Care (Part 1),2025-04-01,08:30,Deakin Downtown,"727 Collins Street #tower 2 level 12 Melbourne, VIC 3008",https://www.eventbrite.com.au/e/clinical-ethics-perioperative-care-part-1-tickets-1118428873869?aff=ebdssbdestsearch,-37.8206847,144.949995
"Web3 Conversations with Creators, Freelancers & Solopreneurs over Coffee",2025-04-01,11:00,Krimper Cafe,"20 Guildford Lane Melbourne, VIC 3000",https://www.eventbrite.com.au/e/web3-conversations-with-creators-freelancers-solopreneurs-over-coffee-tickets-1252543233529?aff=ebdssbdestsearch,-37.8111993,144.9601337
PM Club - Metro Hub (Kew),2025-04-01,13:00,Kew Golf Club,"120 Belford Road Kew East, VIC 3102",https://www.eventbrite.com.au/e/pm-club-metro-hub-kew-tickets-1278960508309?aff=ebdssbdestsearch,-37.7859682,145.053472
Easter Art Playgroup at Peachy Keen!,2025-04-01,10:00,Peachy Keen,"84 Ferguson Street #REAR of 82 Williamstown, VIC 3016",https://www.eventbrite.com.au/e/easter-art-playgroup-at-peachy-keen-tickets-1123859567219?aff=ebdssbdestsearch,-37.8586376,144.8974715
MASTERCLASS: Finance for Non-Finance People,2025-04-01,09:30,Museo Italiano,"199 Faraday Street Carlton, VIC 3053",https://www.eventbrite.com.au/e/masterclass-finance-for-non-finance-people-tickets-1210255660259?aff=ebdssbdestsearch,-37.7989761,144.9679657
The Future of Layer 1s — A Two-Horse Race or an Expanding Battlefield?,2025-04-01,17:30,Inspire9,"41-43 Stewart Street #Level 1 Richmond, VIC 3121",https://www.eventbrite.com.au/e/the-future-of-layer-1s-a-two-horse-race-or-an-expanding-battlefield-tickets-1252550635669?aff=ebdssbdestsearch,-37.82381470000001,144.991266
Inclusion of students who have vision impairments in PE 2025,2025-04-01,09:00,Statewide Vision Resource Centre,"370 Springvale Road Donvale, VIC 3111",https://www.eventbrite.com.au/e/inclusion-of-students-who-have-vision-impairments-in-pe-2025-tickets-1119351603779?aff=ebdssbdestsearch,-37.8005729,145.1775198
Easter Art Playgroup at the Toy Library!,2025-04-01,10:00,Hobsons Bay Toy Library,"51 Maddox Road Newport, VIC 3015",https://www.eventbrite.com.au/e/easter-art-playgroup-at-the-toy-library-tickets-1123859567219?aff=ebdssbdestsearch,-37.8456592,144.8677992
A Taste of the Rhône: Exploring Chateau Mont-Redon with Pierre Fabre,2025-04-01,17:30,The Vincent Wine Shop,"111 Victoria Avenue Albert Park, VIC 3206",https://www.eventbrite.com/e/a-taste-of-the-rhone-exploring-chateau-mont-redon-with-pierre-fabre-tickets-1274759011519?aff=ebdssbdestsearch,-37.8450308,144.9508355
Galym Kaliakbarov: From Kazakhstan to Down Under,2025-04-01,19:30,The Third Day,"290 Macaulay Road North Melbourne, VIC 3051",https://www.eventbrite.com.au/e/galym-kaliakbarov-from-kazakhstan-to-down-under-tickets-1117116959899?aff=ebdssbdestsearch,-37.7946786,144.9367079
LUX VIP MELB : That Creative Hub - Elevate Your Image,2025-04-01,06:30,"That Creative Hub | Photography, Videography and Content Studio","68 Garden Drive #Unit 7/62 Tullamarine, VIC 3043",https://www.eventbrite.com.au/e/lux-vip-melb-that-creative-hub-elevate-your-image-tickets-1273476696079?aff=ebdssbdestsearch,-37.6881787,144.8752737
SASHI PERERA & FRIENDS - MELBOURNE INTERNATIONAL COMEDY FESTIVAL - APRIL 1,2025-04-01,06:20,The Coopers Inn,"282 Exhibition Street Melbourne, VIC 3000",https://www.eventbrite.com.au/e/sashi-perera-friends-melbourne-international-comedy-festival-april-1-tickets-1202732628669?aff=ebdssbdestsearch,-37.809136,144.9695482
MIG Workshop: Introduction to experimental design,2025-04-01,09:30,The Florey Institute of Neuroscience and Mental Health,"30 Royal Parade Parkville, VIC 3010",https://www.eventbrite.com/e/mig-workshop-introduction-to-experimental-design-tickets-1234198985389?aff=ebdssbdestsearch,-37.7982843,144.9585746
"First Tuesday Book Club April 2025, with guest authors!",2025-04-01,18:15,Village Cinemas Rivoli,"200 Camberwell Road Hawthorn East, VIC 3123",https://www.eventbrite.com.au/e/first-tuesday-book-club-april-2025-with-guest-authors-tickets-1266846715629?aff=ebdssbdestsearch,-37.8306851,145.0554532
"Art, Espionage and Professor A.D. Trendall",2025-04-01,00:00,La Trobe University Sports Pavillion,"Sports Fields Pavillion, Bundoora VIC 3083, Australia",https://www.facebook.com/events/1411521723171489/,-37.7231325,145.0422049
Matthias Goerne sings Winterreise with Daniil Trifonov,2025-04-01,19:30,Melbourne Recital Centre,"31 Sturt St, Southbank VIC 3006, Australia",https://www.facebook.com/events/441935372206242/,-37.82408485,144.96758763141432
Gay-ming with Pride at The Gaming Arena!,2025-04-01,00:00,The Gaming Arena,"123 Bakers Rd, Coburg North VIC 3058, Australia",https://www.facebook.com/events/467533492828961/,-37.72715826,144.96115535488718
It's Camp April Fools ,2025-04-01,20:00,The Old Bar,"74-76 Johnston St, Fitzroy VIC 3065, Australia",https://www.facebook.com/events/1319456139316901/,-37.79833,144.97711
Pop-up Easter kids event in Altona!,2025-04-02,10:00,Bezirk Cafe,"1A Millers Road Altona, VIC 3018",https://www.eventbrite.com.au/e/pop-up-easter-kids-event-in-altona-tickets-1122291045729?aff=ebdssbdestsearch,-37.870712,144.8379658
Cyndi Lauper,2025-04-02,12:00,Rod Laver Arena,"200 Batman Ave, Melbourne VIC 3000, Australia",https://premier.ticketek.com.au/shows/show.aspx?sh=CYNDILAU25,-37.8216161,144.9785584
MOONEE PONDS - Professional Development Training Day for Property Managers,2025-04-02,10:00,TBC,"Venue to be confirmed Melbourne, VIC 3144",https://www.eventbrite.com.au/e/moonee-ponds-professional-development-training-day-for-property-managers-tickets-1117233297869?aff=ebdssbdestsearch,-37.85351480000001,145.0355574
Non Profit Project Management Training - Melbourne - April 2025,2025-04-02,11:00,Melbourne,"Online Melbourne, VIC 3000",https://www.eventbrite.com.au/e/non-profit-project-management-training-melbourne-april-2025-registration-1119484250529?aff=ebdssbdestsearch,-37.8385356,144.9772245
Cheltenham VIC - April Falls,2025-04-02,08:45,Aidacare Cheltenham,"313 Warrigal Road Cheltenham, VIC 3192",https://www.eventbrite.com.au/e/cheltenham-vic-april-falls-tickets-1250428498299?aff=ebdssbdestsearch,-37.95983040000001,145.0751466
Caviar Masterclass - Toorak VIC,2025-04-02,18:30,Simon Johnson,"471 Toorak Road Toorak, VIC 3142",https://www.eventbrite.com.au/e/caviar-masterclass-toorak-vic-tickets-1114991743319?aff=ebdssbdestsearch,-37.840888,145.008728
Clifton Hill VIC - April Falls,2025-04-02,08:45,Aidacare Clifton Hill,"271 Queens Parade Clifton Hill, VIC 3068",https://www.eventbrite.com.au/e/clifton-hill-vic-april-falls-tickets-1250428668809?aff=ebdssbdestsearch,-37.785869,144.9949012
Epping VIC - April Falls,2025-04-02,08:45,Aidacare Epping,"710 High Street Epping, VIC 3076",https://www.eventbrite.com.au/e/epping-vic-april-falls-tickets-1250430353849?aff=ebdssbdestsearch,-37.6511774,145.0244123
Morning Melodies with Paul Hogan,2025-04-02,00:00,Altona Sports Club,"11 Altona Rd, Altona VIC 3018, Australia",https://www.facebook.com/events/4046782082233068/,-37.85754867,144.85121805353086
Open Mic Night ,2025-04-02,00:00,Bergy Bandroom,"64 Sydney Rd, Brunswick VIC 3056, Australia",https://www.facebook.com/events/1811293616367922/,-37.776327,144.9607158
Hump Day Variety Hour with The Deserters,2025-04-02,00:00,The Merri Creek Tavern,"111 High St, Northcote VIC 3070, Australia",https://www.facebook.com/events/553948270973306/,-37.7794356,144.996838
Noel Miller Live,2025-04-02,20:00,Palais Theatre,"Lower Esplanade, St Kilda VIC 3182, Australia",https://www.facebook.com/events/498893072837589/,-37.86708671,144.97599656199426
The Old Rugged Cross,2025-04-02,19:30,Melbourne Recital Centre,"31 Sturt St, Southbank VIC 3006, Australia",https://www.facebook.com/events/1358476805205514/,-37.82408485,144.96758763141432
SINGSONGS | The Sing Along Tradition Returns To Arcobar!,2025-04-02,00:00,arcobar heatherton,"8 Arco Ln, Heatherton VIC 3202, Australia",https://www.facebook.com/events/1458715321760532/,-37.94673685,145.07837928457485
"Melbourne, AUS - Small99's People, Planet, Pint™: Sustainability Meetup",2025-04-03,18:00,Beer DeLuxe Fed Square,"Flinders Street Melbourne, VIC 3000",https://www.eventbrite.co.uk/e/melbourne-aus-small99s-people-planet-pinttm-sustainability-meetup-tickets-1209340232189?aff=ebdssbdestsearch,-37.8185815,144.9637799
Alchemy,2025-04-03,18:30,44 Walmer St,"44 Walmer Street Kew, VIC 3101",https://www.eventbrite.com.au/e/alchemy-tickets-1253970412259?aff=ebdssbdestsearch,-37.8051441,145.0112191
Genesis (Thur 7:30pm),2025-04-03,19:30,Transit Dance (Brunswick),"64 Dawson Street Brunswick, VIC 3056",https://www.eventbrite.com.au/e/genesis-thur-730pm-tickets-1245501641939?aff=ebdssbdestsearch,-37.7701752,144.9559255
Autodesk Construction Cloud Masterclass - Melbourne,2025-04-03,08:30,Karstens Melbourne,"123 Queen Street Melbourne, VIC 3000",https://www.eventbrite.com.au/e/autodesk-construction-cloud-masterclass-melbourne-tickets-1267858622269?aff=ebdssbdestsearch,-37.8157528,144.9607103
"Stop Guessing, Start Growing: Digital Readiness Workshop",2025-04-03,09:30,Quest Burwood East,"315 Burwood Highway Burwood East, VIC 3151",https://www.eventbrite.com.au/e/stop-guessing-start-growing-digital-readiness-workshop-tickets-1271927853449?aff=ebdssbdestsearch,-37.8536759,145.1624134
UNSW Melbourne Alumni Networking Social,2025-04-03,18:00,The Emerald Peacock,"233 Lonsdale Street Melbourne, VIC 3000",https://www.eventbrite.com.au/e/unsw-melbourne-alumni-networking-social-tickets-1260354697829?aff=ebdssbdestsearch,-37.8115246,144.9655073
Working with Crises Associated with BPD (1 day),2025-04-03,09:00,Spectrum,"110 Church Street Richmond, VIC 3121",https://www.eventbrite.com.au/e/working-with-crises-associated-with-bpd-1-day-registration-1022179756167?aff=ebdssbdestsearch,-37.8142371,144.9995624
Boyzlife - Brian McFadden & Keith Duffy,2025-04-03,12:00,Forum Melbourne,"180 Flinders St, Melbourne VIC 3000, Australia",https://premier.ticketek.com.au/shows/show.aspx?sh=BOYZLIFE25,-37.816602,144.9694678
Those Folk  at The Lomond Hotel.,2025-04-03,20:00,The Lomond Hotel,"225 Nicholson Street Brunswick East, VIC 3057",https://www.eventbrite.com.au/e/those-folk-at-the-lomond-hotel-tickets-1253882027899?aff=ebdssbdestsearch,-37.7670861,144.9800057
OMSB Evening Experience 3rd April 2025,2025-04-03,18:30,Studio Amaro,"168 Chapel Street Windsor, VIC 3181",https://www.eventbrite.com.au/e/omsb-evening-experience-3rd-april-2025-tickets-1248096804139?aff=ebdssbdestsearch,-37.8523056,144.9935337
Serves & Sparks:  A Pickleball Social for Singles 3rd of April,2025-04-03,18:00,PicklePlay Indoor Pickleball,"1 South Drive Bentleigh East, VIC 3165",https://www.eventbrite.com.au/e/serves-sparks-a-pickleball-social-for-singles-3rd-of-april-tickets-1273303929329?aff=ebdssbdestsearch,-37.9106715,145.0613664
MIG Workshop: Introduction to python,2025-04-03,10:00,University of Melbourne Building 184,"University of Melbourne Building 184 Parkville, VIC 3052",https://www.eventbrite.com/e/mig-workshop-introduction-to-python-tickets-1236660076579?aff=ebdssbdestsearch,-37.79870349999999,144.9585355
SUCCULENT THURSDAYS,2025-04-03,00:00,Cactus Room,"614 High St, Thornbury VIC 3071, Australia",https://www.facebook.com/events/1396655064837679/?event_time_id=1396655084837677,-37.76125825,145.00041662186553
Catch 23 & Thursday Night Jam!,2025-04-03,00:00,Hume Blues Club Inc,"27 Ballantyne St, Thornbury VIC 3071, Australia",https://www.facebook.com/events/1285755862653907/,-37.7588241,144.9985126
The Blindboy Podcast,2025-04-03,19:00,Palais Theatre,"Lower Esplanade, St Kilda VIC 3182, Australia",https://www.facebook.com/events/819526470320130/,-37.86708671,144.97599656199426
Fenn Wilson and The Weather with special guest Milly Strange | LIVE at Punters Club,2025-04-03,21:30,Punters Club,"376 Brunswick St, Fitzroy VIC 3065, Australia",https://www.facebook.com/events/924786929827535/,-37.7960561,144.9790327
KEVIN WELCH & HEATH CULLEN,2025-04-03,19:00,Way Out West Roots Music Club,"4 Market St, Newport VIC 3015, Australia",https://www.facebook.com/events/611096361717539/,-37.8439028,144.8823845
ARBES Counterways Album Tour ~ Melbourne/Naarm with Obscura Hail & SHERESY,2025-04-03,19:30,THE CURTIN (John Curtin hotel),"29 Lygon St, Carlton VIC 3053, Australia",https://www.facebook.com/events/1055961866576510/,-37.8061581,144.9657057
The Seven Ups - Thursdays in April @ Shotkickers,2025-04-03,00:00,Shotkickers,"744 High St, Thornbury VIC 3071, Australia",https://www.facebook.com/events/651992823986157/,-37.75592655,145.0013923
Genesis (Fri 7:30pm),2025-04-04,19:30,Transit Dance (Brunswick),"64 Dawson Street Brunswick, VIC 3056",https://www.eventbrite.com.au/e/genesis-fri-730pm-tickets-1245502524579?aff=ebdssbdestsearch,-37.7701752,144.9559255
MPW Movie Night 2025,2025-04-04,17:30,Moonee Ponds West Primary School,"150 Athol Street Moonee Ponds, VIC 3039",https://www.eventbrite.com.au/e/mpw-movie-night-2025-tickets-1266667750339?aff=ebdssbdestsearch,-37.7687611,144.9087706
25 HOUR SEQUENCING TRAINING,2025-04-04,09:00,Ashtanga Yoga Centre of Melbourne,"110-112 Argyle Street #Level 1 Fitzroy, VIC 3065",https://www.eventbrite.com.au/e/25-hour-sequencing-training-tickets-1238398405969?aff=ebdssbdestsearch,-37.7977228,144.9791885
Mentor Walks Melbourne: Get guidance and grow your network,2025-04-04,07:10,"Under King Edward VII Monument (behind the floral clock), Queen Victoria Gardens","Saint Kilda Road Melbourne, VIC 3004",https://www.eventbrite.com.au/e/mentor-walks-melbourne-get-guidance-and-grow-your-network-tickets-1115334007039?aff=ebdssbdestsearch,-37.8371405,144.9756536
Mastering Grafting  and Implants in Oral Surgery,2025-04-04,09:00,Waterman Chadstone,"1341 Dandenong Road #Level 2 UL40 Chadstone, VIC 3148",https://www.eventbrite.com.au/e/mastering-grafting-and-implants-in-oral-surgery-tickets-1248002351629?aff=ebdssbdestsearch,-37.8865803,145.0824062
Lifting the petticoats: the underbelly of Regency England,2025-04-04,20:00,Rising Sun Hotel,"2 Raglan Street Upstairs - no lift South Melbourne, VIC 3205",https://www.eventbrite.com.au/e/lifting-the-petticoats-the-underbelly-of-regency-england-tickets-1256230522309?aff=ebdssbdestsearch,-37.8361182,144.9666654
Human Forest & Open Sesame Live Band - A Regenerative Touch Party.,2025-04-04,18:45,Centre of You,"Upstairs, 217 Chapel St Prahran Melbourne, VIC 3181",https://www.eventbrite.com.au/e/human-forest-open-sesame-live-band-a-regenerative-touch-party-tickets-1271938354859?aff=ebdssbdestsearch,-37.8509316,144.9933031
[75% Sold] Melbourne's Biggest K-Pop Party 4th Apr | Students $5 Off!,2025-04-04,22:00,Inflation,"60 King Street Melbourne, VIC 3000",https://www.eventbrite.com.au/e/75-sold-melbournes-biggest-k-pop-party-4th-apr-students-5-off-tickets-1244223819939?aff=ebdssbdestsearch,-37.8188863,144.9571605
Uncommon West  4th April 2025,2025-04-04,12:00,Wolf Cafe & Eatery,"21 Lobelia Drive Altona North, VIC 3025",https://www.eventbrite.com.au/e/uncommon-west-4th-april-2025-tickets-1248199380949?aff=ebdssbdestsearch,-37.8448296,144.842256
The Tommies - Live At The Brunswick Green,2025-04-04,19:30,The Brunswick Green,"313-315 Sydney Road Brunswick, VIC 3056",https://www.eventbrite.com/e/the-tommies-live-at-the-brunswick-green-tickets-1256956583979?aff=ebdssbdestsearch,-37.770138,144.9614257
ExeQuantum: Protecting Crypto & Blockchain in the Quantum Era,2025-04-04,18:00,tenancy f01 432/446 Docklands Dr,"446 Docklands Drive #tenancy f01 432 Docklands, VIC 3008",https://www.eventbrite.com.au/e/exequantum-protecting-crypto-blockchain-in-the-quantum-era-tickets-1277424453929?aff=ebdssbdestsearch,-37.8141249,144.9387338
Dancing in the Dark - TRANSITION,2025-04-04,19:30,Merkaba Studio,"15 Mills Street Cheltenham, VIC 3192",https://www.eventbrite.com.au/e/dancing-in-the-dark-transition-tickets-1273071724799?aff=ebdssbdestsearch,-37.9560125,145.0740554
4HR PARKING @ THE WORKER’S CLUB,2025-04-04,20:00,The Workers Club,"51 Brunswick St, Fitzroy VIC 3065, Australia",https://www.facebook.com/events/490192897474791/,-37.8055776,144.9769450659087
MTG - Tarkir: Dragonstorm Pre-Release - Gameology BRUNSWICK - 04/04/25,2025-04-04,17:00,Gameology Brunswick,"36 Hope Street Brunswick, VIC 3056",https://www.eventbrite.com.au/e/mtg-tarkir-dragonstorm-pre-release-gameology-brunswick-040425-tickets-1268051148119?aff=ebdssbdestsearch,-37.7636924,144.9595539
Out of Sight: Photo Exhibition,2025-04-04,00:00,Revolver Upstairs,"Level 2/229 Chapel St, Prahran VIC 3181, Australia",https://www.facebook.com/events/1256999909119380/,-37.8505902,144.9933469
The Wonder Years Aus Tour with Joyce Manor – Melbourne Lic AA,2025-04-04,18:30,Northcote Theatre,"216 High St, Northcote VIC 3070, Australia",https://www.facebook.com/events/564291992848249/,-37.7737068,144.9982706
Matthew Ottignon's Volant - Melbourne,2025-04-04,00:00,The Jazz Lab,"27 Leslie St, Brunswick Melbourne, VIC, Australia, Victoria 3056",https://www.facebook.com/events/1765335187620428/,-37.76677279,144.9587122
"Flashback Fridays - Mix Tape 1 - 70s, 80s, 90s ",2025-04-04,21:00,Chasers Nightclub,"386 Chapel St, South Yarra VIC 3141, Australia",https://www.facebook.com/events/1302868344320438/,-37.8459118,144.9945123
"Rebecca O'Connor Simply the Best as Tina Turner | Thornbury Theatre, Thornbury, VIC",2025-04-04,19:00,The Thornbury Theatre,"859 High St, Thornbury VIC 3071, Australia",https://www.facebook.com/events/1287192265816736/,-37.754662,145.0011167
Katie Noonan & Karin Schaupp,2025-04-04,19:30,Melbourne Recital Centre,"31 Sturt St, Southbank VIC 3006, Australia",https://www.facebook.com/events/985418586363398/,-37.82408485,144.96758763141432
FRIDAY NIGHT COMEDY Peter Rowsthorn-Tom Siegert-Evan Hocking,2025-04-04,20:00,Oakleigh Carnegie RSL,"95/97 Drummond St, Oakleigh VIC 3166, Australia",https://www.facebook.com/events/613800567901535/,-37.8968576,145.08963741959553
Mount Kujo return to 303,2025-04-04,21:00,Bar 303,"303 High St, Northcote VIC 3070, Australia",https://www.facebook.com/events/488911530581689/,-37.7713296,144.99828116650363
Sold Out! Dethklok: Awaken Australia - Melbourne - The Forum,2025-04-04,00:00,Forum Melbourne,"154 Flinders St, Melbourne VIC 3000, Australia",https://www.facebook.com/events/1120622666136493/,-37.81644145,144.9693768124984
Bon Jovi Forever - The Australian Bon Jovi Show,2025-04-04,20:30,Altona Sports Club,"11 Altona Rd, Altona VIC 3018, Australia",https://www.facebook.com/events/956807996172637/,-37.85754867,144.85121805353086
Liza & All That Jazz,2025-04-04,00:00,Paris Cat Jazz Club,"6 Goldie Pl, Melbourne VIC 3000, Australia",https://www.facebook.com/events/1128831875447443/,-37.8133262,144.96060714767358
Whiskers and Wishes,2025-04-04,20:00,The Penny Black,"420 Sydney Road Brunswick, VIC 3056",https://www.eventbrite.com/e/whiskers-and-wishes-tickets-1221797201319?aff=ebdssbdestsearch,-37.7680486,144.9623452
Comprehensive Implementation of The Myobrace® System (Melbourne),2025-04-04,09:00,Stamford Plaza Melbourne,"111 Little Collins Street Melbourne, VIC 3000",https://www.eventbrite.com.au/e/comprehensive-implementation-of-the-myobrace-system-melbourne-tickets-1106018423879?aff=ebdssbdestsearch,-37.8135512,144.9699174
DAAKU DUO LIVE IN MELBOURNE,2025-04-04,22:00,170 Russell St,"170 Russell Street Melbourne, VIC 3000",https://www.eventbrite.com.au/e/daaku-duo-live-in-melbourne-tickets-1243129797689?aff=ebdssbdestsearch,-37.8119107,144.9680341
Dethklok: Awaken Australia,2025-04-04,12:00,Forum Melbourne,"180 Flinders St, Melbourne VIC 3000, Australia",https://premier.ticketek.com.au/shows/show.aspx?sh=DETHLOK25,-37.816602,144.9694678
No Real Modelz - Art Exhibition,2025-04-05,14:00,14 Langridge St,"14 Langridge Street Collingwood, VIC 3066",https://www.eventbrite.com.au/e/no-real-modelz-art-exhibition-tickets-1256256439829?aff=ebdssbdestsearch,-37.806367,144.9840644
"Band, dinner & auction...raising funds for St Kilda's Little Mission",2025-04-05,06:30,St Kilda Sports Club,"66 Fitzroy Street St Kilda, VIC 3182",https://www.eventbrite.com.au/e/band-dinner-auctionraising-funds-for-st-kildas-little-mission-tickets-1244247089539?aff=ebdssbdestsearch,-37.8588818,144.9786016
Harriet Wraith Courtney Love Single Launch w/ Peach Fuzz + Kook Joey,2025-04-05,19:30,280 Sydney Rd,"280 Sydney Road Brunswick, VIC 3056",https://www.eventbrite.com.au/e/harriet-wraith-courtney-love-single-launch-w-peach-fuzz-kook-joey-tickets-1250811874989?aff=ebdssbdestsearch,-37.7711488,144.9616353
Flex & Flirt: Speed Dating at the Gym- Melbourne Singles- Ages 29-44,2025-04-05,13:00,Melbourne Calisthenics,"12 Lothian Street North Melbourne, VIC 3051",https://www.eventbrite.com.au/e/flex-flirt-speed-dating-at-the-gym-melbourne-singles-ages-29-44-tickets-1261888104289?aff=ebdssbdestsearch,-37.8036918,144.9446
ENS: DAY PARTY,2025-04-05,14:00,Royal Melbourne Hotel,"629 Bourke Street Melbourne, VIC 3000",https://www.eventbrite.com.au/e/ens-day-party-tickets-1117446104379?aff=ebdssbdestsearch,-37.8168528,144.9552468
"Clayton Childbirth education-Labour, Birth & Baby: 5th April, 2025",2025-04-05,08:30,246 Clayton Rd,"246 Clayton Road Clayton, VIC 3168",https://www.eventbrite.com/e/clayton-childbirth-education-labour-birth-baby-5th-april-2025-tickets-1247651151179?aff=ebdssbdestsearch,-37.9105091,145.122742
Studley Modern North Architecture Tour,2025-04-05,09:30,Wills Street Lookout,"92 Wills Street Kew, VIC 3101",https://www.eventbrite.com.au/e/studley-modern-north-architecture-tour-tickets-1126506554429?aff=ebdssbdestsearch,-37.7982677,145.0231564
Utopia Events Presents - RAMPAGE BLACK - Melbourne,2025-04-05,22:00,Bourke Street Courtyard,"629 Bourke Street Melbourne, VIC 3004",https://www.eventbrite.com/e/utopia-events-presents-rampage-black-melbourne-tickets-1226046039709?aff=ebdssbdestsearch,-37.8168528,144.9552468
Yellowcard,2025-04-05,12:00,Margaret Court Arena,"5XHH+G3 Melbourne VIC, Australia",https://premier.ticketek.com.au/shows/show.aspx?sh=YELLOWCL25,-37.8211276,144.9776364
Advanced Crystal Course,2025-04-05,10:30,"Oracle of Crystals, 228 Glenferrie Road, Malvern VIC, Australia","228 Glenferrie Road Malvern, VIC 3144",https://www.eventbrite.com.au/e/advanced-crystal-course-tickets-1260156003529?aff=ebdssbdestsearch,-37.8585334,145.0292064
Mallrat 'Light Hit My Face Like A Straight Right',2025-04-05,12:00,Forum Melbourne,"180 Flinders St, Melbourne VIC 3000, Australia",https://premier.ticketek.com.au/shows/show.aspx?sh=MALLRAT25,-37.816602,144.9694678
(ONLY TWO TABLES LEFT) BEE GEES REVIVAL: Unplugged | Dinner & Show,2025-04-05,00:00,arcobar heatherton,"8 Arco Ln, Heatherton VIC 3202, Australia",https://www.facebook.com/events/541596335360659/,-37.94673685,145.07837928457485
Fleetwood Max @ Oakleigh Music Hall,2025-04-05,20:00,Oakleigh Carnegie RSL,"95/97 Drummond St, Oakleigh VIC 3166, Australia",https://www.facebook.com/events/1153834336527439/,-37.8968576,145.08963741959553
Starman The David Bowie Tribute Show at Lucky 13,2025-04-05,00:00,Lucky 13 Garage,"8 Cochranes Rd, Moorabbin VIC 3189, Australia",https://www.facebook.com/events/1102369894849970/,-37.94349189,145.07036236060654
Nearvana Unplugged,2025-04-05,20:00,Second Story,"222A Johnston St, Collingwood VIC 3066, Australia",https://www.facebook.com/events/636679618833650/,-37.79913366,144.9859876802753
ENS: DAY PARTY RETURNS,2025-04-05,14:00,EMO NEVER SLEEPS,"629 Bourke St, Melbourne VIC 3004, Australia",https://www.facebook.com/events/589683210430820/,-37.8167994,144.9552063
Monthly MTG Commander Day at The Gaming Arena,2025-04-05,00:00,The Gaming Arena,"123 Bakers Rd, Coburg North VIC 3058, Australia",https://www.facebook.com/events/1773811540042976/,-37.72715826,144.96115535488718
Wall to Wall Festival 2025,2025-04-05,00:00,Kingston City Hall,"979-985 Nepean Hwy, Moorabbin VIC 3189, Australia",https://www.facebook.com/events/1806101163515130/?event_time_id=1806101170181796,-37.93372508,145.0352972005879
Sorcery and Swing: Magic and Music Dinner,2025-04-05,00:00,Stamford Plaza Melbourne,"111 Little Collins St, Melbourne VIC 3000, Australia",https://www.facebook.com/events/1149086880131642/,-37.81359225,144.9700614178762
OWOS & MDC PRES POLY-RITMO (UK),2025-04-05,00:00,24 Moons,"2 Arthurton Rd, Northcote VIC 3070, Australia",https://www.facebook.com/events/1268353124233147/,-37.7691418,144.9982614
Pat Presents: 'Free Play' MUSIC at CERES,2025-04-05,00:00,CERES Environment Park,"Stewart St & Roberts St East, Brunswick VIC 3056, Australia",https://www.facebook.com/events/9586691964762967/,-37.765454,144.9831564
The Beauty Social 2.0,2025-04-05,15:30,Browed,"57 Northern Road Heidelberg West, VIC 3081",https://www.eventbrite.com/e/the-beauty-social-20-tickets-1064180304939?aff=ebdssbdestsearch,-37.7291702,145.0482752
Eid at Fed Square,2025-04-05,17:00,Fed Square,"Swanston St &, Flinders St, Melbourne VIC 3000, Australia",https://www.facebook.com/events/953351823570042/,-37.81767355,144.9667825800355
Gewürzhaus — Easter Bake Swap,2025-04-05,09:00,247 Gertrude St,"247 Gertrude Street Fitzroy, VIC 3065",https://www.eventbrite.com/e/gewurzhaus-easter-bake-swap-tickets-1261906689879?aff=ebdssbdestsearch,-37.80618279999999,144.9827499
Muslim Collective's Climate Eid - Melbourne,2025-04-05,14:00,60 Leicester St,"60 Leicester Street Carlton, VIC 3053",https://www.eventbrite.com.au/e/muslim-collectives-climate-eid-melbourne-tickets-1264690817279?aff=ebdssbdestsearch,-37.8047385,144.9603985
BATTS,2025-04-05,14:00,280 Sydney Rd,"280 Sydney Road Brunswick, VIC 3056",https://www.eventbrite.com.au/e/batts-tickets-1265552564789?aff=ebdssbdestsearch,-37.7711488,144.9616353
The Signature Queen Wellness Day,2025-04-05,10:00,shop 1/239 Church St,"239 Church Street #shop 1 Richmond, VIC 3121",https://www.eventbrite.com.au/e/the-signature-queen-wellness-day-tickets-1258848282099?aff=ebdssbdestsearch,-37.8189873,144.999292
Gathering Men • Melbourne Metro Gathering • Autumn 2025,2025-04-05,18:00,The Venny,"85 Kensington Road Kensington, VIC 3031",https://www.eventbrite.com.au/e/gathering-men-melbourne-metro-gathering-autumn-2025-tickets-1254024624409?aff=ebdssbdestsearch,-37.797332,144.9237418
Victoria Star 'Summer Sessions' - Leon Kroeber Live,2025-04-05,18:00,Victoria Star Cruises,"30 Victoria Harbour Promenade Docklands, VIC 3008",https://www.eventbrite.com.au/e/victoria-star-summer-sessions-leon-kroeber-live-tickets-1142023556199?aff=ebdssbdestsearch,-37.8187053,144.9439326
POOF DOOF Red Rave - Sat 5th April MELBOURNE,2025-04-05,22:00,Chasers Nightclub,"386 Chapel Street South Yarra, VIC 3141",https://www.eventbrite.com.au/e/poof-doof-red-rave-sat-5th-april-melbourne-tickets-1271917662969?aff=ebdssbdestsearch,-37.8459028,144.9947039
"Hypnobirthing, Monash Clayton, Saturday April 5th & 12th, 2025",2025-04-05,09:30,"Monash Medical Centre, Clayton Road, Clayton","246 Clayton Road Clayton, VIC 3168",https://www.eventbrite.com/e/hypnobirthing-monash-clayton-saturday-april-5th-12th-2025-tickets-1250870600639?aff=ebdssbdestsearch,-37.9105091,145.122742
Hoffman Re-Connection Day,2025-04-05,10:00,Temperance Hall,"199 Napier Street South Melbourne, VIC 3205",https://www.eventbrite.com.au/e/hoffman-re-connection-day-tickets-1229541655189?aff=ebdssbdestsearch,-37.83692180000001,144.9609452
MTG - Tarkir: Dragonstorm Pre-Release - Gameology CLAYTON SOUTH - 05/04/25,2025-04-05,11:30,Gameology,"12 Eileen Road Clayton South, VIC 3169",https://www.eventbrite.com.au/e/mtg-tarkir-dragonstorm-pre-release-gameology-clayton-south-050425-tickets-1266861078589?aff=ebdssbdestsearch,-37.9512104,145.1347381
Another World - April 05 - Mystical Momentum,2025-04-05,21:00,my aeon,"791 Sydney Road Brunswick, VIC 3056",https://www.eventbrite.com.au/e/another-world-april-05-mystical-momentum-tickets-1270134048129?aff=ebdssbdestsearch,-37.7581868,144.9633301
Sake x Ghibli Jazz Vol.7,2025-04-05,12:00,KURA,"30 Lygon Street #Shop 1/22 Brunswick East, VIC 3057",https://www.eventbrite.com.au/e/sake-x-ghibli-jazz-vol7-tickets-1264726112849?aff=ebdssbdestsearch,-37.7779661,144.9709972
"Ding Dong Club - Live Melbourne podcast - Saturday, April  5, 4.30pm",2025-04-05,04:30,MAMAO Club,"59 Bourke Street Melbourne, VIC 3000",https://www.eventbrite.com.au/e/ding-dong-club-live-melbourne-podcast-saturday-april-5-430pm-tickets-1108216448229?aff=ebdssbdestsearch,-37.8120197,144.9715179
REGGAE AND DANCEHALL JAM SESSION,2025-04-05,14:00,Kindred Bandroom,"3 Harris Street Footscray, VIC 3011",https://www.eventbrite.com.au/e/reggae-and-dancehall-jam-session-tickets-1252653864429?aff=ebdssbdestsearch,-37.8118874,144.9008424
ASCENSION 4,2025-04-05,18:00,"Melbourne Pavilion, Racecourse Road, Kensington VIC, Australia","135-157 Racecourse Road Kensington, VIC 3031",https://www.eventbrite.com/e/ascension-4-tickets-1267020555589?aff=ebdssbdestsearch,-37.7891081,144.9364233
Ripple Presents GLAM @ Glamorama,2025-04-05,16:00,Glamorama Nightclub,"393 Brunswick Street Fitzroy, VIC 3065",https://www.eventbrite.com.au/e/ripple-presents-glam-glamorama-tickets-1236887887969?aff=ebdssbdestsearch,-37.795435,144.97873
"ATLVS  | FT. SIGNALS, SAME PAINS & SLOWBURN.",2025-04-05,19:00,Stay Gold,"133 Sydney Road Brunswick, VIC 3056",https://www.eventbrite.com.au/e/atlvs-ft-signals-same-pains-slowburn-tickets-1236738079889?aff=ebdssbdestsearch,-37.77435880000001,144.9606103
Macleod Village Easter Egg Hunt and Maker’s Market,2025-04-05,10:00,Macleod Shopping Village,"Aberdeen Road Macleod, VIC 3085",https://www.eventbrite.com.au/e/macleod-village-easter-egg-hunt-and-makers-market-tickets-1244145435489?aff=ebdssbdestsearch,-37.7273508,145.0701041
Victoria Star 'Sunset Sessions' - Leon Kroeber Live,2025-04-05,05:30,Victoria Star Cruises,"30 Victoria Harbour Promenade Docklands, VIC 3008",https://www.eventbrite.com.au/e/victoria-star-sunset-sessions-leon-kroeber-live-tickets-1142023556199?aff=ebdssbdestsearch,-37.8187053,144.9439326
The Lost Pearl Presents CAMRINWATSIN,2025-04-05,15:00,The Duke of Albany Hotel,"323 Victoria Street Abbotsford, VIC 3067",https://www.eventbrite.com.au/e/the-lost-pearl-presents-camrinwatsin-tickets-1227063091739?aff=ebdssbdestsearch,-37.8098722,144.9958037
The One with the Friends Trivia Night,2025-04-05,06:30,The Castle Hotel,"56 Courtney Street North Melbourne, VIC 3051",https://www.eventbrite.com.au/e/the-one-with-the-friends-trivia-night-tickets-1235385554449?aff=ebdssbdestsearch,-37.8008894,144.9530529
'SING: Olivia & Karen',2025-04-06,00:00,Oakleigh Carnegie RSL,"95/97 Drummond St, Oakleigh VIC 3166, Australia",https://www.facebook.com/events/1315855179430787/,-37.8968576,145.08963741959553
trentemøller // Melbourne // Dreamweaver Tour with 5 Piece band  // Forum  ,2025-04-06,19:00,Forum Melbourne,"154 Flinders St, Melbourne VIC 3000, Australia",https://www.facebook.com/events/532153332867529/,-37.81644145,144.9693768124984
Fiona Thorn sings Serge Gainsbourg - He Drank Too Many Cigarettes,2025-04-06,18:00,Paris Cat Jazz Club,"6 Goldie Pl, Melbourne VIC 3000, Australia",https://www.facebook.com/events/1069656614960813/,-37.8133262,144.96060714767358
Sunset Carvery Cruise,2025-04-06,16:30,131 Harbour Esplanade,"131 Harbour Esplanade Docklands, VIC 3008",https://www.eventbrite.com/e/sunset-carvery-cruise-tickets-1115153687699?aff=ebdssbdestsearch,-37.81707129999999,144.9453813
Ross Wilson & The Peaceniks - 50 Years of Hits Tour - Upwey,2025-04-06,16:00,The Flying Saucer Club,"979-985 Nepean Hwy, Moorabbin VIC 3189, Australia",https://www.facebook.com/events/498704673327561/,-37.9369432,145.0373674
Get Ready To Glow,2025-04-06,14:00,Mountain View Hotel,"186 Springvale Road Glen Waverley, VIC 3150",https://www.eventbrite.com.au/e/get-ready-to-glow-tickets-1260142804049?aff=ebdssbdestsearch,-37.8740224,145.1673606
Flower and Garden Photography Course (Melbourne Gardens),2025-04-06,09:30,Fitzroy Gardens,"Wellington Parade East Melbourne, VIC 3002",https://www.eventbrite.com.au/e/flower-and-garden-photography-course-melbourne-gardens-tickets-927093340137?aff=ebdssbdestsearch,-37.8162335,144.983392
REFRESH & RECHARGE,2025-04-06,01:30,Merkaba Studio,"15 Mills Street Cheltenham, VIC 3192",https://www.eventbrite.com.au/e/refresh-recharge-tickets-1142233042779?aff=ebdssbdestsearch,-37.9560125,145.0740554
Vesakhi with the Victorian Sikh Association,2025-04-06,11:30,Victorian Sikh Association (VSA) Club House,"Winbirra Parade Ashwood, VIC 3147",https://www.eventbrite.com.au/e/vesakhi-with-the-victorian-sikh-association-tickets-1276015690279?aff=ebdssbdestsearch,-37.8697989,145.1002121
"Crash Test Dummies (Canada) | Northcote Theatre, Melbourne",2025-04-06,00:00,Northcote Theatre,"216 High St, Northcote VIC 3070, Australia",https://www.facebook.com/events/975164144565928/,-37.7737068,144.9982706
Masami Kawaguchi's NEW ROCK SYNDICATE only Melbourne headline show with very special guests!,2025-04-06,16:00,Shotkickers,"744 High St, Thornbury VIC 3071, Australia",https://www.facebook.com/events/931975752399733/,-37.75592655,145.0013923
trentemøller,2025-04-06,12:00,Forum Melbourne,"180 Flinders St, Melbourne VIC 3000, Australia",https://premier.ticketek.com.au/shows/show.aspx?sh=TRENTE25,-37.816602,144.9694678
Lamb Care Australia Trivia and Bake Sale,2025-04-06,12:30,Edinburgh Gardens,"Alfred Crescent Fitzroy North, VIC 3068",https://www.eventbrite.com/e/lamb-care-australia-trivia-and-bake-sale-tickets-1260485318519?aff=ebdssbdestsearch,-37.7879796,144.9855187
LTUGS Movie Night: A Minecraft Movie,2025-04-06,14:00,Palace Cinemas,"1 Champ Street Coburg, VIC 3058",https://www.eventbrite.com/e/ltugs-movie-night-a-minecraft-movie-tickets-1278950939689?aff=ebdssbdestsearch,-37.7370508,144.9677596
Sip & Style,2025-04-06,16:30,219 Swan St,"219 Swan Street Richmond, VIC 3121",https://www.eventbrite.com/e/sip-style-tickets-1262331691069?aff=ebdssbdestsearch,-37.825692,144.999559
