Event_Title,Date,Time,Venue,Address,url,Latitude,Longitude
HIGH VOLTAGE COMEDY @ Club Voltaire,2024-09-25,19:30,Club Voltaire,"14 Raglan Street #1st Floor North Melbourne, VIC 3051",https://www.eventbrite.com/e/high-voltage-comedy-club-voltaire-tickets-1004252886417?aff=ebdssbdestsearch,-37.8042574,144.9501433
Beatles Legacy | MEMO Music Hall,2024-11-01,16:00,MEMO Music Hall,"88 Acland St, St Kilda VIC 3182, Australia",https://www.facebook.com/events/947678549775611/,-37.8671902,144.9786817
Sunday Fundays - THE HERBERTS LAST SHOW AT MUSICLAND FOR 2024!,2024-11-01,0:00,Musicland Melbourne,"1359 Sydney Rd, Fawkner VIC 3060, Australia",https://www.facebook.com/events/858666056479424/,-37.6916774,144.9585701581541
Sunset Session Jazz Jam,2024-11-01,0:00,Ragtime Tavern,"206 Tyler St, Preston VIC 3072, Australia",https://www.facebook.com/events/732212515419065/?event_time_id=778733224100327,-37.7310367,145.0142411
pale tides SINGLE LAUNCH @ Mamma Chen’s w/ Liam Morton + Nic Bosnic + Hann.,2024-11-01,0:00,Mamma Chen's,"42A Albert St, Footscray VIC 3011, Australia",https://www.facebook.com/events/3769450366601048/,-37.8047552,144.89727240000002
Charlie Lane ' I'm Okay Now But I Wasn't ' Album Tour @ Mama Chen's ,2024-11-01,0:00,Mamma Chen's,"42A Albert St, Footscray VIC 3011, Australia",https://www.facebook.com/events/3411549142311275/,-37.8047552,144.89727240000002
Matinee: Day One ,2024-11-01,13:00,The Workers Club,"51 Brunswick St, Fitzroy VIC 3065, Australia",https://www.facebook.com/events/860269399636213/,-37.8055776,144.9769450659087
Sugargum @ The Workers Club ,2024-11-01,19:00,The Workers Club,"51 Brunswick St, Fitzroy VIC 3065, Australia",https://www.facebook.com/events/1469374653737888/,-37.8055776,144.9769450659087
 FREE SUNDAY LIVE MUSIC | Featuring Geoff 'Coxy' Cox on Drums,2024-11-01,0:00,arcobar heatherton,"8 Arco Ln, Heatherton VIC 3202, Australia",https://www.facebook.com/events/1986174348562490/,-37.94673685,145.07837928457485
Mailey Mayhem with Left At The Avenue and A Stationary Frame ,2024-11-01,15:00,The Last Chance,"238 Victoria St, Melbourne VIC 3000, Australia",https://www.facebook.com/events/1276625326842437/,-37.8059962,144.9585654
Douglas McDowell @ BAR OUSSOU!,2024-11-01,16:00,Bar Oussou,"653 Sydney Rd, Brunswick VIC 3056, Australia",https://www.facebook.com/events/866828465622916/,-37.7618155,144.9628753
Legends of Sunbury - 50th Anniversary Tour '74 to '24 // Kindred Bandroom,2024-11-01,13:30,Kindred Bandroom,"3 Harris St, Footscray VIC 3011, Australia",https://www.facebook.com/events/1175465936892121/,-37.8119001,144.9008247
Afro Moses: Spirit of Nelson Mandela @ BAR OUSSOU!,2024-11-01,20:00,Bar Oussou,"653 Sydney Rd, Brunswick VIC 3056, Australia",https://www.facebook.com/events/1307729773579590/,-37.7618155,144.9628753
Kaiit | The Toff,2024-11-01,14:00,The Toff,"2f/252 Swanston St, Melbourne VIC 3000, Australia",https://www.facebook.com/events/1551662998824848/,-37.80660325,144.9628141258931
A Symphony - A Grand Overture of Movement and Music,2024-11-01,19:30,Palais Theatre,"Lower Esplanade, St Kilda VIC 3182, Australia",https://www.facebook.com/events/2535863439939336/,-37.86708671,144.97599656199426
Domingo Latino - La 45,2024-11-01,18:45,The Night Cat,"137-141 Johnston St, Fitzroy VIC 3065, Australia",https://www.facebook.com/events/446910421374355/,-37.7982971,144.978128
Peter Vadiveloo at the Thornbury Local,2024-11-01,0:00,The Thornbury Local,"635 High St, Thornbury VIC 3071, Australia",https://www.facebook.com/events/727069972929444/,-37.76165125,144.99987967655426
"(Sun, Dec 1) THIS IS JONI - THE MUSIC OF JONI MITCHELL",2024-11-01,0:00,George Lane St Kilda,"1 George Ln, St Kilda VIC 3182, Australia",https://www.facebook.com/events/1238225203958014/,-37.85997305,144.9780306
MOTEL by Tim Ross & Kit Warhurst | Brunswick Ballroom,2024-11-01,18:30,Brunswick Ballroom,"314 Sydney Rd, Brunswick VIC 3056, Australia",https://www.facebook.com/events/1559389414934099/,-37.7704205,144.9617083
Mick Pealing & Nick Charles @ Oakleigh Carnegie RSL - Carnegie Room,2024-11-01,14:30,Oakleigh Carnegie RSL,"95/97 Drummond St, Oakleigh VIC 3166, Australia",https://www.facebook.com/events/544003634753497/,-37.8968576,145.08963741959553
PLAYAZ CLUB: LANEWAY HOOP SHOOTOUT,2024-11-02,0:00,Section 8,"27-29 Tattersalls Ln, Melbourne VIC 3000, Australia",https://www.facebook.com/events/1804239166982408/?event_time_id=1804239200315738,-37.8117457,144.965405
Funny Near The Brunny! - Free Live Comedy Every Monday,2024-11-02,0:00,Bergy Bandroom,"64 Sydney Rd, Brunswick VIC 3056, Australia",https://www.facebook.com/events/1068456871671985/?event_time_id=1068457781671894,-37.776327,144.9607158
Rowena Wise - Mondays in December at the Merri Creek Tavern,2024-11-02,20:00,The Merri Creek Tavern,"111 High St, Northcote VIC 3070, Australia",https://www.facebook.com/events/513737978354432/,-37.7794356,144.996838
MORBID MONDAYS AT OLD BAR - DECEMBER 2ND - USER & calyx - FREE ENTRY,2024-11-02,20:00,The Old Bar,"74-76 Johnston St, Fitzroy VIC 3065, Australia",https://www.facebook.com/events/1102936667886372/,-37.79833,144.97711
 ﻿Zorzál Tango at open Studio ,2024-11-02,0:00,Open Studio,"204 High St, Northcote VIC 3070, Australia",https://www.facebook.com/events/478767035168808/,-37.7742382,144.9981587
Seasons Greetings - Gingerbread House Decorating Classes,2024-11-16,11:00,Como House and Garden,"Cnr Wiliams Road and Lechlade Ave South Yarra, VIC",https://www.eventbrite.com.au/e/seasons-greetings-gingerbread-house-decorating-classes-tickets-1020343694457?aff=ebdssbdestsearch,-37.8385449,145.0050826
ELITE TALKS 2024,2024-11-28,16:30,Kathleen Fitzpatrick Theatre,"The University of Melbounre Parkville, VIC 3052",https://www.eventbrite.com.au/e/elite-talks-2024-registration-1040283254217?aff=ebdssbdestsearch,,
Fotis Vergopoulos | Brunswick Ballroom,2024-11-29,18:30,Brunswick Ballroom,"314 Sydney Rd, Brunswick VIC 3056, Australia",https://www.facebook.com/events/964204142414565/,-37.7704205,144.9617083
"RADIUM DOLLS | MAN SCOUT SINGLE TOUR, The Curtin, Melbourne",2024-11-29,21:00,THE CURTIN (John Curtin hotel),"29 Lygon St, Carlton VIC 3053, Australia",https://www.facebook.com/events/1580879152527241/,-37.8061581,144.9657057
"(Fri, Nov 29) BLACKBIRDS F.C. (Single Launch) + MEGAN MAIKE",2024-11-29,15:32,George Lane St Kilda,"1 George Ln, St Kilda VIC 3182, Australia",https://www.facebook.com/events/2888956524605191/,-37.85997305,144.9780306
Rock The Boat With MenXclusive - Masquerade,2024-11-29,19:30,131 Harbour Esplanade,"131 Harbour Esplanade Docklands, VIC 3008",https://www.eventbrite.com.au/e/rock-the-boat-with-menxclusive-masquerade-tickets-921273853897?aff=ebdssbdestsearch,-37.8170713,144.9453813
SOS X FITSTOP FRIDAYS,2024-11-29,18:30,Fitstop South Yarra,"36 Garden Street South Yarra, VIC 3141",https://www.eventbrite.co.uk/e/sos-x-fitstop-fridays-tickets-1093910137669?aff=ebdssbdestsearch,-37.8434804,144.9970069
DSM Christmas Market,2024-11-29,17:00,Deutsche Schule Melbourne,"96 Barkly Street Fitzroy North, VIC 3068",https://www.eventbrite.com.au/e/dsm-christmas-market-tickets-1023140399477?aff=ebdssbdestsearch,-37.77889265,144.9829291370925
Euphoria Ecstatic Experience,2024-11-29,7:30,Studio Take Care,"1 Pitt Street Brunswick, VIC 3056",https://www.eventbrite.com.au/e/euphoria-ecstatic-experience-tickets-1037527100487?aff=ebdssbdestsearch,-37.7711984,144.9711714
"Ablaze 'It's A Most Wonderful Time For A Beer', Cherry Bar FRI NOV 29",2024-11-29,20:00,"Cherry Bar, Little Collins Street, Melbourne VIC, Australia","68 Little Collins Street Melbourne, VIC 3000",https://www.eventbrite.com.au/e/ablaze-its-a-most-wonderful-time-for-a-beer-cherry-bar-fri-nov-29-tickets-1066272392429?aff=ebdssbdestsearch,-37.8129293,144.9714986
Hudson Macushla 'Tried' single launch with Abby Sunborn at Merri Creek Tavern ,2024-11-29,19:30,The Merri Creek Tavern,"111 High St, Northcote VIC 3070, Australia",https://www.facebook.com/events/483483040677607/,-37.7794356,144.996838
"AMPHI & Friends // with Interimm (Live), Bex and Mo",2024-11-29,15:29,Wax Music Lounge,"250 Flinders St, Melbourne VIC 3000, Australia",https://www.facebook.com/events/519102081100164/,-37.8176298,144.9661635
An Evening with Andrew De Silva,2024-11-29,18:00,Bird's Basement,"11 Singers Ln, Melbourne VIC 3000, Australia",https://www.facebook.com/events/1020671796414112/,-37.81114416,144.95680390283175
Mentor Walks Melbourne: Get guidance and grow your network,2024-11-29,7:10,"Under King Edward VII Monument (behind the floral clock), Queen Victoria Gardens","Saint Kilda Road Melbourne, VIC 3004",https://www.eventbrite.com.au/e/mentor-walks-melbourne-get-guidance-and-grow-your-network-tickets-856746430637?aff=ebdssbdestsearch,,
ANALOGUE DATING: Speed Dating at EL CAMINO (25 to 35),2024-11-29,19:00,El Camino Cantina Fitzroy,"222 Brunswick Street Fitzroy, VIC 3065",https://www.eventbrite.com.au/e/analogue-dating-speed-dating-at-el-camino-25-to-35-tickets-1063875473179?aff=ebdssbdestsearch,-37.8009273,144.9782313
Linguas Awards and Honors Night,2024-11-29,18:30,Diesel Bar & Eatery,"202 Little Lonsdale Street Melbourne, VIC 3000",https://www.eventbrite.com.au/e/linguas-awards-and-honors-night-tickets-1077792017939?aff=ebdssbdestsearch,-37.8107335,144.9634703
GYPSY!  The Australian Fleetwood Mac Tribute Show,2024-11-29,18:30,Olympic Hotel,"31 Albert Street Preston, VIC 3072",https://www.eventbrite.com.au/e/gypsy-the-australian-fleetwood-mac-tribute-show-tickets-1023087731947?aff=ebdssbdestsearch,-37.74658925,145.0214950221884
TAMASHA presents Ruffest DJ Moh x DJ Kym Nickdee  Melbourne Takeover,2024-11-29,22:00,REVEL NIGHTCLUB MELBOURNE,"52 Albert Road South Melbourne, VIC 3205",https://www.eventbrite.com.au/e/tamasha-presents-ruffest-dj-moh-x-dj-kym-nickdee-melbourne-takeover-tickets-1070511431509?aff=ebdssbdestsearch,-37.8341181,144.97095
Michael Meeking band last gig of the year,2024-11-29,15:27,The Thornbury Local,"635 High St, Thornbury VIC 3071, Australia",https://www.facebook.com/events/577925138057632/,-37.76165125,144.99987967655426
FEVERDREAMS  with Psychic Social Club + FJ & the Switch,2024-11-29,19:30,280 Sydney Rd,"280 Sydney Road Brunswick, VIC 3056",https://www.eventbrite.com.au/e/feverdreams-with-psychic-social-club-fj-the-switch-tickets-1059262495639?aff=ebdssbdestsearch,-37.7711488,144.9616353
FightFit Challenge 28,2024-11-29,18:00,Melbourne Pavillion,"135-157 Racecourse Road Kensington, VIC 3031",https://www.eventbrite.com.au/e/fightfit-challenge-28-tickets-1038705444947?aff=ebdssbdestsearch,-37.7890068,144.936461
Beaufort Beats x Revolver Fridays,2024-11-29,15:23,Revolver Upstairs,"Level 2/229 Chapel St, Prahran VIC 3181, Australia",https://www.facebook.com/events/1663607770865411/,-37.8505902,144.9933469
Cherry x Addictions (Double Headliner),2024-11-29,19:30,Howler,"7-11 Dawson St, Brunswick VIC 3056, Australia",https://www.facebook.com/events/563744352679178/,-37.7720304,144.9596527
END OF EXAMS PARTY,2024-11-29,22:00,Key Club,"117 Lonsdale Street #Level 2 Melbourne, VIC 3000",https://www.eventbrite.com.au/e/end-of-exams-party-tickets-1072017716849?aff=ebdssbdestsearch,-37.8105172,144.9688196
Friends On Purpose: Friend Happy Hour,2024-11-29,19:00,Champagne Problems,"238 Little Collins Street Melbourne, VIC 3000",https://www.eventbrite.com.au/e/friends-on-purpose-friend-happy-hour-tickets-1050213074577?aff=ebdssbdestsearch,-37.8142781,144.9666247
3:30 Pick Up and Yard Duty at Lucky 13,2024-11-29,20:00,Lucky 13 Garage,"8 Cochranes Rd, Moorabbin VIC 3189, Australia",https://www.facebook.com/events/1575805869716619/,-37.94349189,145.07036236060654
Chapel Boxing Fight Night,2024-11-29,18:00,"Chapel Boxing and Fitness, Chapel Street, St Kilda VIC, Australia","2 Chapel Street St Kilda, VIC 3182",https://www.eventbrite.com/e/chapel-boxing-fight-night-tickets-1047744300407?aff=ebdssbdestsearch,-37.8588974,144.9927354
ASCENSION EVENTS pres. INDUSTRIA V2,2024-11-29,23:00,Bourke Street Courtyard,"629 Bourke Street Melbourne, VIC 3004",https://www.eventbrite.com/e/ascension-events-pres-industria-v2-tickets-1061327231319?aff=ebdssbdestsearch,-37.8168528,144.9552468
(SOLD OUT) The LINDA RONSTADT Show | Featuring Lisa Mio & The Wild Dreamers,2024-11-29,15:21,arcobar heatherton,"8 Arco Ln, Heatherton VIC 3202, Australia",https://www.facebook.com/events/1868337756994118/,-37.94673685,145.07837928457485
Twisted XL feat. S.P.Y | Alcemist | Formula | Burt Cope,2024-11-29,21:00,The Third Day,"290 Macaulay Road North Melbourne, VIC 3051",https://www.eventbrite.com.au/e/twisted-xl-feat-spy-alcemist-formula-burt-cope-tickets-1054466380329?aff=ebdssbdestsearch,-37.7946786,144.9367079
SHOOTERS SHOOT: NEVER COUNT US OUT,2024-11-29,18:00,3 Street Basketball,"61 Dohertys Road Altona North, VIC 3025",https://www.eventbrite.com/e/shooters-shoot-never-count-us-out-tickets-1085800621889?aff=ebdssbdestsearch,-37.831741,144.825357
POPPERS nothing but pop bangers! FRI NOV 29,2024-11-29,21:00,Yah Yahs,"99 Smith Street Fitzroy, VIC 3065",https://www.eventbrite.com.au/e/poppers-nothing-but-pop-bangers-fri-nov-29-tickets-1095724995959?aff=ebdssbdestsearch,-37.8058545,144.982966
FAT’AZZ LIVE AT ONE2THREE BAR,2024-11-29,19:30,One2three Bar,"123 Queens Parade, Clifton Hill VIC 3068, Australia",https://www.facebook.com/events/878568654378283/,-37.7892833,144.9901391
Tora Live in Melbourne @ 170 Russell,2024-11-29,19:00,170 Russell,"170 Russell St, Melbourne VIC 3000, Australia",https://www.facebook.com/events/549701127413257/,-37.8120109,144.9679369
Lottie Davitt with the Ibis Island band.,2024-11-29,15:04,Open Studio,"204 High St, Northcote VIC 3070, Australia",https://www.facebook.com/events/580292704323252/,-37.7742382,144.9981587
G TANO - FAREWELL OPEN STUDIO !,2024-11-29,15:04,Open Studio,"204 High St, Northcote VIC 3070, Australia",https://www.facebook.com/events/528218920102132/,-37.7742382,144.9981587
"Bollywood Club - BOLLYWOOD RAVE at Crown, Melbourne",2024-11-29,21:30,Crown Melbourne,"8 Whiteman Street Southbank, VIC 3006",https://www.eventbrite.com.au/e/bollywood-club-bollywood-rave-at-crown-melbourne-tickets-1048636609327?aff=ebdssbdestsearch,-37.8234367,144.9580861
Jazz and Grooves at Ragtime ,2024-11-29,20:00,Ragtime Tavern,"206 Tyler St, Preston VIC 3072, Australia",https://www.facebook.com/events/906656974302400/,-37.7310367,145.0142411
Max König @ BAR OUSSOU! ,2024-11-29,22:00,Bar Oussou,"653 Sydney Rd, Brunswick VIC 3056, Australia",https://www.facebook.com/events/1080658566695749/,-37.7618155,144.9628753
"NEVER MIND THE BUZZERS, HERE'S RocKwiz Live!",2024-11-29,19:30,Palais Theatre,"Lower Esplanade, St Kilda VIC 3182, Australia",https://www.facebook.com/events/964344361619456/,-37.86708671,144.97599656199426
Suck My Kiss - The Aus Red Hot Chili Peppers Tribute - with Killing in the Dame ,2024-11-29,15:07,Musicland Melbourne,"1359 Sydney Rd, Fawkner VIC 3060, Australia",https://www.facebook.com/events/984429260101844/,-37.6916774,144.9585701581541
Katchafire - Melbourne *SOLD OUT*,2024-11-29,20:00,The Night Cat,"137-141 Johnston St, Fitzroy VIC 3065, Australia",https://www.facebook.com/events/387135807768962/,-37.7982971,144.978128
THE PENNY BLACK PRESENTS...A CHRISTMAS MASH UP,2024-11-29,19:00,The Penny Black,"420 Sydney Rd, Brunswick VIC 3056, Australia",https://www.facebook.com/events/890233243059084/,-37.7679775,144.9621651
Cloning | Melbourne | Australian Tour 2024 | The Workers Club,2024-11-29,20:00,The Workers Club,"51 Brunswick St, Fitzroy VIC 3065, Australia",https://www.facebook.com/events/1569289953942033/,-37.8055776,144.9769450659087
Hopeless Records 30th Birthday Bash!,2024-11-29,16:36,EMO NEVER SLEEPS,"629 Bourke St, Melbourne VIC 3004, Australia",https://www.facebook.com/events/8620341981386605/,-37.8167994,144.9552063
Sniffer Dog / Eagle vs Drone joint Album Launch,2024-11-29,15:43,Bar 303,"303 High St, Northcote VIC 3070, Australia",https://www.facebook.com/events/408121785680711/,-37.7713296,144.99828116650363
A3 Festival 2024,2024-11-29,12:00,Lardner Park,"155 Burnt Store Road Lardner, VIC 3820",https://www.eventbrite.com.au/e/a3-festival-2024-tickets-885407927947?aff=ebdssbdestsearch,-38.2015604,145.8655826
THE REGROWTH TOUR - NAARM,2024-11-29,20:00,Laundry Bar,"50 Johnston St, Fitzroy VIC 3065, Australia",https://www.facebook.com/events/1559493408003884/,-37.7983139,144.9764962
"The Idea of North: Live, actually | Melbourne",2024-11-29,19:30,The Thornbury Theatre,"859 High St, Thornbury VIC 3071, Australia",https://www.facebook.com/events/997685448516863/,-37.754662,145.0011167
Cruel Britannia: After Frankenstein,2024-11-29,16:21,Arts Centre Melbourne,"100 St Kilda Rd, Southbank VIC 3004, Australia",https://www.facebook.com/events/7899113556871811/,-37.8216405,144.9683143
Buena Vista Social Club | MEMO Music Hall,2024-11-29,19:00,MEMO Music Hall,"88 Acland St, St Kilda VIC 3182, Australia",https://www.facebook.com/events/1035953444748142/,-37.8671902,144.9786817
Milo Eastwood with Mothafunk at Kindred Bandroom,2024-11-29,20:00,Kindred Bandroom,"3 Harris St, Footscray VIC 3011, Australia",https://www.facebook.com/events/1934297767074884/,-37.8119001,144.9008247
THE RIONS - MELBOURNE - NORTHCOTE THEATRE - HAPPINESS IN PLACES TOUR [LIC/AA],2024-11-29,19:00,Northcote Theatre,"216 High St, Northcote VIC 3070, Australia",https://www.facebook.com/events/461985866827664/,-37.7737068,144.9982706
ALWAYS LIVE and Arts Access Victoria Presents: WESTSIDE SNUG ROCK,2024-11-29,15:40,Mamma Chen's,"42A Albert St, Footscray VIC 3011, Australia",https://www.facebook.com/events/566229132473425/,-37.8047552,144.89727240000002
ADHESION - 'UNLEADED' ALBUM LAUNCH,2024-11-29,16:41,Bad Decisions Bar,"46 Johnston St, Fitzroy VIC 3065, Australia",https://www.facebook.com/events/573894678367621/,-37.798246,144.9762881
BEEFCAKE  This Friday,2024-11-29,21:00,New Guernica,"64 Smith St, Collingwood VIC 3066, Australia",https://www.facebook.com/events/1062987032227999/,-37.80624775,144.98331211946754
Vaudeville Smash | Christmas Spectacular | Brunswick Ballroom | with Zevon Lee,2024-11-30,19:00,Brunswick Ballroom,"314 Sydney Rd, Brunswick VIC 3056, Australia",https://www.facebook.com/events/451153044154591/,-37.7704205,144.9617083
"La Descarga Album Launch ""Fiesta de Corazon"" w/ Agobloco and DJ Paprika",2024-11-30,13:00,Brunswick Ballroom,"314 Sydney Rd, Brunswick VIC 3056, Australia",https://www.facebook.com/events/1352705972104342/,-37.7704205,144.9617083
"Urban Cocktail Trail // Collingwood (Melbourne, VIC)",2024-11-30,13:00,Collingwood,"Collingwood Collingwood, VIC 3066",https://www.eventbrite.com/e/urban-cocktail-trail-collingwood-melbourne-vic-tickets-979058760107?aff=ebdssbdestsearch,-37.8071124,144.9896458
artspace exhibition 2024,2024-11-30,10:30,Glenroy Community Hub,"50 Wheatsheaf Road Glenroy, VIC 3046",https://www.eventbrite.com.au/e/artspace-exhibition-2024-tickets-995823122767?aff=ebdssbdestsearch,-37.7079717,144.9231182
Sitar Recital by Shri Susanta Chowdhury,2024-11-30,7:30,Armagh Mansion,"226 Kooyong Road Toorak, VIC 3142",https://www.eventbrite.com.au/e/sitar-recital-by-shri-susanta-chowdhury-tickets-942364877717?aff=ebdssbdestsearch,-37.8405019,145.0238136
"The Offtopics Album Launch ""Tomorrow Is A Month Away""",2024-11-30,19:00,280 Sydney Rd,"280 Sydney Road Brunswick, VIC 3056",https://www.eventbrite.com.au/e/the-offtopics-album-launch-tomorrow-is-a-month-away-tickets-1023142686317?aff=ebdssbdestsearch,-37.7711488,144.9616353
1D - Up All Night Anniversary,2024-11-30,23:00,Stay Gold,"133 Sydney Rd Brunswick Melbourne, VIC 3056",https://www.eventbrite.com.au/e/1d-up-all-night-anniversary-tickets-1081290662479?aff=ebdssbdestsearch,-37.7743822,144.9606172
CLIQUED x FOZZA PRESENTS: BITTER CREATURES,2024-11-30,20:00,Wolfhound Function and Event Space,"386-388 Brunswick Street Fitzroy, VIC 3065",https://www.eventbrite.com/e/cliqued-x-fozza-presents-bitter-creatures-tickets-1078505150939?aff=ebdssbdestsearch,-37.7956217,144.9791363
Yasss Queens Park 2024,2024-11-30,14:00,Queens Park,"Kellaway Avenue Moonee Ponds, VIC 3039",https://www.eventbrite.com.au/e/yasss-queens-park-2024-tickets-1021436974487?aff=ebdssbdestsearch,-37.7640651,144.9246036
turbo422 > 30.11,2024-11-30,22:00,turbo422,"422 Little Collins Street Melbourne, VIC 3000",https://www.eventbrite.com.au/e/turbo422-3011-tickets-1094926126519?aff=ebdssbdestsearch,-37.8160523,144.9603782
VizConf 2024,2024-11-30,9:00,Kensington Town Hall,"30-34 Bellair Street Kensington, VIC 3031",https://www.eventbrite.com/e/vizconf-2024-tickets-987240682457?aff=ebdssbdestsearch,-37.7894484,144.9286227
Techno vs Psytrance November Edition (Masquerade),2024-11-30,21:00,my aeon,"791 Sydney Road Brunswick, VIC 3056",https://www.eventbrite.com.au/e/techno-vs-psytrance-november-edition-masquerade-tickets-1078930021739?aff=ebdssbdestsearch,-37.7581868,144.9633301
Grand WaZoo,2024-11-30,18:00,Bird's Basement,"11 Singers Ln, Melbourne VIC 3000, Australia",https://www.facebook.com/events/857820862910756/,-37.81114416,144.95680390283175
MELBOURNE SINGLES NIGHT -Summer Edition! Deluxe Singles Party,2024-11-30,20:00,595 Mt Alexander Rd,"595 Mount Alexander Road Moonee Ponds, VIC 3039",https://www.eventbrite.com.au/e/melbourne-singles-night-summer-edition-deluxe-singles-party-tickets-1075818485049?aff=ebdssbdestsearch,-37.768313,144.925046
AFRO MOSES - The Spirit of Bob Marley/ Lucky Dube @ BAR OUSSOU!,2024-11-30,18:00,Bar Oussou,"653 Sydney Rd, Brunswick VIC 3056, Australia",https://www.facebook.com/events/544873758255336/,-37.7618155,144.9628753
Beat Science @ BAR OUSSOU!,2024-11-30,22:00,Bar Oussou,"653 Sydney Rd, Brunswick VIC 3056, Australia",https://www.facebook.com/events/943993847787122/,-37.7618155,144.9628753
CARABINERS / Fundraiser for Stell's Gender Affirmation,2024-11-30,15:40,Mamma Chen's,"42A Albert St, Footscray VIC 3011, Australia",https://www.facebook.com/events/1591460438244444/,-37.8047552,144.89727240000002
 INXSIVE live at LUCKY 13 GARAGE,2024-11-30,20:00,Lucky 13 Garage,"8 Cochranes Rd, Moorabbin VIC 3189, Australia",https://www.facebook.com/events/3469856299985636/,-37.94349189,145.07036236060654
Daisypicker @ Mamma Chen’s with April May & Lucy Harrington,2024-11-30,15:40,Mamma Chen's,"42A Albert St, Footscray VIC 3011, Australia",https://www.facebook.com/events/1194216934967309/,-37.8047552,144.89727240000002
HAMISH ANDERSON -  ELECTRIC ALBUM LAUNCH ,2024-11-30,19:30,The Toff,"2f/252 Swanston St, Melbourne VIC 3000, Australia",https://www.facebook.com/events/1263990794639927/,-37.80660325,144.9628141258931
Rainbow Beach Tennis Pride Day,2024-11-30,9:30,"St Kilda West Beach, Saint Kilda West VIC, Australia","St Kilda West Beach, Saint Kilda West VIC, Australia Saint Kilda West, VIC 3182",https://www.eventbrite.com.au/e/rainbow-beach-tennis-pride-day-tickets-1070359818029?aff=ebdssbdestsearch,-37.858282,144.9670149
Yarra Valley Wine Tasting Tour | Melbourne Working Holiday Girls,2024-11-30,9:30,74 Spring St,"74 Spring Street East Melbourne, VIC 3002",https://www.eventbrite.com.au/e/yarra-valley-wine-tasting-tour-melbourne-working-holiday-girls-tickets-1061855962769?aff=ebdssbdestsearch,-37.8121744,144.9737322
Darebin Summer 2024 Chess Tournament,2024-11-30,13:00,Shire Hall Preston,"286 Gower Street Preston, VIC 3072",https://www.eventbrite.com.au/e/darebin-summer-2024-chess-tournament-registration-1052298652597?aff=ebdssbdestsearch,-37.7400654,145.0040959
"Mousik-ί Festival 2024- Featuring Anatreptix, Cats & the Canary, Delyrium and H Division ",2024-11-30,19:30,Northcote Social Club,"301 High St, Northcote VIC 3070, Australia",https://www.facebook.com/events/977051831099353/,-37.771471,144.998414
"BLOODLUST [NL] | Presented by Debaser, Pharmacy & XERA",2024-11-30,22:00,Platform One,"375 Flinders Street Melbourne, VIC 3000",https://www.eventbrite.com/e/bloodlust-nl-presented-by-debaser-pharmacy-xera-tickets-1052291089977?aff=ebdssbdestsearch,-37.8191789,144.9621961
The Gadflys | MEMO Music Hall,2024-11-30,19:00,MEMO Music Hall,"88 Acland St, St Kilda VIC 3182, Australia",https://www.facebook.com/events/986751182953996/,-37.8671902,144.9786817
"TGDE & UO present ""The UNDROVTH Showcase""",2024-11-30,16:05,Kindred Bandroom,"3 Harris St, Footscray VIC 3011, Australia",https://www.facebook.com/events/584646327236308/,-37.8119001,144.9008247
Dub Divination Sound System Presents... Bergy Session,2024-11-30,16:08,Bergy Bandroom,"64 Sydney Rd, Brunswick VIC 3056, Australia",https://www.facebook.com/events/1236709104203511/,-37.776327,144.9607158
DARTZ (NZ) live at Last Chance with ROMCOM & Hail Mary Jane,2024-11-30,19:00,The Last Chance,"238 Victoria St, Melbourne VIC 3000, Australia",https://www.facebook.com/events/2277593902595044/,-37.8059962,144.9585654
FULLY AMTD 2024,2024-11-30,17:00,Stay Gold,"133 Sydney Rd, Brunswick VIC 3056, Australia",https://www.facebook.com/events/2021353361659738/,-37.7743469,144.9607404
"Little Quirks - The Workers Club, FITZROY, VIC",2024-11-30,19:00,The Workers Club,"51 Brunswick St, Fitzroy VIC 3065, Australia",https://www.facebook.com/events/340764539005256/,-37.8055776,144.9769450659087
Always Live presents Dug By Us live podcast show,2024-11-30,13:00,The Workers Club,"51 Brunswick St, Fitzroy VIC 3065, Australia",https://www.facebook.com/events/2262996257393322/,-37.8055776,144.9769450659087
"Gallery Recs - Glaze ft. Amaliah (UK), Human Movement, Stev Zar & Ruby May Moon",2024-11-30,15:19,Howler,"7-11 Dawson St, Brunswick VIC 3056, Australia",https://www.facebook.com/events/8705244386185188/,-37.7720304,144.9596527
Up All Night Anniversary Party,2024-11-30,11:00,Stay Gold,"133 Sydney Rd, Brunswick VIC 3056, Australia",https://www.facebook.com/events/1201626830924024/,-37.7743469,144.9607404
GN'R - Guns & Roses | The Aus Motley Crue Show | RIOT ACT - Skid Row,2024-11-30,15:07,Musicland Melbourne,"1359 Sydney Rd, Fawkner VIC 3060, Australia",https://www.facebook.com/events/855251476329965/,-37.6916774,144.9585701581541
John Williamson 'In Concert',2024-11-30,20:00,Palais Theatre,"Lower Esplanade, St Kilda VIC 3182, Australia",https://www.facebook.com/events/875899220610697/,-37.86708671,144.97599656199426
FREE ENTRY  CONTE MILANO - Cocktails and Grooves! ,2024-11-30,21:00,Open Studio,"204 High St, Northcote VIC 3070, Australia",https://www.facebook.com/events/567092599098608/,-37.7742382,144.9981587
Ella Fence & Danii: Indie Pop meets RnB - at Open Studio,2024-11-30,15:04,Open Studio,"204 High St, Northcote VIC 3070, Australia",https://www.facebook.com/events/979600963925160/,-37.7742382,144.9981587
The Elvis Big Band - Christmas Spectacular!  Northcote Theatre Nov 30th,2024-11-30,19:00,Northcote Theatre,"216 High St, Northcote VIC 3070, Australia",https://www.facebook.com/events/866374311797614/,-37.7737068,144.9982706
Soul Chisel @ Oakleigh Music Hall,2024-11-30,20:30,Oakleigh Carnegie RSL,"95/97 Drummond St, Oakleigh VIC 3166, Australia",https://www.facebook.com/events/3513486142296206/,-37.8968576,145.08963741959553
"CHI WOW WAH CITY - Melbourne - Viken Arman (FR), Uone, Amaru Tribe-Live + ",2024-11-30,16:18,The Night Cat,"137-141 Johnston St, Fitzroy VIC 3065, Australia",https://www.facebook.com/events/491857240259009/,-37.7982971,144.978128
Bebe's Bar - Beyond Vegas - ALBUM LAUNCH,2024-11-30,15:07,Musicland Melbourne,"1359 Sydney Rd, Fawkner VIC 3060, Australia",https://www.facebook.com/events/868742255350339/,-37.6916774,144.9585701581541
"RVRB presents .VRIL live (Delsin, Dystopian, Giegling - DE)",2024-11-30,18:00,Howler,"7-11 Dawson St, Brunswick VIC 3056, Australia",https://www.facebook.com/events/924051169585668/,-37.7720304,144.9596527
(Last Tickets!) ELVIS by Anthony Petrucci | Christmas Special Dinner & Show,2024-11-30,15:21,arcobar heatherton,"8 Arco Ln, Heatherton VIC 3202, Australia",https://www.facebook.com/events/1957077524754581/,-37.94673685,145.07837928457485
"HOMEBASS feat. EPUTTY, BOYDEX & LENG LEWN",2024-11-30,15:43,Bar 303,"303 High St, Northcote VIC 3070, Australia",https://www.facebook.com/events/566445886073913/,-37.7713296,144.99828116650363
"Ronnie Simmons & The Redback Spiders live at Cherry Bar, Saturday Nov 30th",2024-11-30,20:30,"Cherry Bar, Little Collins Street, Melbourne VIC, Australia","68 Little Collins Street Melbourne, VIC 3000",https://www.eventbrite.com.au/e/ronnie-simmons-the-redback-spiders-live-at-cherry-bar-saturday-nov-30th-tickets-1022182775197?aff=ebdssbdestsearch,-37.8129293,144.9714986
Book Signing & Private Q & A  - Melbourne,2024-11-30,13:00,Darussalam Melbourne,"397 Sydney Road Coburg, VIC 3058",https://www.eventbrite.com.au/e/book-signing-private-q-a-melbourne-tickets-1071517801589?aff=ebdssbdestsearch,-37.7441958,144.9657113
"(Sat, Nov 30) PEPPERCREEK REVIVAL (George Lane Matinee Sessions)",2024-11-30,15:32,George Lane St Kilda,"1 George Ln, St Kilda VIC 3182, Australia",https://www.facebook.com/events/517026814446745/,-37.85997305,144.9780306
Williamstown Beer and Cider Festival 2024,2024-11-30,12:00,Seaworks Maritime Precinct,"82 Nelson Place Williamstown, VIC 3016",https://www.eventbrite.com.au/e/williamstown-beer-and-cider-festival-2024-tickets-954442331707?aff=ebdssbdestsearch,-37.8634293,144.9069007
ARTHOUSE SELECTIVE presents PRESSED,2024-11-30,12:00,Monphell House,"7-9 Brunswick Road Brunswick East, VIC 3057",https://www.eventbrite.com.au/e/arthouse-selective-presents-pressed-tickets-1075310796539?aff=ebdssbdestsearch,-37.778799,144.9772746
SATURDAY NIGHT PARTY AT YAH'S (till 5AM),2024-11-30,21:00,Yah Yahs,"99 Smith Street Fitzroy, VIC 3065",https://www.eventbrite.com.au/e/saturday-night-party-at-yahs-till-5am-tickets-1094850279659?aff=ebdssbdestsearch,-37.8058545,144.982966
Rebellion Muaythai 32: 63.50Kg Eliminator // Roots 27: Ring the Alarm,2024-11-30,16:00,Melbourne Pavilion,"135-157 Racecourse Road Kensington, VIC 3031",https://www.eventbrite.com/e/rebellion-muaythai-32-6350kg-eliminator-roots-27-ring-the-alarm-tickets-1066632870629?aff=ebdssbdestsearch,-37.7889557,144.9363556
"SLOW GRIND FEVER #107 (*9pm, *CASH ONLY*)",2024-11-30,15:30,Bar Open,"317 Brunswick St, Fitzroy VIC 3065, Australia",https://www.facebook.com/events/1117439066603008/,-37.79773,144.978425
Alchemy | The Journey | Trance Classics feat Binary Finary,2024-11-30,20:00,24 Moons,"2 Arhurton Road Northcote, VIC 3070",https://www.eventbrite.com.au/e/alchemy-the-journey-trance-classics-feat-binary-finary-tickets-1037328576697?aff=ebdssbdestsearch,,
"EAT THE BEAT FESTIVAL ft. CARL COX, CHRIS LIEBING, LILLY PALMER, MHA IRI",2024-11-30,15:00,PICA (Port Melbourne Industrial Centre for the Arts),"1 Thackray Road Port Melbourne, VIC 3207",https://www.eventbrite.com.au/e/eat-the-beat-festival-ft-carl-cox-chris-liebing-lilly-palmer-mha-iri-tickets-904718947727?aff=ebdssbdestsearch,-37.8284751,144.9254729
The Cake,2024-11-30,18:00,The Coopers Inn,"282 Exhibition Street Melbourne, VIC 3000",https://www.eventbrite.com.au/e/the-cake-tickets-1052321771747?aff=ebdssbdestsearch,-37.809136,144.9695482
Friends On Purpose: Picnic Mixer,2024-11-30,11:00,Treasury Gardens,"2-18 Spring Street East Melbourne, VIC 3002",https://www.eventbrite.com.au/e/friends-on-purpose-picnic-mixer-tickets-1049320976287?aff=ebdssbdestsearch,-37.8151334,144.9760012
Fleetwood Max | Live @ Pockets Tullamarine,2024-11-30,20:00,Pockets Tullamarine,"217 Mickleham Road #11 Tullamarine, VIC 3049",https://www.eventbrite.com.au/e/fleetwood-max-live-pockets-tullamarine-tickets-928920916467?aff=ebdssbdestsearch,-37.6854021,144.8807298
Disco X (Sat 2:30pm),2024-11-30,14:30,Transit Dance (Brunswick),"64 Dawson Street Brunswick, VIC 3056",https://www.eventbrite.com.au/e/disco-x-sat-230pm-tickets-1045281494087?aff=ebdssbdestsearch,-37.7701752,144.9559255
Blue Windows - Full Band - at The Thornbury Local,2024-11-30,15:27,The Thornbury Local,"635 High St, Thornbury VIC 3071, Australia",https://www.facebook.com/events/911754993922907/,-37.76165125,144.99987967655426
Casaloca Latin Night at The George on Collins,2024-11-30,22:00,The George on Collins,"162-168 Collins Street Melbourne, VIC 3000",https://www.eventbrite.com.au/e/casaloca-latin-night-at-the-george-on-collins-tickets-1086543182909?aff=ebdssbdestsearch,-37.8148781,144.9680956
The Journey | Alchemy Trance Classics feat. Binary Finary (2 Hour Classics Set),2024-11-30,16:00,24 Moons,"2 Arthurton Rd, Northcote VIC 3070, Australia",https://www.facebook.com/events/1202441690991267/,-37.7691418,144.9982614
"An Afternoon With Swim State, Violet & No Turns",2024-11-30,14:00,280 Sydney Rd,"280 Sydney Road Brunswick, VIC 3056",https://www.eventbrite.com.au/e/an-afternoon-with-swim-state-violet-no-turns-tickets-1047677009137?aff=ebdssbdestsearch,-37.7711488,144.9616353
FULLY AMTD,2024-11-30,17:30,Stay Gold,"133 Sydney Rd Brunswick Melbourne, VIC 3056",https://www.eventbrite.com.au/e/fully-amtd-tickets-1082785603889?aff=ebdssbdestsearch,-37.7743822,144.9606172
Christmas Wine Market at Northside Wines,2024-12-01,12:00,Northside Wines,"543-545 High Street Northcote, VIC 3070",https://www.eventbrite.com.au/e/christmas-wine-market-at-northside-wines-tickets-1057757574379?aff=ebdssbdestsearch,-37.7642271,144.9994439
"The Breath Code- ""Half Day Men's Event"" StKilda",2024-12-01,12:00,infinite co studio,"14 Pakington Street St Kilda, VIC 3182",https://www.eventbrite.com.au/e/the-breath-code-half-day-mens-event-stkilda-tickets-1041971664297?aff=ebdssbdestsearch,-37.8655601,144.9873231
"Snuggle Party: connect, consent & cuddle",2024-12-01,13:00,Private Residence,"Riverdale Road Hawthorn East, VIC 3122",https://www.eventbrite.com.au/e/snuggle-party-connect-consent-cuddle-tickets-1068818919159?aff=ebdssbdestsearch,-37.8288232,145.0349047
SOJI TRIVIA,2024-12-01,18:00,The Greenhouse,"518 High Street Northcote, VIC 3070",https://www.eventbrite.com.au/e/soji-trivia-tickets-1068024292409?aff=ebdssbdestsearch,-37.7633088,144.9998047
GLY Xperience 2.0,2024-12-01,17:00,The Third Day,"290 Macaulay Road North Melbourne, VIC 3051",https://www.eventbrite.com.au/e/gly-xperience-20-tickets-1078936621479?aff=ebdssbdestsearch,-37.7946786,144.9367079
ABC14 Combined Scientific Meetings of ANZSB & ANZORS,2024-12-01,9:00,"John Street, Hawthorn VIC, Australia","John Street Hawthorn, VIC 3122",https://www.eventbrite.com/e/abc14-combined-scientific-meetings-of-anzsb-anzors-tickets-781037844217?aff=ebdssbdestsearch,-37.8215065,145.0390928
Heart to Heart - Community Connection Gathering,2024-12-01,10:30,Coburg Lake Reserve,"Gaffney Street Coburg North, VIC 3058",https://www.eventbrite.com.au/e/heart-to-heart-community-connection-gathering-tickets-1073864390299?aff=ebdssbdestsearch,-37.733092,144.9558542
候场喜剧一周年特别场,2024-12-01,19:00,Library at The Dock,"107 Victoria Harbour Promenade Docklands, VIC 3008",https://www.eventbrite.com/e/1078597567359?aff=ebdssbdestsearch,-37.8200128,144.9404861
Richmond Music Academy end of year concert,2024-12-01,18:00,Abbotsford Convent,"1 Saint Heliers Street Abbotsford, VIC 3067",https://www.eventbrite.com.au/e/richmond-music-academy-end-of-year-concert-tickets-1024543997677?aff=ebdssbdestsearch,-37.8026835,145.0027506
BIG & HORNY - SAGITTARIAN  SUNDAY  Funking it up 70’s style,2024-12-01,3:30,Melbourne Bowling Club,"138 Union Street Windsor, VIC 3181",https://www.eventbrite.com.au/e/big-horny-sagittarian-sunday-funking-it-up-70s-style-tickets-1071985741209?aff=ebdssbdestsearch,-37.8546958,144.9915895
The Magic Garden Festival Vol.5 - Community Connection Portal,2024-12-01,14:30,The Fitzroy Beer Garden,"245 Gertrude Street #243 Fitzroy, VIC 3065",https://www.eventbrite.com.au/e/the-magic-garden-festival-vol5-community-connection-portal-tickets-1077230277759?aff=ebdssbdestsearch,-37.806153,144.982572
"Mana MELBOURNE - Breath work, Spinal Energetics  & Sound/ 1st DEC",2024-12-01,15:00,75 Reid Street,"75 Reid St Fitzroy, VIC 3068",https://www.eventbrite.com.au/e/mana-melbourne-breath-work-spinal-energetics-sound-1st-dec-tickets-1017176290667?aff=ebdssbdestsearch,-37.7853324,144.9807648
Michael Avery School of Music: 2024 End-of-Year Recitals,2024-12-01,10:00,Abbotsford Convent,"1 Saint Heliers Street Abbotsford, VIC 3067",https://www.eventbrite.com/e/michael-avery-school-of-music-2024-end-of-year-recitals-tickets-1070284703359?aff=ebdssbdestsearch,-37.8026835,145.0027506
"OPEN MIC (ANY ACT), NETWORKING & KARAOKE - MUST ARRIVE BEFORE 8PM",2024-12-01,18:00,215 Queen's Bar,"215 Queen Street Melbourne, VIC 3000",https://www.eventbrite.com.au/e/open-mic-any-act-networking-karaoke-must-arrive-before-8pm-tickets-1094580773559?aff=ebdssbdestsearch,-37.8137947,144.9598607
Cacao Sound Journey,2024-12-01,19:00,Merkaba Studio,"15 Mills Street Cheltenham, VIC 3192",https://www.eventbrite.com.au/e/cacao-sound-journey-tickets-1029806156937?aff=ebdssbdestsearch,-37.9560125,145.0740554
The Loft,2024-12-01,22:00,Nicholas Building,"37 Swanston Street Melbourne, VIC 3000",https://www.eventbrite.com.au/e/the-loft-tickets-1078524669319?aff=ebdssbdestsearch,-37.8167028,144.9666895
Conscious Connection | Aura Flow Yoga + Friends,2024-12-01,14:00,At One Studio,"127 Buckley Street #L1 Essendon, VIC 3040",https://www.eventbrite.com.au/e/conscious-connection-aura-flow-yoga-friends-tickets-1090424120899?aff=ebdssbdestsearch,-37.7570386,144.9154857
Caramel Sundays | You Got Served  | 1st December 2024,2024-12-01,22:00,Platform One,"375 Flinders Street Melbourne, VIC 3000",https://www.eventbrite.com/e/caramel-sundays-you-got-served-1st-december-2024-tickets-1089390308739?aff=ebdssbdestsearch,-37.8191789,144.9621961
Debut Album Launch // Int Day of People with Disability Celebration,2024-12-01,0:00,Northcote Social Club,"301 High St, Northcote VIC 3070, Australia",https://www.facebook.com/events/2932385930235820/,-37.771471,144.998414
Stilla (STILLAVERSE Live),2024-12-01,20:00,Northcote Social Club,"301 High St, Northcote VIC 3070, Australia",https://www.facebook.com/events/571789725522311/,-37.771471,144.998414
"Dylan Pinkerton ""After the Fall"" EP Launch W/ Abbey Rose + Sadie Mustoe",2024-12-01,19:00,280 Sydney Rd,"280 Sydney Road Brunswick, VIC 3056",https://www.eventbrite.com.au/e/dylan-pinkerton-after-the-fall-ep-launch-w-abbey-rose-sadie-mustoe-tickets-1049397786027?aff=ebdssbdestsearch,-37.7711488,144.9616353
St Mary's Annual Festival,2024-12-01,1:30,Centenary Theatre,"71 Railway Place Williamstown, VIC 3016",https://www.eventbrite.com.au/e/st-marys-annual-festival-tickets-1022437587347?aff=ebdssbdestsearch,-37.8630723,144.8939035
Melbourne Job Fair - Melbourne Career Fair (Employer Registration),2024-12-02,11:00,Melbourne,"Virtual Job Fair Melbourne, VIC",https://www.eventbrite.com/e/melbourne-job-fair-melbourne-career-fair-employer-registration-registration-863747039647?aff=ebdssbdestsearch,-37.8136276,144.9630576
Find Your Spark,2024-12-02,09:30,Brighton Baths Health Club,"251 Esplanade Brighton, VIC 3186",https://www.eventbrite.com.au/e/find-your-spark-tickets-987485544847?aff=ebdssbdestsearch,-37.91017799999999,144.9854101
Adventurous Scavenger Hunt - Soar Through Scenic St. Kilda,2024-12-02,08:00,18 Lower Esplanade,"18 Lower Esplanade St Kilda, VIC 3182",https://www.eventbrite.com/e/adventurous-scavenger-hunt-soar-through-scenic-st-kilda-tickets-1078014192469?aff=ebdssbdestsearch,-37.8678073,144.9771998
Resin Art Class In Melbourne,2024-12-02,18:00,"555 Flinders Ln, Melbourne VIC 3000, Australia","555 Flinders Ln Melbourne, VIC 3008",https://www.eventbrite.com.au/e/resin-art-class-in-melbourne-tickets-1028764130207?aff=ebdssbdestsearch,-37.819944,144.955791
Acceptance and Commitment Therapy Basic Training for BPD (2-days),2024-12-02,9:00,Spectrum,"110 Church Street Richmond, VIC 3121",https://www.eventbrite.com.au/e/acceptance-and-commitment-therapy-basic-training-for-bpd-2-days-registration-1003314098477?aff=ebdssbdestsearch,-37.8142371,144.9995624
SISTER PAUL (Jpn) FREE @ NSC for Social Sanctuary + COLD REGARDS & The Cars That Ate Paris 2nd Dec,2024-12-02,19:00,Northcote Social Club,"301 High St, Northcote VIC 3070, Australia",https://www.facebook.com/events/461738856322243/,-37.771471,144.998414
"BC #435 (Politics Of Dancing, Natural Bounce, Binofski + more)",2024-12-02,8:00,onesixone,"161 High Street Prahran, VIC 3181",https://www.eventbrite.com.au/e/bc-435-politics-of-dancing-natural-bounce-binofski-more-tickets-1091824459349?aff=ebdssbdestsearch,-37.8517323,144.9936589
AGELESS GRACE - CHAIR-BASED EXERCISE & BRAIN HEALTH FOR SENIORS,2024-12-02,13:30,Prahran PLACE,"40 Grattan Street Prahran, VIC 3181",https://www.eventbrite.com.au/e/ageless-grace-chair-based-exercise-brain-health-for-seniors-tickets-1079000211679?aff=ebdssbdestsearch,-37.8473197,144.9917448
Melbourne Business: Top 7 Deadly Mistakes That will DESTROY Your New Business,2024-12-02,19:00,Melbourne,"Melbourne Melbourne, VIC",https://www.eventbrite.com/e/melbourne-business-top-7-deadly-mistakes-that-will-destroy-your-new-business-tickets-1046044787117?aff=ebdssbdestsearch,-37.8136276,144.9630576
Magic Masterclass,2024-12-02,17:30,The Butterfly Club,"5 Carson Place Melbourne, VIC 3000",https://www.eventbrite.co.uk/e/magic-masterclass-tickets-966961195967?aff=ebdssbdestsearch,-37.8154472,144.9652725
Old Melbourne Gaol - General Admission - November 2024 to January 2025,2024-12-02,10:00,Old Melbourne Gaol,"377 Russell Street Melbourne, VIC 3000",https://www.eventbrite.com.au/e/old-melbourne-gaol-general-admission-november-2024-to-january-2025-tickets-909508734107?aff=ebdssbdestsearch,-37.8079389,144.9650674
Rippon Lea Estate General Admission November 2024 - January 2025,2024-12-02,10:00,Rippon Lea Estate,"192 Hotham Street Elsternwick, VIC 3185",https://www.eventbrite.com.au/e/rippon-lea-estate-general-admission-november-2024-january-2025-tickets-971868293227?aff=ebdssbdestsearch,-37.8786264,144.9978144
Adult Intermediate Lyrical Classes,2024-12-02,11:30,Dance Factory,"Melbourne VIC, Australia 225 Swan St Richmond Melbourne, VIC",https://www.eventbrite.com.au/e/adult-intermediate-lyrical-classes-tickets-933127779307?aff=ebdssbdestsearch,-37.8257354,144.9998261
I did it!!,2024-12-02,20:30,The Butterfly Club,"5 Carson Place Melbourne, VIC 3000",https://www.eventbrite.co.uk/e/i-did-it-tickets-1002113056127?aff=ebdssbdestsearch,-37.8154472,144.9652725
Adobe Lightroom Classic Essentials,2024-12-02,09:00,Australian City Design College,"343 Little Collins Street #802 Melbourne, VIC 3000",https://www.eventbrite.com/e/adobe-lightroom-classic-essentials-tickets-1068857173579?aff=ebdssbdestsearch,-37.8154152,144.9634432
Metartworld - VR Theme Park Unlimited Pass,2024-12-02,11:00,155 Boundary St,"155 Boundary Street Port Melbourne, VIC 3207",https://www.eventbrite.com.au/e/metartworld-vr-theme-park-unlimited-pass-tickets-1080197312239?aff=ebdssbdestsearch,-37.8266323,144.9408894
Christmas Toddler and Preschool Art in Williamstown,2024-12-02,10:30,Williamstown Library,"104 Ferguson Street Williamstown, VIC 3016",https://www.eventbrite.com.au/e/christmas-toddler-and-preschool-art-in-williamstown-tickets-1039600070797?aff=ebdssbdestsearch,-37.85832,144.8961172
Beyond Basic Airway Management,2024-12-02,9:00,RMH Simulation Centre,"Grattan Street Grattan Street Parkville, VIC 3050",https://www.eventbrite.com.au/e/beyond-basic-airway-management-tickets-1028766126177?aff=ebdssbdestsearch,-37.8002748,144.9624282
Adult Beginner Hip Hop/Funk Classes,2024-12-02,19:00,Dance Factory,"Melbourne VIC, Australia 225 Swan St Richmond Melbourne, VIC",https://www.eventbrite.com.au/e/adult-beginner-hip-hopfunk-classes-tickets-933144098117?aff=ebdssbdestsearch,-37.8257354,144.9998261
Feedback Fitness for Leaders in Local Government,2024-12-03,9:00,Anglers Tavern,"2 Anglers Way Maribyrnong, VIC 3032",https://www.eventbrite.com.au/e/feedback-fitness-for-leaders-in-local-government-tickets-1041750011327?aff=ebdssbdestsearch,-37.7690157,144.9014911
Ground Zero,2024-12-03,18:30,The Mission to Seafarers Victoria,"717 Flinders Street Docklands, VIC 3008",https://www.eventbrite.com/e/ground-zero-tickets-1082168538229?aff=ebdssbdestsearch,-37.8225172,144.951249
Spoken Word @ Bar Oussou!,2024-12-03,0:00,Bar Oussou,"653 Sydney Rd, Brunswick VIC 3056, Australia",https://www.facebook.com/events/492572360256978/,-37.7618155,144.9628753
neoResus Advanced Resuscitation Program,2024-12-03,9:00,The Royal Children's Hospital,"50 Flemington Road Health and Education Learning Precinct (HELP), Level 1 Parkville, VIC 3052",https://www.eventbrite.com.au/e/neoresus-advanced-resuscitation-program-tickets-772697177057?aff=ebdssbdestsearch,-37.7902531,144.9433744
AMSI BioInfoSummer 2024,2024-12-03,9:30,The University of Melbourne,"The University of Melbourne Parkville, VIC 3052",https://www.eventbrite.com.au/e/amsi-bioinfosummer-2024-tickets-969527351407?aff=ebdssbdestsearch,-37.7983459,144.960974
Unity in Autonomy Book Launch and End of Year Celebration,2024-12-03,17:30,Old Quadrangle Building,"The University of Melbourne Parkville, VIC 3052",https://www.eventbrite.com.au/e/unity-in-autonomy-book-launch-and-end-of-year-celebration-tickets-1068899740899?aff=ebdssbdestsearch,-37.7983459,144.960974
Condensed Milk Tuesdays,2024-12-03,0:00,Section 8,"27-29 Tattersalls Ln, Melbourne VIC 3000, Australia",https://www.facebook.com/events/3806429379629971/?event_time_id=3806429409629968,-37.8117457,144.965405
Prokick Australia - MELBOURNE TRY-OUTS NFL/COLLEGE *MULTIPLE SESSIONS*,2024-12-03,8:30,Gardiner Park,"46-61 Carroll Crescent Glen Iris, VIC 3146",https://www.eventbrite.com/e/prokick-australia-melbourne-try-outs-nflcollege-multiple-sessions-tickets-1070236619539?aff=ebdssbdestsearch,-37.8518283,145.048937
"Monica Dean, with support set by Cam Prestipino﻿",2024-12-03,0:00,Open Studio,"204 High St, Northcote VIC 3070, Australia",https://www.facebook.com/events/2470529313151252/,-37.7742382,144.9981587
Melbourne Working Holiday Girls Pub Quiz Night,2024-12-03,18:30,Jekyll & Hyde,"175 Acland Street St Kilda, VIC 3182",https://www.eventbrite.com.au/e/melbourne-working-holiday-girls-pub-quiz-night-tickets-1097033188799?aff=ebdssbdestsearch,-37.8694465,144.9802119
2025 Annual Meaningful GOAL Setting Workshop,2024-12-03,09:30,Brimbank Aquatic and Wellness Centre,"90 Taylors Road Keilor Downs, VIC 3038",https://www.eventbrite.com.au/e/2025-annual-meaningful-goal-setting-workshop-tickets-1079091996209?aff=ebdssbdestsearch,-37.7266967,144.8054841
Kingston Retail and Hospitality Business Growth Workshop,2024-12-03,19:00,Quest Cheltenham,"37-39 Station Road Cheltenham, VIC 3192",https://www.eventbrite.com.au/e/kingston-retail-and-hospitality-business-growth-workshop-tickets-1083760379469?aff=ebdssbdestsearch,-37.9669679,145.0573957
Clinical Ethics: Perioperative Care (Part 2),2024-12-03,8:30,Deakin Downtown,"727 Collins Street #tower 2 level 12 Melbourne, VIC 3008",https://www.eventbrite.com.au/e/clinical-ethics-perioperative-care-part-2-tickets-861945380837?aff=ebdssbdestsearch,-37.8206847,144.949995
Meditation and Sound Bath,2024-12-03,19:00,Merkaba Studio,"15 Mills Street Cheltenham, VIC 3192",https://www.eventbrite.com.au/e/meditation-and-sound-bath-tickets-1026467661407?aff=ebdssbdestsearch,-37.9560125,145.0740554
Christmas Kids Art Fun in Williamstown,2024-12-03,10:00,82-84 Ferguson St,"82-84 Ferguson Street Williamstown, VIC 3016",https://www.eventbrite.com.au/e/christmas-kids-art-fun-in-williamstown-tickets-1039839537047?aff=ebdssbdestsearch,-37.8586804,144.8974969
Launch Your Own Successful AI App | AI Startup | Workshop 2024,2024-12-03,13:00,Regus Office,"Melbourne Regus Office Melbourne, VIC",https://www.eventbrite.com/e/launch-your-own-successful-ai-app-ai-startup-workshop-2024-tickets-892931420917?aff=ebdssbdestsearch,-37.8136276,144.9630576
Reading Performance: anti-aria for ater-,2024-12-03,10:00,180 Holmes Rd,"180 Holmes Road Aberfeldie, VIC 3040",https://www.eventbrite.com/e/reading-performance-anti-aria-for-ater--tickets-1004347499407?aff=ebdssbdestsearch,-37.7645396,144.9034094
"Sound Healing - Ground & Center,  Release the year - Sound Bath with Romy",2024-12-03,19:30,Private Studio in St Kilda East (see email for address),"Alma Road St Kilda East, VIC 3183",https://www.eventbrite.com.au/e/sound-healing-ground-center-release-the-year-sound-bath-with-romy-tickets-1076312873779?aff=ebdssbdestsearch,-37.8626178,145.0005983
Tix at 12,2024-12-03,0:00,Arts Centre Melbourne,"100 St Kilda Rd, Southbank VIC 3004, Australia",https://www.facebook.com/events/473885795706627/,-37.8216405,144.9683143
The Art of Storytelling for Industry and Creativity,2024-12-03,09:00,Australian City Design College,"343 Little Collins Street #802 Melbourne, VIC 3000",https://www.eventbrite.com/e/the-art-of-storytelling-for-industry-and-creativity-tickets-1008882383367?aff=ebdssbdestsearch,-37.8154152,144.9634432
Highly Suspect // Melbourne // Good Things Festival Sideshow // Max Watts,2024-12-03,19:00,Max Watts,"125 Swanston St, Melbourne VIC 3000, Australia",https://www.facebook.com/events/951901566984093/,-37.8147557,144.9659879
Term 4 SaintsPlay program RSEA Park,2024-12-03,05:30,RSEA Park - St Kilda Football Club,"60 Linton Street #32 Moorabbin, VIC 3189",https://www.eventbrite.com/e/term-4-saintsplay-program-rsea-park-registration-1013259876567?aff=ebdssbdestsearch,-37.9371005,145.0435478
Adult Intermediate Commercial Class,2024-12-03,13:00,Dance Factory,"Melbourne VIC, Australia 225 Swan St Richmond Melbourne, VIC",https://www.eventbrite.com.au/e/adult-intermediate-commercial-class-tickets-933155371837?aff=ebdssbdestsearch,-37.8257354,144.9998261
Elwood Forro Classes - Spring Edition,2024-12-03,06:30,Elwood Sailing Club,"5 Elwood FOreshore 1/439 Elizabeth Street Elwood/ CBD, VIC 3184",https://www.eventbrite.com.au/e/elwood-forro-classes-spring-edition-tickets-1037880467417?aff=ebdssbdestsearch,-37.8879933,144.9832889
"Startup Mastery: Leveraging Lean Startup , Agile, and Design Thinking",2024-12-03,18:00,Online,"Melbourne Melbourne, VIC",https://www.eventbrite.com/e/startup-mastery-leveraging-lean-startup-agile-and-design-thinking-tickets-893990659127?aff=ebdssbdestsearch,-37.8136276,144.9630576
Pool Day Pass,2024-12-03,11:00,AC Hotel by Marriott Melbourne Southbank,"201 Normanby Road Southbank, VIC 3006",https://www.eventbrite.com/e/pool-day-pass-tickets-1040243776137?aff=ebdssbdestsearch,-37.828592,144.9498768
UX Design Workshop | Launch Your UX Design Career 2024,2024-12-03,13:00,Regus Office,"Melbourne Regus Office Melbourne, VIC",https://www.eventbrite.co.uk/e/ux-design-workshop-launch-your-ux-design-career-2024-tickets-887039899217?aff=ebdssbdestsearch,-37.8136276,144.9630576
Adult Intermediate/Advanced Jazz Class,2024-12-03,18:30,Dance Factory,"Melbourne VIC, Australia 225 Swan St Richmond Melbourne, VIC",https://www.eventbrite.com.au/e/adult-intermediateadvanced-jazz-class-tickets-933159203297?aff=ebdssbdestsearch,-37.8257354,144.9998261
Shake It Off - Your Weekly Dose of Physical & Emotional Fitness.,2024-12-03,18:30,Centre of You,"Upstairs, 217 Chapel St Prahran Melbourne, VIC 3181",https://www.eventbrite.com.au/e/shake-it-off-your-weekly-dose-of-physical-emotional-fitness-tickets-1088436335379?aff=ebdssbdestsearch,-37.8509316,144.9933031
St Kilda AFL Blind Futures Clinics,2024-12-03,06:30,RSEA Park - St Kilda Football Club,"60 Linton Street #32 Moorabbin, VIC 3189",https://www.eventbrite.com/e/st-kilda-afl-blind-futures-clinics-tickets-1039372821087?aff=ebdssbdestsearch,-37.9371005,145.0435478
Nocturne (Wed 7:30pm),2024-12-04,19:30,Transit Dance (Brunswick),"64 Dawson Street Brunswick, VIC 3056",https://www.eventbrite.com.au/e/nocturne-wed-730pm-tickets-1045285355637?aff=ebdssbdestsearch,-37.7701752,144.9559255
Piano CLub #10,2024-12-04,20:00,Ragtime Tavern,"206 Tyler St, Preston VIC 3072, Australia",https://www.facebook.com/events/1053580056510818/,-37.7310367,145.0142411
"Gold, Silver and Polymer Clay Ring Workshop for Beginners",2024-12-04,15:30,HEER POTTERY ART,"31 Clarice Road #unit3/29 Box Hill South, VIC 3128",https://www.eventbrite.com.au/e/gold-silver-and-polymer-clay-ring-workshop-for-beginners-tickets-1029735866697?aff=ebdssbdestsearch,-37.833062,145.1337404
3-6 Years Hip-Hop/Funk/Jazz Classes,2024-12-04,04:30,Dance Factory,"225 Swan Street Richmond, VIC 3121",https://www.eventbrite.com.au/e/3-6-years-hip-hopfunkjazz-classes-tickets-1046582585687?aff=ebdssbdestsearch,-37.8257354,144.9998261
MZAZA's World Music Workshop,2024-12-04,10:00,25 Normanby St,"25 Normanby Street Brighton, VIC 3186",https://www.eventbrite.com/e/mzazas-world-music-workshop-tickets-999243864297?aff=ebdssbdestsearch,-37.9114431,144.9918178
In Bold & Fox Events Co presents Merry Businessmas,2024-12-04,18:30,Le Ciel Events,"13 Cremorne Street #Level 6 Cremorne, VIC 3121",https://www.eventbrite.com.au/e/in-bold-fox-events-co-presents-merry-businessmas-tickets-1066179374209?aff=ebdssbdestsearch,,
The Melbourne Moth StorySLAM: SILVER LINING,2024-12-04,19:30,Howler,"7-11 Dawson St Brunswick, VIC 3056",https://www.eventbrite.com/e/the-melbourne-moth-storyslam-silver-lining-tickets-908470077457?aff=ebdssbdestsearch,-37.7720304,144.9596527
Discover gestalt & GTA training program info session (December 2024),2024-12-04,18:00,"Elie, Gestalt Centre Training Campus","27 Royal Parade Parkville, VIC 3052",https://www.eventbrite.com.au/e/discover-gestalt-gta-training-program-info-session-december-2024-tickets-1043348452307?aff=ebdssbdestsearch,-37.7962081,144.9574069
The Day We Were Not Alone (The Capstone Plays Part Two),2024-12-04,19:30,TW Explosives Factory,"67 Inkerman Street St Kilda, VIC 3182",https://www.eventbrite.com.au/e/the-day-we-were-not-alone-the-capstone-plays-part-two-tickets-1061774148059?aff=ebdssbdestsearch,-37.8646651,144.9842743
Dance with Dagogo @ Circle Afro / Reggaeton Wednesday and Hip Hop Fridays,2024-12-04,19:00,Circle.,"36 Saint Edmonds Road #Level 1 Prahran, VIC 3181",https://www.eventbrite.com/e/dance-with-dagogo-circle-afro-reggaeton-wednesday-and-hip-hop-fridays-tickets-998076482627?aff=ebdssbdestsearch,-37.8499197,144.992012
Como House Historic House Tours (Seasons Greetings),2024-12-04,11:30,Como House and Garden,"Cnr Wiliams Road and Lechlade Ave South Yarra, VIC",https://www.eventbrite.com.au/e/como-house-historic-house-tours-seasons-greetings-tickets-1020324998537?aff=ebdssbdestsearch,-37.8385449,145.0050826
Sales Presentation Mastery 2 Days Training in Melbourne,2024-12-04,09:00,For venue details reach us at info@mangates.com,"PH: + 61(0) 2 80155605 Melbourne, VIC 3000",https://www.eventbrite.com/e/sales-presentation-mastery-2-days-training-in-melbourne-tickets-830362194677?aff=ebdssbdestsearch,-37.8152065,144.963937
Project Integration Management 2 Days Training in Melbourne,2024-12-04,09:00,For venue details reach us at info@mangates.com,"PH: + 61(0) 2 80155605 Melbourne, VIC 3000",https://www.eventbrite.com/e/project-integration-management-2-days-training-in-melbourne-tickets-830332144797?aff=ebdssbdestsearch,-37.8152065,144.963937
Skating In The Clouds,2024-12-04,19:30,Theatre Works,"Saint Leonards Avenue St Kilda, VIC 3182",https://www.eventbrite.com.au/e/skating-in-the-clouds-tickets-774953325257?aff=ebdssbdestsearch,-37.8638328,144.9768976
Cyber Security 2 Days Training in Melbourne,2024-12-04,09:00,For venue details reach us at info@mangates.com,"PH: + 61(0) 2 80155605 Melbourne, VIC 3000",https://www.eventbrite.com/e/cyber-security-2-days-training-in-melbourne-tickets-830137091387?aff=ebdssbdestsearch,-37.8152065,144.963937
Problem Management Professional 2 Days Training in Melbourne,2024-12-04,09:00,For venue details reach us at info@mangates.com,"PH: + 61(0) 2 80155605 Melbourne, VIC 3000",https://www.eventbrite.com/e/problem-management-professional-2-days-training-in-melbourne-tickets-830212697527?aff=ebdssbdestsearch,-37.8152065,144.963937
Adult Intermediate Contemporary Classes,2024-12-04,10:30,Dance Factory,"Melbourne VIC, Australia 225 Swan St Richmond Melbourne, VIC",https://www.eventbrite.com.au/e/adult-intermediate-contemporary-classes-tickets-933171931367?aff=ebdssbdestsearch,-37.8257354,144.9998261
Yin Yoga at Artful Yoga Gallery,2024-12-04,18:00,Artful Yoga Gallery,"1 Vale Street St Kilda, VIC 3182",https://www.eventbrite.com.au/e/yin-yoga-at-artful-yoga-gallery-tickets-1068528871619?aff=ebdssbdestsearch,-37.866167,144.981767
Change Management Practitioner 2 Days Training in Melbourne,2024-12-04,09:00,For venue details reach us at info@mangates.com,"PH: + 61(0) 2 80155605 Melbourne, VIC 3000",https://www.eventbrite.com/e/change-management-practitioner-2-days-training-in-melbourne-tickets-830114814757?aff=ebdssbdestsearch,-37.8152065,144.963937
MEL • 2 Fast 2 Fastidious,2024-12-04,5:30,Five Senses Barista Academy,"300 Rosslyn Street West Melbourne, VIC 3003",https://www.eventbrite.com.au/e/mel-2-fast-2-fastidious-tickets-1050188641497?aff=ebdssbdestsearch,-37.8108846,144.9455841
Christmas Special Love Notes Candle Making Workshop,2024-12-04,13:00,"Heer Pottery - unit 3/29-31 Clarice Rd, Box Hill South VIC","29-31 Clarice Road #unit 3 Box Hill South, VIC 3128",https://www.eventbrite.com.au/e/christmas-special-love-notes-candle-making-workshop-tickets-1037630951107?aff=ebdssbdestsearch,-37.8333911,145.1339829
CALS-ANZ (CARDIAC SURGERY ADVANCED LIFE SUPPORT),2024-12-04,9:00,RMH Simulation Centre,"Grattan Street Grattan Street Parkville, VIC 3050",https://www.eventbrite.com.au/e/cals-anz-cardiac-surgery-advanced-life-support-tickets-793020855727?aff=ebdssbdestsearch,-37.8002748,144.9624282
QLD • 2 Fast 2 Fastidious,2024-12-04,5:30,Five Senses Barista Academy,"135 Lake St Northbridge, WA 6003",https://www.eventbrite.com.au/e/qld-2-fast-2-fastidious-tickets-1057791325329?aff=ebdssbdestsearch,-31.944051,115.8589067
BAKERY MUSIC NIGHT @BAR GALER,2024-12-04,7:30,Bar Galer,"555 Swanston Street Carlton, VIC 3053",https://www.eventbrite.com.au/e/bakery-music-night-bar-galer-tickets-1086924653899?aff=ebdssbdestsearch,-37.8057745,144.9626168
Project Management Basics 2 Days Training in Melbourne,2024-12-04,09:00,For venue details reach us at info@mangates.com,"PH: + 61(0) 2 80155605 Melbourne, VIC 3000",https://www.eventbrite.com/e/project-management-basics-2-days-training-in-melbourne-tickets-830346036347?aff=ebdssbdestsearch,-37.8152065,144.963937
Can We Talk R&B Wednesday,2024-12-04,17:00,"Top Yard Rooftop, Geddes Lane, Melbourne VIC, Australia","Geddes Lane Melbourne, VIC 3000",https://www.eventbrite.com.au/e/can-we-talk-rb-wednesday-tickets-1089450789639?aff=ebdssbdestsearch,-37.8191519,144.9574746
5-13 Years Acro/ Cheer Classes,2024-12-04,17:15,Dance Factory,"225 Swan Street Richmond, VIC 3121",https://www.eventbrite.com.au/e/5-13-years-acro-cheer-classes-tickets-1046583638837?aff=ebdssbdestsearch,-37.8257354,144.9998261
Christmas Themed Polymer Clay Workshop,2024-12-04,13:00,HEER POTTERY ART,"31 Clarice Road #unit3/29 Box Hill South, VIC 3128",https://www.eventbrite.com.au/e/christmas-themed-polymer-clay-workshop-tickets-1091850477169?aff=ebdssbdestsearch,-37.833062,145.1337404
BNI Yarra Business Partners Breakfast & Networking Event,2024-12-04,06:45,Au79,"29 Nicholson Street #27 Abbotsford, VIC 3067",https://www.eventbrite.com.au/e/bni-yarra-business-partners-breakfast-networking-event-tickets-1095930340149?aff=ebdssbdestsearch,-37.808833,144.995982
Agile For Product Owner 2 Days Training in Melbourne,2024-12-04,09:00,For venue details reach us at info@mangates.com,"PH: + 61(0) 2 80155605 Melbourne, VIC 3000",https://www.eventbrite.com/e/agile-for-product-owner-2-days-training-in-melbourne-tickets-829881075637?aff=ebdssbdestsearch,-37.8152065,144.963937
"Clarity Breathwork Ceremony - release 2024, calling in your 2025 intentions",2024-12-04,18:30,Prana House,"885 High Street #Level 1 Thornbury, VIC 3071",https://www.eventbrite.com.au/e/clarity-breathwork-ceremony-release-2024-calling-in-your-2025-intentions-tickets-1095159644979?aff=ebdssbdestsearch,-37.7537691,145.0011906
AACC End of Year Networking,2024-12-04,5:30,International Chamber House,"Level 5 121 Exhibition Street Melbourne, VIC 3000",https://www.eventbrite.com.au/e/aacc-end-of-year-networking-tickets-1090365706179?aff=ebdssbdestsearch,-37.8126466,144.9703748
Building your Feedback Fitness - Lunch and Learn 2024,2024-12-04,12:00,Melbourne,"Melbourne Melbourne, VIC 3000",https://www.eventbrite.com.au/e/building-your-feedback-fitness-lunch-and-learn-2024-tickets-1008858441757?aff=ebdssbdestsearch,-37.8152065,144.963937
Melbourne Masterclass - Nail Your Sustainability Messaging in a Day,2024-12-04,09:00,Central House Toorak,"489 Toorak Road #Level 3 Toorak, VIC 3142",https://www.eventbrite.com.au/e/melbourne-masterclass-nail-your-sustainability-messaging-in-a-day-tickets-1047621503117?aff=ebdssbdestsearch,-37.840969,145.00926
Sensory relaxation evening with delicious head massage!,2024-12-04,07:15,SoulPod Health & Healing,"14 Stanley Street Melbourne, VIC 3121",https://www.eventbrite.com.au/e/sensory-relaxation-evening-with-delicious-head-massage-tickets-1086523774859?aff=ebdssbdestsearch,-37.8228766,144.9947237
PER • 2 Fast 2 Fastidious,2024-12-04,5:30,Five Senses Barista Academy,"135 Lake St Northbridge, WA 6003",https://www.eventbrite.com.au/e/per-2-fast-2-fastidious-tickets-1057786882039?aff=ebdssbdestsearch,-31.944051,115.8589067
Fabulous Fizz Fest: Discover eight brilliant seasonal sparkling wines,2024-12-04,06:30,Coppersmith Hotel,"435 Clarendon Street South Melbourne, VIC 3205",https://www.eventbrite.com.au/e/fabulous-fizz-fest-discover-eight-brilliant-seasonal-sparkling-wines-tickets-1076337828419?aff=ebdssbdestsearch,-37.8378192,144.9630977
Professional Selling Skills 2 Days Training in Melbourne,2024-12-04,09:00,For venue details reach us at info@mangates.com,"PH: + 61(0) 2 80155605 Melbourne, VIC 3000",https://www.eventbrite.com/e/professional-selling-skills-2-days-training-in-melbourne-tickets-830268123307?aff=ebdssbdestsearch,-37.8152065,144.963937
Drawing Straws presents Cabaret of Curiosities,2024-12-04,07:30,The Butterfly Club,"5 Carson Place Melbourne, VIC 3000",https://www.eventbrite.com.au/e/drawing-straws-presents-cabaret-of-curiosities-tickets-978196129957?aff=ebdssbdestsearch,-37.8154472,144.9652725
Power Query and Power Pivot for Excel 2 Days Training in Melbourne,2024-12-04,09:00,For venue details reach us at info@mangates.com,"PH: + 61(0) 2 80155605 Melbourne, VIC 3000",https://www.eventbrite.com/e/power-query-and-power-pivot-for-excel-2-days-training-in-melbourne-tickets-830152286837?aff=ebdssbdestsearch,-37.8152065,144.963937
Detox Your Culture Book Launch,2024-12-04,17:00,Jasper Hotel,"489 Elizabeth Street Melbourne, VIC 3000",https://www.eventbrite.com/e/detox-your-culture-book-launch-tickets-1086774946119?aff=ebdssbdestsearch,-37.8074904,144.9597627
"Melbourne Singles, Ages 25-45 . 2 for 1 Deal !",2024-12-04,19:00,Champagne Problems,"238 Little Collins Street Melbourne, VIC 3000",https://www.eventbrite.com.au/e/melbourne-singles-ages-25-45-2-for-1-deal-tickets-1076231580629?aff=ebdssbdestsearch,-37.8142781,144.9666247
From Ashes To New // Melbourne // Good Things Festival Sideshow // Stay Gold,2024-12-04,19:00,Stay Gold,"133 Sydney Rd, Brunswick VIC 3056, Australia",https://www.facebook.com/events/457421496842435/,-37.7743469,144.9607404
MSA Mental Health First Aid: 2 Day Training,2024-12-04,09:00,"Room G02, 15 Ancora Imparo Way (Law building)","15 Ancora Imparo Way Monash University, VIC 3800",https://www.eventbrite.com.au/e/msa-mental-health-first-aid-2-day-training-registration-998083313057?aff=ebdssbdestsearch,-37.9130754,145.1318984
Sunrise Yoga in the park,2024-12-04,06:00,A J Burkitt Oval,"50 Beverley Road Heidelberg, VIC 3084",https://www.eventbrite.com/e/sunrise-yoga-in-the-park-tickets-1028784430927?aff=ebdssbdestsearch,-37.75091889999999,145.0782681
Electric Presents Princess Superstar,2024-12-04,19:00,Electric Bar,"265-267 Chapel st Prahran, VIC 3181",https://www.eventbrite.com.au/e/electric-presents-princess-superstar-tickets-1082838682649?aff=ebdssbdestsearch,-37.8491548,144.9935126
PLAY: Frequency,2024-12-04,0:00,Arts Centre Melbourne,"100 St Kilda Rd, Southbank VIC 3004, Australia",https://www.facebook.com/events/3779665475622037/,-37.8216405,144.9683143
Adult Intermediate Broadway Jazz Classes,2024-12-04,11:30,Dance Factory,"Melbourne VIC, Australia 225 Swan St Richmond Melbourne, VIC",https://www.eventbrite.com.au/e/adult-intermediate-broadway-jazz-classes-tickets-933174729737?aff=ebdssbdestsearch,-37.8257354,144.9998261
Too Tired For Heartache Single Launch,2024-12-04,0:00,Bergy Bandroom,"64 Sydney Rd, Brunswick VIC 3056, Australia",https://www.facebook.com/events/451147214668525/,-37.776327,144.9607158
Bully Hay - Black Dogs and Songbirds Tour - Northcote Social Club (VIC),2024-12-04,20:00,Northcote Social Club,"301 High St, Northcote VIC 3070, Australia",https://www.facebook.com/events/1118010066694484/,-37.771471,144.998414
Kindred Studios & Sailor Jerry Presents: Battle Of The Bands - HEAT #4,2024-12-04,18:30,Kindred Bandroom,"3 Harris St, Footscray VIC 3011, Australia",https://www.facebook.com/events/8840628915980012/,-37.8119001,144.9008247
Shrub Comedy & Open Mic,2024-12-04,0:00,24 Moons,"2 Arthurton Rd, Northcote VIC 3070, Australia",https://www.facebook.com/events/9124178814281274/,-37.7691418,144.9982614
Musicland Community Choir in Bebe's Bar @ MUSICLAND,2024-12-04,0:00,Musicland Melbourne,"1359 Sydney Rd, Fawkner VIC 3060, Australia",https://www.facebook.com/events/392049400005701/,-37.6916774,144.9585701581541
DUB FX  feat Sahida Apsara - INFINITE REFLECTION SHOWCASE - Support. Andy V,2024-12-04,20:00,The Night Cat,"137-141 Johnston St, Fitzroy VIC 3065, Australia",https://www.facebook.com/events/492862153570873/,-37.7982971,144.978128
Over 50s Jazz Classes,2024-12-04,11:30,Dance Factory,"Melbourne VIC, Australia 225 Swan St Richmond Melbourne, VIC",https://www.eventbrite.com.au/e/over-50s-jazz-classes-tickets-933177808947?aff=ebdssbdestsearch,-37.8257354,144.9998261
The Melbourne Moth StorySLAM: SILVER LININGS,2024-12-04,19:30,Howler,"7-11 Dawson St, Brunswick VIC 3056, Australia",https://www.facebook.com/events/1122675559863044/,-37.7720304,144.9596527
(SOLD OUT) SINGSONGS: Christmas Edition,2024-12-04,0:00,arcobar heatherton,"8 Arco Ln, Heatherton VIC 3202, Australia",https://www.facebook.com/events/3834739490186612/,-37.94673685,145.07837928457485
The Jazz Alchemists,2024-12-04,18:00,Bird's Basement,"11 Singers Ln, Melbourne VIC 3000, Australia",https://www.facebook.com/events/529828959832072/,-37.81114416,144.95680390283175
Open Mic @ BAR OUSSOU! ,2024-12-04,0:00,Bar Oussou,"653 Sydney Rd, Brunswick VIC 3056, Australia",https://www.facebook.com/events/844277771021573/,-37.7618155,144.9628753
"Snap Crackle and Pop, A Wine Animal Sparkling Spectacular",2024-12-05,18:30,All Nations Hotel,"64 Lennox Street Richmond, VIC 3121",https://www.eventbrite.com.au/e/snap-crackle-and-pop-a-wine-animal-sparkling-spectacular-tickets-1078756312169?aff=ebdssbdestsearch,-37.8132799,144.9953202
Deep Roots Collective - Brasileiros Empreendendores em Melbourne,2024-12-05,17:00,Multicultural Hub,"506 Elizabeth Street Melbourne, VIC 3000",https://www.eventbrite.com.au/e/deep-roots-collective-brasileiros-empreendendores-em-melbourne-tickets-1082768201839?aff=ebdssbdestsearch,-37.8068236,144.9600646
VALENTA: CALL ME UR VANDAL,2024-12-05,0:00,Bad Decisions Bar,"46 Johnston St, Fitzroy VIC 3065, Australia",https://www.facebook.com/events/1119511592930893/,-37.798246,144.9762881
Mixed Coffee Incense Making Workshop,2024-12-05,11:00,HEER POTTERY ART,"31 Clarice Road #unit3/29 Box Hill South, VIC 3128",https://www.eventbrite.com.au/e/halloween-special-mixed-coffee-incense-making-workshop-tickets-1029583460847?aff=ebdssbdestsearch,-37.833062,145.1337404
AM//PM x Good Things Pre-Party // Melbourne,2024-12-05,0:00,Stay Gold,"133 Sydney Rd, Brunswick VIC 3056, Australia",https://www.facebook.com/events/543271131989367/,-37.7743469,144.9607404
𝗦𝗢𝗟𝗗 𝗢𝗨𝗧 | Imminence // Melbourne // Good Things Festival Sideshow // Stay Gold,2024-12-05,19:00,Stay Gold,"133 Sydney Rd, Brunswick VIC 3056, Australia",https://www.facebook.com/events/1092643912323747/,-37.7743469,144.9607404
Gia Ransome 'A Woman Scorned' Tour - Melbourne,2024-12-05,19:30,Bergy Bandroom,"64 Sydney Rd, Brunswick VIC 3056, Australia",https://www.facebook.com/events/581433061161306/,-37.776327,144.9607158
"WAH Presents: Edward Roussac, Damage, Gwot Lik & Clean Beast",2024-12-05,19:00,The Penny Black,"420 Sydney Rd, Brunswick VIC 3056, Australia",https://www.facebook.com/events/938047864914145/,-37.7679775,144.9621651
ZIQO Launch party,2024-12-05,19:00,The Emerson Rooftop Bar and Club,"141-145 Commercial Road South Yarra, VIC 3141",https://www.eventbrite.com/e/ziqo-launch-party-tickets-1095963027919?aff=ebdssbdestsearch,-37.8462997,144.9911964
Comedy @ Sonder,2024-12-05,20:30,Sonder Bar,"438 Centre Road Bentleigh, VIC 3204",https://www.eventbrite.com.au/e/comedy-sonder-tickets-1018428806977?aff=ebdssbdestsearch,-37.918552,145.038282
Requiem for Men,2024-12-05,19:00,The Butterfly Club,"5 Carson Place Melbourne, VIC 3000",https://www.eventbrite.co.uk/e/requiem-for-men-tickets-1001061250147?aff=ebdssbdestsearch,-37.8154472,144.9652725
Madam Nightingale with special guest Aj’Zho,2024-12-05,19:00,Mamma Chen's,"42A Albert Street Footscray, VIC 3011",https://www.eventbrite.com.au/e/madam-nightingale-with-special-guest-ajzho-registration-1088467207719?aff=ebdssbdestsearch,-37.80225,144.897519
LEGO® Robotics Open Day,2024-12-05,16:00,Balwyn Library,"336 Whitehorse Road Balwyn, VIC 3103",https://www.eventbrite.com.au/e/lego-robotics-open-day-tickets-1098280970949?aff=ebdssbdestsearch,-37.8135133,145.0855371
"Waxahatchee with Good Morning | Forum, Melbourne - SOLD OUT!",2024-12-05,19:00,Forum Melbourne,"154 Flinders St, Melbourne VIC 3000, Australia",https://www.facebook.com/events/1949784432153887/,-37.81644145,144.9693768124984
Fotis Vergopoulos | Brunswick Ballroom,2024-12-05,18:30,Brunswick Ballroom,"314 Sydney Rd, Brunswick VIC 3056, Australia",https://www.facebook.com/events/1498695320776780/,-37.7704205,144.9617083
"Bottomless Cocktails at Top Yard, Melb CBD",2024-12-05,17:00,Top Yard Rooftop,"2 Geddes Lane Melbourne, VIC 3000",https://www.eventbrite.com.au/e/bottomless-cocktails-at-top-yard-melb-cbd-tickets-859288333537?aff=ebdssbdestsearch,-37.8189705,144.957155
B# Big Band with Ross Wilson,2024-12-05,18:00,Bird's Basement,"11 Singers Ln, Melbourne VIC 3000, Australia",https://www.facebook.com/events/1188540485786119/,-37.81114416,144.95680390283175
Madam Nightingale with special guest Aj’Zho,2024-12-05,19:00,Mamma Chen's,"42A Albert St, Footscray VIC 3011, Australia",https://www.facebook.com/events/1577988486234023/,-37.8047552,144.89727240000002
Rufous Whistler & Possum @ Merri Creek Tavern,2024-12-05,19:30,The Merri Creek Tavern,"111 High St, Northcote VIC 3070, Australia",https://www.facebook.com/events/1615758892623707/,-37.7794356,144.996838
"Blanco Tranco, Comedy and Tommy-Carlos & the Masquerade",2024-12-05,0:00,The Old Bar,"74-76 Johnston St, Fitzroy VIC 3065, Australia",https://www.facebook.com/events/452381311217199/,-37.79833,144.97711
Riley Catherall (Band Show) St Kilda ALBUM LAUNCH George Lane,2024-12-05,0:00,George Lane St Kilda,"1 George Ln, St Kilda VIC 3182, Australia",https://www.facebook.com/events/2888228231341123/,-37.85997305,144.9780306
Anthony B In Conversation - Hosted by Stick Mareebo ,2024-12-05,0:00,Wax Music Lounge,"250 Flinders St, Melbourne VIC 3000, Australia",https://www.facebook.com/events/1258076311797465/,-37.8176298,144.9661635
(Last Tickets!) The Everly Brothers & Buddy Holly Tribute | Performed By RICK GAUCI & STEVE BURNS ,2024-12-05,0:00,arcobar heatherton,"8 Arco Ln, Heatherton VIC 3202, Australia",https://www.facebook.com/events/1138196443943231/,-37.94673685,145.07837928457485
SNAILGUN - GUN LAWS - THE NOVA FIENDS @ LAST CHANCE,2024-12-05,20:00,The Last Chance,"238 Victoria St, Melbourne VIC 3000, Australia",https://www.facebook.com/events/2117098502038765/,-37.8059962,144.9585654
Connor Randles 'Paparella' EP Launch feat. Luke Willard,2024-12-05,19:00,The Workers Club,"51 Brunswick St, Fitzroy VIC 3065, Australia",https://www.facebook.com/events/488956507521551/,-37.8055776,144.9769450659087
"Lavender vs Rose & The GoldenFingers Dancers - The goodbye, farewell, love to Open Studio SHOW! ",2024-12-05,0:00,Open Studio,"204 High St, Northcote VIC 3070, Australia",https://www.facebook.com/events/930107725183916/,-37.7742382,144.9981587
Blusher - Melbourne Headline Show,2024-12-05,0:00,Northcote Social Club,"301 High St, Northcote VIC 3070, Australia",https://www.facebook.com/events/3742447942677245/,-37.771471,144.998414
Keanu Jai  // Thursday Arvo Gig Series,2024-12-05,14:00,Kindred Bandroom,"3 Harris St, Footscray VIC 3011, Australia",https://www.facebook.com/events/462884989589480/,-37.8119001,144.9008247
Ty Gray & Friends - Workin' It Out (A Comedy Trial Show),2024-12-05,19:00,Caz Reitop's Dirty Secrets,"80 Smith Street Collingwood, VIC 3066",https://www.eventbrite.com.au/e/ty-gray-friends-workin-it-out-a-comedy-trial-show-tickets-1080122307899?aff=ebdssbdestsearch,-37.8059003,144.9831738
Violent Femmes - Sideshow,2024-12-05,19:30,Palais Theatre,"Lower Esplanade, St Kilda VIC 3182, Australia",https://www.facebook.com/events/1986012785160740/,-37.86708671,144.97599656199426
Flesh & Blood - Skirmish Season 10 - Gameology CLAYTON SOUTH - 05/12/2024,2024-12-05,06:30,Gameology,"12 Eileen Road Clayton South, VIC 3169",https://www.eventbrite.com.au/e/flesh-blood-skirmish-season-10-gameology-clayton-south-05122024-tickets-1043391701667?aff=ebdssbdestsearch,-37.9512104,145.1347381
Women in Digital's Melbourne Jingle & Mingle!,2024-12-05,18:00,Oche Melbourne,"263-269 Elizabeth Street Melbourne, VIC 3000",https://www.eventbrite.com.au/e/women-in-digitals-melbourne-jingle-mingle-tickets-1073945482849?aff=ebdssbdestsearch,-37.8125796,144.9620973
Wreath Making Workshop,2024-12-05,18:30,Town & Country Gardens,"1311 High Street Malvern, VIC 3144",https://www.eventbrite.com.au/e/wreath-making-workshop-tickets-1089239908889?aff=ebdssbdestsearch,-37.8575834,145.0378181
Adult Dance Acro Classes,2024-12-05,10:30,Dance Factory,"Melbourne VIC, Australia 225 Swan St Richmond Melbourne, VIC",https://www.eventbrite.com.au/e/adult-dance-acro-classes-tickets-933185371567?aff=ebdssbdestsearch,-37.8257354,144.9998261
City LOVE Scavenger Hunt Date Night For Couples - Melbourne Vic Area,2024-12-05,13:00,**Recommended starting point or another city spot of your choice! (MUST USE PDF TICKETS-NO QR CODES),"33 Lincoln Square South Carlton, VIC 3053",https://www.eventbrite.com/e/city-love-scavenger-hunt-date-night-for-couples-melbourne-vic-area-tickets-910283571667?aff=ebdssbdestsearch,-37.8033885,144.9623452
1-2-3 Magic® & Emotion Coaching,2024-12-05,08:30,489 Elizabeth St,"489 Elizabeth Street Melbourne, VIC 3000",https://www.eventbrite.com/e/1-2-3-magic-emotion-coaching-tickets-1056205532179?aff=ebdssbdestsearch,-37.8074904,144.9597627
"FeelGoodFlows - Sunrise Yoga Thursdays - Meditation, Breathwork, & Mobility",2024-12-05,06:30,South Melbourne Life Saving Club,"72B Beaconsfield Parade Albert Park, VIC 3206",https://www.eventbrite.com.au/e/feelgoodflows-sunrise-yoga-thursdays-meditation-breathwork-mobility-tickets-1044511310447?aff=ebdssbdestsearch,-37.8471341,144.9466738
Private Hand Building Workshop with Kiln Firing,2024-12-05,02:30,"Heer Pottery - unit 3/29-31 Clarice Rd, Box Hill South VIC","29-31 Clarice Road #unit 3 Box Hill South, VIC 3128",https://www.eventbrite.com.au/e/private-hand-building-workshop-with-kiln-firing-tickets-1059244391489?aff=ebdssbdestsearch,-37.8333911,145.1339829
Business Networking - Williamstown,2024-12-05,06:45,Customs House Hotel Williamstown,"161 Nelson Place Williamstown, VIC 3016",https://www.eventbrite.com.au/e/business-networking-williamstown-tickets-906597145467?aff=ebdssbdestsearch,-37.863157,144.903962
Melbourne speed dating for ages 25-39 by Cheeky Events Australia,2024-12-05,19:00,Bar Blanco,"102 Chapel Street Windsor Melbourne, VIC 3181",https://www.eventbrite.com.au/e/melbourne-speed-dating-for-ages-25-39-by-cheeky-events-australia-tickets-919898941497?aff=ebdssbdestsearch,-37.854455,144.993076
Bachata Vibes Thursdays - 5 levels of Bachata classes & party,2024-12-05,18:30,Second Story Studios,"222A Johnston Street Collingwood, VIC 3066",https://www.eventbrite.com.au/e/bachata-vibes-thursdays-5-levels-of-bachata-classes-party-tickets-1004019438167?aff=ebdssbdestsearch,-37.799574,144.9924468
VALENTA: CALL ME UR VANDAL,2024-12-05,19:30,Bad Decisions Bar,"46 Johnston Street Fitzroy, VIC 3065",https://www.eventbrite.com.au/e/valenta-call-me-ur-vandal-tickets-1070317250709?aff=ebdssbdestsearch,-37.7982682,144.9762913
Private Wheel Throwing Workshop with Kiln Firing,2024-12-05,16:00,"Heer Pottery - unit 3/29-31 Clarice Rd, Box Hill South VIC","29-31 Clarice Road #unit 3 Box Hill South, VIC 3128",https://www.eventbrite.com.au/e/private-wheel-throwing-workshop-with-kiln-firing-tickets-1057774515049?aff=ebdssbdestsearch,-37.8333911,145.1339829
Beaded Jewellery Making Workshop for Beginners,2024-12-05,18:00,Abbotsford Convent,"1 Saint Heliers Street Abbotsford, VIC 3067",https://www.eventbrite.com.au/e/beaded-jewellery-making-workshop-for-beginners-tickets-1068847494629?aff=ebdssbdestsearch,-37.8026835,145.0027506
Esther Swift Tiny House Gig,2024-12-05,19:30,105 Park St,"105 Park Street South Melbourne, VIC 3205",https://www.eventbrite.com.au/e/esther-swift-tiny-house-gig-tickets-1043719742847?aff=ebdssbdestsearch,-37.8340094,144.966539
Private Hand Building Workshop with Glaze and Firing,2024-12-05,02:30,"Heer Pottery - unit 3/29-31 Clarice Rd, Box Hill South VIC","29-31 Clarice Road #unit 3 Box Hill South, VIC 3128",https://www.eventbrite.com.au/e/private-hand-building-workshop-with-glaze-and-firing-tickets-1059231723599?aff=ebdssbdestsearch,-37.8333911,145.1339829
Pentridge Prison - H Division Night Tours November 2024 - January 2025,2024-12-05,18:30,Pentridge Prison,"1 Champ Street Coburg, VIC 3058",https://www.eventbrite.com.au/e/pentridge-prison-h-division-night-tours-november-2024-january-2025-tickets-909558482907?aff=ebdssbdestsearch,-37.7370508,144.9677596
Adult Beginner Jazz Classes,2024-12-05,07:30,Dance Factory,"Melbourne VIC, Australia 225 Swan St Richmond Melbourne, VIC",https://www.eventbrite.com.au/e/adult-beginner-jazz-classes-tickets-933189293297?aff=ebdssbdestsearch,-37.8257354,144.9998261
DBSC - Daima Celebration Event 2 - Gameology BRUNSWICK - 05/12/2024,2024-12-05,06:30,Gameology Brunswick,"36 Hope Street Brunswick, VIC 3056",https://www.eventbrite.com.au/e/dbsc-daima-celebration-event-2-gameology-brunswick-05122024-tickets-1052968686687?aff=ebdssbdestsearch,-37.7636924,144.9595539
Learning More About BPD: A Workshop For Families & Friends (1 day),2024-12-05,9:30,Spectrum,"110 Church Street Richmond, VIC 3121",https://www.eventbrite.com.au/e/learning-more-about-bpd-a-workshop-for-families-friends-1-day-registration-763224193107?aff=ebdssbdestsearch,-37.8142371,144.9995624
Fish Talk 2024 Year End Celebration,2024-12-05,17:30,380 Collins St,"380 Collins Street Melbourne, VIC 3000",https://www.eventbrite.com.au/e/fish-talk-2024-year-end-celebration-tickets-1026537630687?aff=ebdssbdestsearch,-37.8164941,144.961916
"""FREE-ish"" LIVE JAZZ: in Melbourne's Historic Bluestone Cellar c1854",2024-12-05,19:00,"Life's Too Short Bar, Tribeca Arcade, Victoria Parade, East Melbourne VIC, Australia","412 Victoria Parade #Shop 2 East Melbourne, VIC 3002",https://www.eventbrite.com.au/e/free-ish-live-jazz-in-melbournes-historic-bluestone-cellar-c1854-tickets-805465849037?aff=ebdssbdestsearch,-37.8096207,144.985273
Adult Beginner Ballet Classes,2024-12-05,06:30,Dance Factory,"Melbourne VIC, Australia 225 Swan St Richmond Melbourne, VIC",https://www.eventbrite.com.au/e/adult-beginner-ballet-classes-tickets-933188220087?aff=ebdssbdestsearch,-37.8257354,144.9998261
Professor Kate Crawford: Mapping Planetary AI,2024-12-05,19:30,State Library Victoria,"328 Swanston St Conversation Quarter Melbourne, VIC 3000",https://www.eventbrite.com.au/e/professor-kate-crawford-mapping-planetary-ai-tickets-1070309678059?aff=ebdssbdestsearch,,
Flesh & Blood - Skirmish Season 10 - Gameology BRUNSWICK - 05/12/2024,2024-12-05,06:30,Gameology Brunswick,"36 Hope Street Brunswick, VIC 3056",https://www.eventbrite.com.au/e/flesh-blood-skirmish-season-10-gameology-brunswick-05122024-tickets-1052962799077?aff=ebdssbdestsearch,-37.7636924,144.9595539
Intro to Saddlery: Barcoo Bridle Making 2 Day Workshop,2024-12-05,10:00,Leffler Leather,"171 Kensington Road West Melbourne, VIC 3003",https://www.eventbrite.com.au/e/intro-to-saddlery-barcoo-bridle-making-2-day-workshop-tickets-1002893530547?aff=ebdssbdestsearch,-37.8000316,144.9177826
RICS Victoria 2024 Christmas Curry Night,2024-12-05,17:30,Gaylords,"33 Spencer Street Melbourne, VIC 3008",https://www.eventbrite.com.au/e/rics-victoria-2024-christmas-curry-night-tickets-998065971187?aff=ebdssbdestsearch,-37.8203025,144.9543906
MIKE (US) Melbourne ,2024-12-05,0:00,The Night Cat,"137-141 Johnston St, Fitzroy VIC 3065, Australia",https://www.facebook.com/events/1017555586818845/,-37.7982971,144.978128
"Blue Lotus Ceremony: Meditation, Herbal Energetics + Sound Healing",2024-12-05,18:00,Tree of Life Integral Centre,"3 Denmark Street Kew, VIC 3101",https://www.eventbrite.com.au/e/blue-lotus-ceremony-meditation-herbal-energetics-sound-healing-tickets-1040482239387?aff=ebdssbdestsearch,-37.8132659,145.027641
Friends On Purpose: Games Night (18-30 y/o),2024-12-05,19:00,Blackwoods Wine & Cocktail Bar,"137 Chapel Street Windsor, VIC 3181",https://www.eventbrite.com.au/e/friends-on-purpose-games-night-18-30-yo-tickets-1082689797329?aff=ebdssbdestsearch,-37.8531136,144.9929717
Dance Concert,2024-12-05,10:00,The Timber Yard,"351 Plummer Street Port Melbourne, VIC 3207",https://www.eventbrite.com.au/e/dance-concert-tickets-941759838027?aff=ebdssbdestsearch,-37.8331097,144.9214734
Bill Barber and the Holding Cell  & Thursday Night Jam!,2024-12-05,0:00,Hume Blues Club Inc,"27 Ballantyne St, Thornbury VIC 3071, Australia",https://www.facebook.com/events/393907173459395/,-37.7588241,144.9985126
Pentridge Prison H Division Tours - November 2024 - January 2025,2024-12-05,10:30,Pentridge,"1 Champ Street Coburg, VIC 3058",https://www.eventbrite.com.au/e/pentridge-prison-h-division-tours-november-2024-january-2025-tickets-909575273127?aff=ebdssbdestsearch,-37.7370508,144.9677596
Kevin Borich Express,2024-12-06,18:00,Bird's Basement,"11 Singers Ln, Melbourne VIC 3000, Australia",https://www.facebook.com/events/941943751083077/,-37.81114416,144.95680390283175
2010 Throwback Party,2024-12-06,21:00,Pre Drinks Bar,"149 Commercial Road South Yarra, VIC 3141",https://www.eventbrite.com/e/2010-throwback-party-tickets-1079102617979?aff=ebdssbdestsearch,-37.8463162,144.9913793
Join Cherry Picking Fun in Melbourne,2024-12-06,10:00,IDP Melbourne,"373 Lonsdale Street Melbourne, VIC 3000",https://www.eventbrite.com.au/e/join-cherry-picking-fun-in-melbourne-tickets-1056204448939?aff=ebdssbdestsearch,-37.8127529,144.9615244
Kickoff summer 2024,2024-12-06,20:00,30-34 Charles St,"30-34 Charles Street Coburg North, VIC 3058",https://www.eventbrite.com/e/kickoff-summer-2024-tickets-1071515615049?aff=ebdssbdestsearch,-37.7288278,144.9551439
Chromakopia Release Party - Melbourne,2024-12-06,22:00,Laundry Bar,"50 Johnston Street Fitzroy, VIC 3065",https://www.eventbrite.com.au/e/chromakopia-release-party-melbourne-tickets-1059261221829?aff=ebdssbdestsearch,-37.79831,144.976368
GTG UNDERGROUND,2024-12-06,21:00,Avalon The Bar,"387 Brunswick Street Fitzroy, VIC 3065",https://www.eventbrite.com/e/gtg-underground-tickets-1077228351999?aff=ebdssbdestsearch,-37.795606,144.978714
"Unreal x Klangkuenstler ""All Night Long"" Australia",2024-12-06,19:00,PICA - Port Melbourne Industrial Centre of the Arts,"11 Woolboard Road Port Melbourne, VIC 3027",https://www.eventbrite.com.au/e/unreal-x-klangkuenstler-all-night-long-australia-tickets-865232964087?aff=ebdssbdestsearch,-37.8301736,144.9248531
Comedy On Tap - Stand Up Comedy. St Luja - St Kilda,2024-12-06,7:45,St LuJa | Cocktail Bar,"9 Fitzroy Street St Kilda, VIC 3182",https://www.eventbrite.com/e/comedy-on-tap-stand-up-comedy-st-luja-st-kilda-tickets-1084902234789?aff=ebdssbdestsearch,-37.8627907,144.9733795
EMO NEVER SLEEPS: DECEMBER,2024-12-06,22:00,Royal Melbourne Hotel,"629 Bourke Street Melbourne, VIC 3000",https://www.eventbrite.com.au/e/emo-never-sleeps-december-tickets-1059451651409?aff=ebdssbdestsearch,-37.8168528,144.9552468
ESAANZ conference 2024,2024-12-06,8:30,The University of Melbourne,"100 Leicester Street Carlton, VIC 3010",https://www.eventbrite.com.au/e/esaanz-conference-2024-tickets-1007302136807?aff=ebdssbdestsearch,-37.8036874,144.9607534
Coffees & Careers,2024-12-06,7:45,Deakin Downtown,"727 Collins Street #Level 12, Tower 2 Docklands, VIC 3008",https://www.eventbrite.com.au/e/coffees-careers-tickets-1089271904589?aff=ebdssbdestsearch,-37.8204513,144.9500917
EUPHORIA Friday 6th DECEMBER 2024,2024-12-06,21:00,Chasers Nightclub,"386 Chapel Street South Yarra, VIC 3141",https://www.eventbrite.com.au/e/euphoria-friday-6th-december-2024-tickets-1072004788179?aff=ebdssbdestsearch,-37.8459028,144.9947039
Joe Camilleri & The Black Sorrows w special guests Doc Halibut @ Brunswick Ballroom,2024-12-06,18:30,Brunswick Ballroom,"314 Sydney Rd, Brunswick VIC 3056, Australia",https://www.facebook.com/events/819422953234413/,-37.7704205,144.9617083
Patrick Topping | 170 Russell - Naarm/Melbourne,2024-12-06,0:00,170 Russell,"170 Russell St, Melbourne VIC 3000, Australia",https://www.facebook.com/events/1444481526247205/,-37.8120109,144.9679369
Devil Dogs @ Mr Boogie Man Bar,2024-12-06,19:00,Mr Boogie Man Bar,"160 Hoddle St, Abbotsford VIC 3067, Australia",https://www.facebook.com/events/1090536999482729/,-37.80245,144.99295304614787
(SOLD OUT) COME TOGETHER: The Music of The Beatles Tribute,2024-12-06,0:00,arcobar heatherton,"8 Arco Ln, Heatherton VIC 3202, Australia",https://www.facebook.com/events/1900967290411691/,-37.94673685,145.07837928457485
One Intimate Night with Reece Mastin | MEMO Music Hall,2024-12-06,19:00,MEMO Music Hall,"88 Acland St, St Kilda VIC 3182, Australia",https://www.facebook.com/events/2947316355436720/,-37.8671902,144.9786817
BELLHOP vs LEGAL NOISE (TAS),2024-12-06,19:00,The Last Chance,"238 Victoria St, Melbourne VIC 3000, Australia",https://www.facebook.com/events/1279653323081333/,-37.8059962,144.9585654
SoC- Spring #47,2024-12-06,0:00,Revolver Upstairs,"Level 2/229 Chapel St, Prahran VIC 3181, Australia",https://www.facebook.com/events/1063247328881371/,-37.8505902,144.9933469
Litmus (NL) — AU Underground,2024-12-06,0:00,Revolver Upstairs,"Level 2/229 Chapel St, Prahran VIC 3181, Australia",https://www.facebook.com/events/2067806156988233/,-37.8505902,144.9933469
Eddie Hale: 'Vanishing Point' Album Launch — Denude Records x Revolver Fridays,2024-12-06,0:00,Revolver Upstairs,"Level 2/229 Chapel St, Prahran VIC 3181, Australia",https://www.facebook.com/events/2873600136151357/,-37.8505902,144.9933469
"Ready, Set, Profits for 2025-Ignite Growth & Profitability in Your Business",2024-12-06,09:00,Treacy Centre,"126 The Avenue Parkville, VIC 3052",https://www.eventbrite.com.au/e/ready-set-profits-for-2025-ignite-growth-profitability-in-your-business-tickets-1079221012099?aff=ebdssbdestsearch,-37.78488919999999,144.9574958
The Bawdies Australia Tour 2024 @NSC,2024-12-06,20:00,Northcote Social Club,"301 High St, Northcote VIC 3070, Australia",https://www.facebook.com/events/1488866081817604/,-37.771471,144.998414
1927 - THE REAL 1927 we all remember & LOVE,2024-12-06,0:00,Musicland Melbourne,"1359 Sydney Rd, Fawkner VIC 3060, Australia",https://www.facebook.com/events/1777316096423447/,-37.6916774,144.9585701581541
3065 PARTYGIRL with GAY ROBERTO,2024-12-06,23:00,The Night Cat,"137-141 Johnston St, Fitzroy VIC 3065, Australia",https://www.facebook.com/events/1329499038214513/,-37.7982971,144.978128
"(Fri, Dec 6) BARB WATERS",2024-12-06,0:00,George Lane St Kilda,"1 George Ln, St Kilda VIC 3182, Australia",https://www.facebook.com/events/1114208440321339/,-37.85997305,144.9780306
VARDOS TRIO - farewell Open Studio show! ,2024-12-06,0:00,Open Studio,"204 High St, Northcote VIC 3070, Australia",https://www.facebook.com/events/2865817033593993/,-37.7742382,144.9981587
Hedy Blaazer with Jim Dusty at Merri Creek Tavern (Naarm),2024-12-06,20:30,The Merri Creek Tavern,"111 High St, Northcote VIC 3070, Australia",https://www.facebook.com/events/1531114227545847/,-37.7794356,144.996838
Absolutely 80s Xmas Show- Scott Carne -Brian Mannix -Wilbur Wilde @L13,2024-12-06,20:00,Lucky 13 Garage,"8 Cochranes Rd, Moorabbin VIC 3189, Australia",https://www.facebook.com/events/406507045830906/,-37.94349189,145.07036236060654
Absolutely 80s Xmas Show -Scott Carne - Brian Mannix – Wilbur Wilde,2024-12-06,20:00,Lucky 13 Garage,"8 Cochranes Rd, Moorabbin VIC 3189, Australia",https://www.facebook.com/events/406776375645564/,-37.94349189,145.07036236060654
THE ALGORYTHM COMMUNITY - XMAS PARTY,2024-12-06,18:00,Mamma Chen's,"42A Albert St, Footscray VIC 3011, Australia",https://www.facebook.com/events/1609453603333332/,-37.8047552,144.89727240000002
FULTON STREET ‘Hard Truths’ Album Launch,2024-12-06,0:00,Wax Music Lounge,"250 Flinders St, Melbourne VIC 3000, Australia",https://www.facebook.com/events/458819236788714/,-37.8176298,144.9661635
Human Forest - Old Growth. A Regenerative Touch Experience.,2024-12-06,18:45,Centre of You,"Upstairs, 217 Chapel St Prahran Melbourne, VIC 3181",https://www.eventbrite.com.au/e/human-forest-old-growth-a-regenerative-touch-experience-tickets-1081562856619?aff=ebdssbdestsearch,-37.8509316,144.9933031
Richard Marx,2024-12-06,19:00,Palais Theatre,"Lower Esplanade, St Kilda VIC 3182, Australia",https://www.facebook.com/events/1249715083066146/,-37.86708671,144.97599656199426
Witchskull 10th Anniversary Special at Cherry Bar!,2024-12-06,20:00,"Cherry Bar, Little Collins Street, Melbourne VIC, Australia","68 Little Collins Street Melbourne, VIC 3000",https://www.eventbrite.com.au/e/witchskull-10th-anniversary-special-at-cherry-bar-tickets-1040318840657?aff=ebdssbdestsearch,-37.8129293,144.9714986
VIC - PMB X HACIENDA LA ESMERALDA,2024-12-06,17:00,Zest Coffee Tasting Experience Studio,"67 North Street Richmond, VIC 3121",https://www.eventbrite.com.au/e/vic-pmb-x-hacienda-la-esmeralda-tickets-1098261964099?aff=ebdssbdestsearch,-37.816371,145.012307
Euphoric Beats,2024-12-06,20:00,Bad Decisions Bar,"46 Johnston Street Fitzroy, VIC 3065",https://www.eventbrite.com.au/e/euphoric-beats-tickets-1098349215069?aff=ebdssbdestsearch,-37.7982682,144.9762913
Brown Tech,2024-12-06,22:00,Chaise Lounge,"105 Queen Street #Basement Melbourne, VIC 3000",https://www.eventbrite.com.au/e/brown-tech-tickets-1093460362379?aff=ebdssbdestsearch,-37.816116,144.960926
Melbourne Magic Show - Impossible Occurrences,2024-12-06,19:30,Melbourne Marriott Hotel,"Cnr Lonsdale & Exhibition St Melbourne, VIC 3000",https://www.eventbrite.com.au/e/melbourne-magic-show-impossible-occurrences-tickets-947627648807?aff=ebdssbdestsearch,-37.8100597,144.9697004
Forro Dance Classes at Dsoul Studio - Spring Edition,2024-12-06,06:30,Dsoul Dance Studio,"439 Elizabeth Street #1 Melbourne, VIC 3000",https://www.eventbrite.com.au/e/forro-dance-classes-at-dsoul-studio-spring-edition-tickets-1038724241167?aff=ebdssbdestsearch,-37.808745,144.9604711
BOOTY BALL IV (+FREE BOTTOMLESS BOOZE) ,2024-12-06,0:00,New Guernica,"64 Smith St, Collingwood VIC 3066, Australia",https://www.facebook.com/events/925250086198839/,-37.80624775,144.98331211946754
Brolga with Canisha & Robert Champion,2024-12-06,19:00,Kindred Bandroom,"3 Harris St, Footscray VIC 3011, Australia",https://www.facebook.com/events/1001758158383548/,-37.8119001,144.9008247
PSYCHIC HARMONY,2024-12-06,21:00,my aeon,"791 Sydney Road Brunswick, VIC 3056",https://www.eventbrite.com.au/e/psychic-harmony-tickets-1056386322929?aff=ebdssbdestsearch,-37.7581868,144.9633301
Intensive Toilet training,2024-12-06,18:00,Melbourne,"Melbourne Melbourne, VIC 3002",https://www.eventbrite.com.au/e/intensive-toilet-training-tickets-1038525065427?aff=ebdssbdestsearch,-37.8161444,144.9804594
Paint in the Dark© - UV Light Disco Party,2024-12-06,19:00,Paint for Fun,"252 Graham Street #Unit 1 Port Melbourne, VIC 3207",https://www.eventbrite.com.au/e/paint-in-the-dark-uv-light-disco-party-tickets-1003407718497?aff=ebdssbdestsearch,-37.8386895,144.9385483
Mobile Phone Tips for Better Photos and Videos for Social Media,2024-12-06,14:00,Photo Barn,"128 South Parade Blackburn, VIC 3130",https://www.eventbrite.com.au/e/mobile-phone-tips-for-better-photos-and-videos-for-social-media-tickets-1043279837077?aff=ebdssbdestsearch,-37.8207045,145.1525658
Euphoric Beats,2024-12-06,0:00,Bad Decisions Bar,"46 Johnston St, Fitzroy VIC 3065, Australia",https://www.facebook.com/events/913719707091856/,-37.798246,144.9762881
OLD & RARE Wine Tastings with Sommelier Antony,2024-12-06,19:00,"Life's Too Short Bar, Tribeca Arcade, Victoria Parade, East Melbourne VIC, Australia","412 Victoria Parade #Shop 2 East Melbourne, VIC 3002",https://www.eventbrite.com.au/e/old-rare-wine-tastings-with-sommelier-antony-tickets-850006049977?aff=ebdssbdestsearch,-37.8096207,144.985273
Christmas Wreath making workshop,2024-12-06,18:30,44 Porter St,"44 Porter Street Prahran, VIC 3181",https://www.eventbrite.co.nz/e/christmas-wreath-making-workshop-tickets-1086551648229?aff=ebdssbdestsearch,-37.8482894,144.9905673
Good Things Official Afterparty // Melbourne,2024-12-06,0:00,Stay Gold,"133 Sydney Rd, Brunswick VIC 3056, Australia",https://www.facebook.com/events/1503960333430229/,-37.7743469,144.9607404
BNI Horizon Networking,2024-12-06,06:45,True South,"298 Beach Road Black Rock, VIC 3193",https://www.eventbrite.com.au/e/bni-horizon-networking-tickets-1022460947217?aff=ebdssbdestsearch,-37.975729,145.0164627
Nerve Melbourne 2024,2024-12-06,22:00,Brown Alley,"585 Lonsdale Street Melbourne, VIC 3000",https://www.eventbrite.com.au/e/nerve-melbourne-2024-tickets-949590128637?aff=ebdssbdestsearch,-37.81452000000001,144.955082
Meet People Social Melbourne | Cultural International Party,2024-12-06,17:30,215 Queen's Restaurant and Bar Melbourne,"215 Queen Street Melbourne, VIC 3000",https://www.eventbrite.com.au/e/meet-people-social-melbourne-cultural-international-party-tickets-951030677357?aff=ebdssbdestsearch,-37.8137947,144.9598607
Kickoff Summer 2024,2024-12-06,20:00,Coburg Cycling Club,"32 Charles Street Coburg North, VIC 3058",https://www.eventbrite.com/e/kickoff-summer-2024-tickets-1045406227167?aff=ebdssbdestsearch,-37.7303208,144.9558895
Ben Camden - 'Sunflowers' EP Launch - Melbourne,2024-12-06,06:30,One2three Bar,"123 Queens Parade Clifton Hill, VIC 3068",https://www.eventbrite.com.au/e/ben-camden-sunflowers-ep-launch-melbourne-tickets-1028557441997?aff=ebdssbdestsearch,-37.7893396,144.9901958
Ben Camden - 'Sunflowers' EP Launch,2024-12-06,19:30,One2three Bar,"123 Queens Parade, Clifton Hill VIC 3068, Australia",https://www.facebook.com/events/1267768264592686/,-37.7892833,144.9901391
EMO NEVER SLEEPS: DECEMBER,2024-12-06,0:00,EMO NEVER SLEEPS,"629 Bourke St, Melbourne VIC 3004, Australia",https://www.facebook.com/events/829633832582459/,-37.8167994,144.9552063
Tou-Can 'Space' Single Launch,2024-12-06,19:30,280 Sydney Rd,"280 Sydney Road Brunswick, VIC 3056",https://www.eventbrite.com.au/e/tou-can-space-single-launch-tickets-1089658220069?aff=ebdssbdestsearch,-37.7711488,144.9616353
GT Events Melbourne,2024-12-06,18:00,Click co. Coffee,"3 Freshwater Place #Shop 16r Southbank, VIC 3006",https://www.eventbrite.com/e/gt-events-melbourne-tickets-1078568169429?aff=ebdssbdestsearch,-37.82152050000001,144.9624773
OFFAIAH at Circus - Seeing Double Fridays,2024-12-06,22:00,Circus Bar,"199 Commercial Road South Yarra, VIC 3141",https://www.eventbrite.com.au/e/offaiah-at-circus-seeing-double-fridays-tickets-1077114481409?aff=ebdssbdestsearch,-37.8465589,144.993086
"Basement Comedy Club: Friday/Saturday, December 6/7",2024-12-06,20:00,Basement Comedy Club,"120 Exhibition Street Melbourne, VIC 3000",https://www.eventbrite.com.au/e/basement-comedy-club-fridaysaturday-december-67-tickets-1061088808189?aff=ebdssbdestsearch,-37.8128722,144.9712049
"Bollywood Club - BALLE 101 at Crown, Melbourne",2024-12-06,21:30,Crown Melbourne,"8 Whiteman Street Southbank, VIC 3006",https://www.eventbrite.com.au/e/bollywood-club-balle-101-at-crown-melbourne-tickets-1054755906309?aff=ebdssbdestsearch,-37.82343669999999,144.9580861
Rnb Pop and Girlie Hip Hop Fridays !,2024-12-06,19:00,Circle.,"36 Saint Edmonds Road #Level 1 Prahran, VIC 3181",https://www.eventbrite.com/e/rnb-pop-and-girlie-hip-hop-fridays-tickets-1010340304047?aff=ebdssbdestsearch,-37.8499197,144.992012
Responding to Disclosures of Sexual Assault Workshop,2024-12-06,09:30,"Ground level (Room Balam Balam), 210 Lonsdale Street, Melbourne, VIC 3000","210 Lonsdale Street Melbourne, VIC 3000",https://www.eventbrite.com.au/e/responding-to-disclosures-of-sexual-assault-workshop-tickets-914389903817?aff=ebdssbdestsearch,-37.8108823,144.9657655
"International Conference on Science, Technology, Engineering and Management",2024-12-06,10:00,Quest Melbourne Airport,"20 Annandale Road Melbourne Airport, VIC 3045",https://www.eventbrite.com/e/international-conference-on-science-technology-engineering-and-management-tickets-1048553520807?aff=ebdssbdestsearch,-37.7030882,144.8571234
"TRASH Indie Sleaze and Party bangers, FRI DEC 6",2024-12-06,21:00,Yah Yahs,"99 Smith Street Fitzroy, VIC 3065",https://www.eventbrite.com.au/e/trash-indie-sleaze-and-party-bangers-fri-dec-6-tickets-1096888084789?aff=ebdssbdestsearch,-37.8058545,144.982966
Data Science & Analytics meetup and chat Melbourne,2024-12-06,17:30,215 Queen's Restaurant and Bar Melbourne,"215 Queen Street Melbourne, VIC 3000",https://www.eventbrite.com.au/e/data-science-analytics-meetup-and-chat-melbourne-tickets-951030536937?aff=ebdssbdestsearch,-37.8137947,144.9598607
"IT Social Melbourne | Data, Technology, Cybersecurity, IT",2024-12-06,17:30,215 Queen's Restaurant and Bar Melbourne,"215 Queen Street Melbourne, VIC 3000",https://www.eventbrite.com.au/e/it-social-melbourne-data-technology-cybersecurity-it-tickets-951030647267?aff=ebdssbdestsearch,-37.8137947,144.9598607
Christmas Gift Crafting! Beginners Lacing & Stamping -  Leather Satchel,2024-12-06,08:30,Leffler Leather,"171 Kensington Road West Melbourne, VIC 3003",https://www.eventbrite.com.au/e/christmas-gift-crafting-beginners-lacing-stamping-leather-satchel-tickets-1066852698139?aff=ebdssbdestsearch,-37.8000316,144.9177826
Bliss Fridays- Bottomless Bliss Drinks Package at Morris Jones,2024-12-06,19:00,Inca | Morris Jones Restaurant & Cocktail Bar,"163 Chapel Street Windsor, VIC 3181",https://www.eventbrite.com/e/bliss-fridays-bottomless-bliss-drinks-package-at-morris-jones-tickets-1095914282119?aff=ebdssbdestsearch,-37.8523323,144.9930063
Art at Aura Cafe for Toddler and Pre-School Kids,2024-12-06,10:00,388 Malvern Rd,"388 Malvern Road Prahran, VIC 3181",https://www.eventbrite.com.au/e/art-at-aura-cafe-for-toddler-and-pre-school-kids-tickets-1001091891797?aff=ebdssbdestsearch,-37.84777,144.999497
Mastering Standard Operating Procedures for Efficiency & Growth,2024-12-06,10:00,Melbourne Incubator Center - Online Event,"120 Collins Street Melbourne, VIC 3000",https://www.eventbrite.com/e/mastering-standard-operating-procedures-for-efficiency-growth-tickets-1083356832449?aff=ebdssbdestsearch,-37.8142665,144.9696592
