Event_Title,Date,Time,Venue,Address,url,Latitude,Longitude,Category
In-Person CAPM Exam Prep Course in Melbourne,2025-06-24,19:00,"Levels 31 & 50/120 Collins St, Melbourne, VIC, 3000, Australia","Levels 31 & 50/120 Collins St Melbourne, VIC 3000",https://www.eventbrite.com/e/in-person-capm-exam-prep-course-in-melbourne-tickets-1320525149269?aff=ebdssbdestsearch,-37.8144291,144.9696066,Talks/Workshops
Women's Singing Circle Thornbury (Mums and Bubs welcome!),2025-06-24,11:00,678 High St,"678 High Street Thornbury, VIC 3071",https://www.eventbrite.com.au/e/womens-singing-circle-thornbury-mums-and-bubs-welcome-tickets-1322719974049?aff=ebdssbdestsearch,-37.7589291,145.0008132,Music
Soldier Boy,2025-06-24,19:30,Theatre Works,"Saint Leonards Avenue St Kilda, VIC 3182",https://www.eventbrite.com.au/e/soldier-boy-tickets-1110904548409?aff=ebdssbdestsearch,-37.8638328,144.9768976,Theatre
Duldig Studio Drawing Workshop Series: The Art of Landscape,2025-06-24,10:00,Duldig Studio Museum & Sculpture Garden,"92 Burke Road East Malvern, VIC 3145",https://www.eventbrite.com.au/e/duldig-studio-drawing-workshop-series-the-art-of-landscape-tickets-1319618316909?aff=ebdssbdestsearch,-37.8689721,145.0498034,Art
Pool and Gym Day Pass,2025-06-24,06:30,Stamford Plaza Melbourne,"111 Little Collins Street Melbourne, VIC 3000",https://www.eventbrite.com.au/e/pool-and-gym-day-pass-tickets-1253892559399?aff=ebdssbdestsearch,-37.8135512,144.9699174,Sport
Floral Drawing Sessions,2025-06-24,11:30,Caelene Nee Glen,"143 Martin Street Brighton, VIC 3186",https://www.eventbrite.com.au/e/floral-drawing-sessions-tickets-1313384290769?aff=ebdssbdestsearch,-37.8971051,145.0033783,Art
Tuesday Language Exchange at Diesel bar,2025-06-24,18:00,Diesel Bar & Eatery,"202 Little Lonsdale Street Melbourne, VIC 3000",https://www.eventbrite.com.au/e/tuesday-language-exchange-at-diesel-bar-tickets-1270326423529?aff=ebdssbdestsearch,-37.8106704,144.9633799,Social/Dating
Wine Tasting at ReWine (Brunswick East),2025-06-24,06:30,"ReWine, Lygon Street, Brunswick VIC, Australia","522 Lygon Street Brunswick, VIC 3056",https://www.eventbrite.com.au/e/wine-tasting-at-rewine-brunswick-east-tickets-1238480170529?aff=ebdssbdestsearch,-37.7623902,144.9736184,Talks/Workshops
Taste Test The Melbourne Comedy Festival Session 3,2025-06-24,18:30,26 Errol St,"26 Errol Street North Melbourne, VIC 3051",https://www.eventbrite.com.au/e/taste-test-the-melbourne-comedy-festival-session-3-tickets-1403623187739?aff=ebdssbdestsearch,-37.80456,144.9498312,Comedy
[English x Japanese Language Exchange] 【英語×日本語の言語交換】,2025-06-24,18:00,Diesel Bar & Eatery,"202 Little Lonsdale Street Melbourne, VIC 3000",https://www.eventbrite.com.au/e/english-x-japanese-language-exchange-tickets-1257681652679?aff=ebdssbdestsearch,-37.8106704,144.9633799,Social/Dating
Spanish Amigos Language Exchange [English x Spanish],2025-06-24,18:00,Encanto Melbourne Cafe Dessert Restaurant & Bar,"556-558 Lonsdale Street Melbourne, VIC 3000",https://www.eventbrite.com.au/e/spanish-amigos-language-exchange-english-x-spanish-tickets-1257678322719?aff=ebdssbdestsearch,-37.8138979,144.9557891,Social/Dating
Strangers in the Night,2025-06-24,18:00,Carlton North,"TBC Carlton North, VIC 3054",https://www.eventbrite.com.au/e/strangers-in-the-night-tickets-1414496319569?aff=ebdssbdestsearch,-37.782195,144.9731431,Theatre
Fresh Networking Bundoora - Guest Registration,2025-06-24,07:30,Mini Me Mango cafe,"24 Scholar Drive Bundoora, VIC 3083",https://www.eventbrite.com.au/e/fresh-networking-bundoora-guest-registration-tickets-894193967227?aff=ebdssbdestsearch,-37.6827562,145.0733925,Business/Networking
Radical Women of Cycling Ride: Melbourne [TCA w/ Grace Brown],2025-06-24,06:30,Walmer Street,"Walmer Street Kew, VIC 3101",https://www.eventbrite.com.au/e/radical-women-of-cycling-ride-melbourne-tca-w-grace-brown-tickets-1383488714989?aff=ebdssbdestsearch,-37.8065411,145.0107132,Sport
Weekly Salsa and Cuban Dance Classes,2025-06-24,19:00,277-283 Queensberry St,"277-283 Queensberry Street Melbourne, VIC 3000",https://www.eventbrite.com/e/weekly-salsa-and-cuban-dance-classes-tickets-1226072548999?aff=ebdssbdestsearch,-37.80426569999999,144.9592835,Social/Dating
Bachata Corazon Tuesday Class & Social,2025-06-24,18:15,The Space Dance & Arts Centre,"318 Chapel Street Prahran, VIC 3181",https://www.eventbrite.com.au/e/bachata-corazon-tuesday-class-social-tickets-1134271920849?aff=ebdssbdestsearch,-37.8476748,144.9942004,Social/Dating
"Forró Dance Classes - Term 2, 2025",2025-06-24,06:45,Errol's,"69/71 Errol Street North Melbourne, VIC 3051",https://www.eventbrite.com.au/e/forro-dance-classes-term-2-2025-registration-1325072781359?aff=ebdssbdestsearch,-37.8035381,144.9493366,Sport
Launch Your Own Successful AI App | AI Startup | Workshop 2025,2025-06-24,13:00,Regus Office,"Melbourne Regus Office Melbourne, VIC",https://www.eventbrite.com/e/launch-your-own-successful-ai-app-ai-startup-workshop-2025-tickets-892931420917?aff=ebdssbdestsearch,-37.8107359,144.966442,Talks/Workshops
Guided Tour - Duldig Studio 1:30pm,2025-06-24,13:30,Duldig Studio Museum & Sculpture Garden,"92 Burke Road East Malvern, VIC 3145",https://www.eventbrite.com.au/e/guided-tour-duldig-studio-130pm-tickets-375588133217?aff=ebdssbdestsearch,-37.8689721,145.0498034,Art
"Breathwork Journeys For Life, Career & Leadership, with Mike McGregor",2025-06-24,19:00,14 Church St,"14 Church Street Hawthorn, VIC 3122",https://www.eventbrite.com.au/e/breathwork-journeys-for-life-career-leadership-with-mike-mcgregor-tickets-1274917365159?aff=ebdssbdestsearch,-37.8136111,145.0226109,Talks/Workshops
Ben Sorensen's Trivia Experience,2025-06-24,19:00,Hofbräuhaus Melbourne,"18-28 Market Lane Melbourne, VIC 3000",https://www.eventbrite.com.au/e/ben-sorensens-trivia-experience-registration-1225783093229?aff=ebdssbdestsearch,-37.8116657,144.9692918,Games
Yoga & Art in an Art Gallery,2025-06-24,18:00,Artful Yoga Gallery,"1 Vale Street St Kilda, VIC 3182",https://www.eventbrite.com.au/e/yoga-art-in-an-art-gallery-tickets-1329332512329?aff=ebdssbdestsearch,-37.8661713,144.9817611,Art
Boot Scooting with Kitty & Lu from Disco Rodeo,2025-06-24,18:30,Victorian Pride Centre,"79-81 Fitzroy Street St Kilda, VIC 3182",https://www.eventbrite.com.au/e/boot-scooting-with-kitty-lu-from-disco-rodeo-tickets-1334808741879?aff=ebdssbdestsearch,-37.860684,144.976346,Sport
CAPM Confirmed In-person Training in Melbourne,2025-06-24,09:00,120 Collins St,"120 Collins Street Levels 31 & 50/120 Collins St Melbourne, VIC 3000",https://www.eventbrite.com/e/capm-confirmed-in-person-training-in-melbourne-tickets-1130748281549?aff=ebdssbdestsearch,-37.8138656,144.9695281,Talks/Workshops
"CISSP Melbourne, VIC In-person Class",2025-06-24,09:00,120 Collins St,"120 Collins Street Levels 31 & 50/120 Collins St Melbourne, VIC 3000",https://www.eventbrite.com/e/cissp-melbourne-vic-in-person-class-tickets-1231628527079?aff=ebdssbdestsearch,-37.8138656,144.9695281,Talks/Workshops
Anime and manga digital and traditional illustrating club,2025-06-24,11:30,City Library,"253 Flinders Lane Melbourne, VIC 3000",https://www.eventbrite.com.au/e/anime-and-manga-digital-and-traditional-illustrating-club-tickets-1108971346149?aff=ebdssbdestsearch,-37.8171117,144.9660625,Art
Collaborate & Connect: Melbourne!,2025-06-24,09:30,Yarraville,"TBC Yarraville, VIC 3013",https://www.eventbrite.com.au/e/collaborate-connect-melbourne-tickets-1270067248329?aff=ebdssbdestsearch,-37.819811,144.8813738,Business/Networking
In-Person Dual Lean Six Sigma Green and Black Belt Training in Melbourne,2025-06-24,19:00,"Levels 31 & 50/120 Collins St, Melbourne, VIC, 3000, Australia","Levels 31 & 50/120 Collins St Melbourne, VIC 3000",https://www.eventbrite.com/e/in-person-dual-lean-six-sigma-green-and-black-belt-training-in-melbourne-tickets-1324194404109?aff=ebdssbdestsearch,-37.8144291,144.9696066,Talks/Workshops
"CAPM Melbourne, VIC In-person Class",2025-06-24,09:00,120 Collins St,"120 Collins Street Levels 31 & 50/120 Collins St Melbourne, VIC 3000",https://www.eventbrite.com/e/capm-melbourne-vic-in-person-class-tickets-1232681386209?aff=ebdssbdestsearch,-37.8138656,144.9695281,Talks/Workshops
"CISA Melbourne, VIC In-person Class",2025-06-24,09:00,120 Collins St,"120 Collins Street Levels 31 & 50/120 Collins St Melbourne, VIC 3000",https://www.eventbrite.com/e/cisa-melbourne-vic-in-person-class-tickets-1236345415419?aff=ebdssbdestsearch,-37.8138656,144.9695281,Talks/Workshops
In-Person LSSBB Exam Prep Course in Melbourne,2025-06-24,19:00,"Levels 31 & 50/120 Collins St, Melbourne, VIC, 3000, Australia","Levels 31 & 50/120 Collins St Melbourne, VIC 3000",https://www.eventbrite.com/e/in-person-lssbb-exam-prep-course-in-melbourne-tickets-1330379935199?aff=ebdssbdestsearch,-37.8144291,144.9696066,Talks/Workshops
ClimateTech & AgTech Pitch Night,2025-06-24,18:00,The Commons Gipps St,"38 Gipps St Collingwood, VIC 3066",https://www.eventbrite.com.au/e/climatetech-agtech-pitch-night-tickets-1088682250919?aff=ebdssbdestsearch,-37.8041282,144.9882914,Business/Networking
"PMP Exam Prep In-Person Course in Melbourne, VIC",2025-06-24,19:00,"Levels 31 & 50/120 Collins St, Melbourne, VIC, 3000, Australia","Levels 31 & 50/120 Collins St Melbourne, VIC 3000",https://www.eventbrite.com/e/pmp-exam-prep-in-person-course-in-melbourne-vic-tickets-1333379527059?aff=ebdssbdestsearch,-37.8144291,144.9696066,Talks/Workshops
"Melbourne, VIC Lean Six Sigma Green and Black Belt Conference By CP",2025-06-24,09:00,120 Collins St,"120 Collins Street Levels 31 & 50/120 Collins St Melbourne, VIC 3000",https://www.eventbrite.com/e/melbourne-vic-lean-six-sigma-green-and-black-belt-conference-by-cp-tickets-1254108184339?aff=ebdssbdestsearch,-37.8138656,144.9695281,Talks/Workshops
Melbourne Lean Six Sigma Black Belt Certification,2025-06-24,09:00,120 Collins St,"120 Collins Street Levels 31 & 50/120 Collins St Melbourne, VIC 3000",https://www.eventbrite.com/e/melbourne-lean-six-sigma-black-belt-certification-tickets-1259144939409?aff=ebdssbdestsearch,-37.8138656,144.9695281,Talks/Workshops
Masterclass in Postural Support: Complex Seating & Lying (MEL),2025-06-24,09:00,Hyatt Place Melbourne Essendon Fields,"1 English Street Essendon Fields, VIC 3041",https://www.eventbrite.co.nz/e/masterclass-in-postural-support-complex-seating-lying-mel-tickets-1232048292609?aff=ebdssbdestsearch,-37.7247979,144.8928317,Talks/Workshops
Six Sigma Green Belt In-Person Training in Melbourne,2025-06-24,09:00,120 Collins St,"120 Collins Street Levels 31 & 50/120 Collins St Melbourne, VIC 3000",https://www.eventbrite.com/e/six-sigma-green-belt-in-person-training-in-melbourne-tickets-1256552023929?aff=ebdssbdestsearch,-37.8138656,144.9695281,Business/Networking
Small Group Breathwork Journey,2025-06-24,19:00,Merkaba Studio,"15 Mills Street Cheltenham, VIC 3192",https://www.eventbrite.com.au/e/small-group-breathwork-journey-tickets-1326156302199?aff=ebdssbdestsearch,-37.9560125,145.0740554,Talks/Workshops
"CISA Exam Prep In-Person Course in Melbourne, VIC",2025-06-24,19:00,"Levels 31 & 50/120 Collins St, Melbourne, VIC, 3000, Australia","Levels 31 & 50/120 Collins St Melbourne, VIC 3000",https://www.eventbrite.com/e/cisa-exam-prep-in-person-course-in-melbourne-vic-tickets-1344984126729?aff=ebdssbdestsearch,-37.8144291,144.9696066,Business/Networking
"4 Day Project Management  In-Person Training In Rockford, IL",2025-06-24,23:00,220 Spencer St,"220 Spencer Street Melbourne, VIC 3000",https://www.eventbrite.com/e/4-day-project-management-in-person-training-in-rockford-il-tickets-959877277777?aff=ebdssbdestsearch,-37.8153932,144.9529478,Talks/Workshops
LUX VIP MELB : Co-Working Day at the Terminus Hotel,2025-06-24,09:00,Terminus Hotel Fitzroy North,"492 Queens Parade Fitzroy North, VIC 3068",https://www.eventbrite.com.au/e/lux-vip-melb-co-working-day-at-the-terminus-hotel-tickets-1295280702449?aff=ebdssbdestsearch,-37.7853246,144.994443,Business/Networking
In-Person LSSGB Exam Prep Course in Melbourne,2025-06-24,19:00,"Levels 31 & 50/120 Collins St, Melbourne, VIC, 3000, Australia","Levels 31 & 50/120 Collins St Melbourne, VIC 3000",https://www.eventbrite.com/e/in-person-lssgb-exam-prep-course-in-melbourne-tickets-1331098835449?aff=ebdssbdestsearch,-37.8144291,144.9696066,Business/Networking
"Melbourne, VIC PMP Certification Training by Certification Planner",2025-06-24,09:00,120 Collins St,"120 Collins Street Levels 31 & 50/120 Collins St Melbourne, VIC 3000",https://www.eventbrite.com/e/melbourne-vic-pmp-certification-training-by-certification-planner-tickets-1237093462849?aff=ebdssbdestsearch,-37.8138656,144.9695281,Talks/Workshops
The Art of Storytelling for Industry and Creativity,2025-06-24,09:00,Australian City Design College,"343 Little Collins Street #802 Melbourne, VIC 3000",https://www.eventbrite.com/e/the-art-of-storytelling-for-industry-and-creativity-tickets-1008882383367?aff=ebdssbdestsearch,-37.8154538,144.9634298,Talks/Workshops
"CISSP Training Melbourne, VIC In-Person Class",2025-06-24,09:00,120 Collins St,"120 Collins Street Levels 31 & 50/120 Collins St Melbourne, VIC 3000",https://www.eventbrite.com/e/cissp-training-melbourne-vic-in-person-class-tickets-1220624273059?aff=ebdssbdestsearch,-37.8138656,144.9695281,Talks/Workshops
"DAVINES - Freehand with Confidence Theory Workshop - Melbourne, VIC",2025-06-25,10:00,shibui,"139 Toorak Road South Yarra, VIC 3141",https://www.eventbrite.com.au/e/davines-freehand-with-confidence-theory-workshop-melbourne-vic-tickets-1253814967319?aff=ebdssbdestsearch,-37.8386846,144.991012,Talks/Workshops
Non Profit Project Management Training - Melbourne - June 2025,2025-06-25,10:00,Melbourne,"Online Melbourne, VIC 3000",https://www.eventbrite.com.au/e/non-profit-project-management-training-melbourne-june-2025-registration-1307737832059?aff=ebdssbdestsearch,-37.8152065,144.963937,Talks/Workshops
Bx Networking Melbourne City - Business Networking in Melbourne VIC,2025-06-25,08:00,Tarator,"75 Dorcas Street South Melbourne, VIC 3205",https://www.eventbrite.com.au/e/bx-networking-melbourne-city-business-networking-in-melbourne-vic-tickets-762856021897?aff=ebdssbdestsearch,-37.8316436,144.9671229,
DBSC - Legends Deck Battle - Gameology CLAYTON SOUTH - 25/06/2025,2025-06-25,06:30,Gameology,"12 Eileen Road Clayton South, VIC 3169",https://www.eventbrite.com.au/e/dbsc-legends-deck-battle-gameology-clayton-south-25062025-tickets-1343419386549?aff=ebdssbdestsearch,-37.9512104,145.1347381,Games
Mindful Calligraphy Workshop for Beginners,2025-06-25,11:30,HEER POTTERY ART,"31 Clarice Road #unit3/29 Box Hill South, VIC 3128",https://www.eventbrite.com.au/e/mindful-calligraphy-workshop-for-beginners-tickets-1029466370627?aff=ebdssbdestsearch,-37.833062,145.1337404,Talks/Workshops
"Fitzroy, Melbourne singles event for ages 26-44  by Cheeky Events Australia",2025-06-25,06:45,Polly Bar,"401 Brunswick Street Fitzroy, VIC 3065",https://www.eventbrite.com.au/e/fitzroy-melbourne-singles-event-for-ages-26-44-by-cheeky-events-australia-tickets-1353025679229?aff=ebdssbdestsearch,-37.7950784,144.9786736,Social/Dating
Root to Rise – Vinyasa Yoga at Flagstaff  Gardens ( Spanish Class),2025-06-25,17:00,Flagstaff Gardens,"309-311 William Street West Melbourne, VIC 3003Mostrar mapa",https://www.eventbrite.com.au/e/entradas-root-to-rise-vinyasa-yoga-at-flagstaff-gardens-spanish-class-1323318303669?aff=ebdssbdestsearch,-37.81170669999999,144.9561169,Talks/Workshops
"No Lights No Lycra- We Dance in The Dark- Wednesdays, LOEV, Moorabbin",2025-06-25,06:45,LOEV,"77 Keys Road Moorabbin, VIC 3189",https://www.eventbrite.com.au/e/no-lights-no-lycra-we-dance-in-the-dark-wednesdays-loev-moorabbin-tickets-1349433675449?aff=ebdssbdestsearch,-37.9484271,145.067727,Social/Dating
Maton Guitars factory Tour,2025-06-25,10:00,6 Clarice Rd,"6 Clarice Road Box Hill South, VIC 3128",https://www.eventbrite.com.au/e/maton-guitars-factory-tour-tickets-1280363364289?aff=ebdssbdestsearch,-37.8356982,145.1335762,Talks/Workshops
BNI Yarra Business Partners Breakfast & Networking Event,2025-06-25,06:45,Au79,"29 Nicholson Street #27 Abbotsford, VIC 3067",https://www.eventbrite.com.au/e/bni-yarra-business-partners-breakfast-networking-event-tickets-1095930340149?aff=ebdssbdestsearch,-37.808833,144.995982,Business/Networking
Walk the Yarra & Abbotsford Convent Experience,2025-06-25,08:00,Abbotsford Convent Parking,"1 Saint Heliers Street #3 Abbotsford, VIC 3067",https://www.eventbrite.com.au/e/walk-the-yarra-abbotsford-convent-experience-registration-1425074940509?aff=ebdssbdestsearch,-37.8031791,145.0037812,Talks/Workshops
All is Good in the Glow of Moonlight,2025-06-25,19:30,TW Explosives Factory,"67 Inkerman Street St Kilda, VIC 3182",https://www.eventbrite.com.au/e/all-is-good-in-the-glow-of-moonlight-tickets-1110971177699?aff=ebdssbdestsearch,-37.8646651,144.9842743,Theatre
Wonderful women’s pilates,2025-06-25,11:00,18 Patrick St,"18 Patrick Street Campbellfield, VIC 3044",https://www.eventbrite.com.au/e/wonderful-womens-pilates-tickets-1236532525069?aff=ebdssbdestsearch,-37.6697126,144.9722713,Sport
Love Notes Candle Making Workshop,2025-06-25,11:30,"Heer Pottery - unit 3/29-31 Clarice Rd, Box Hill South VIC","29-31 Clarice Road #unit 3 Box Hill South, VIC 3128",https://www.eventbrite.com.au/e/love-notes-candle-making-workshop-tickets-1037630951107?aff=ebdssbdestsearch,-37.8333911,145.1339829,Talks/Workshops
Fresh Networking Carlton - Guest Registration,2025-06-25,07:30,Brunetti Classico Carlton,"380 Lygon Street Carlton, VIC 3053",https://www.eventbrite.com.au/e/fresh-networking-carlton-guest-registration-tickets-106051117748?aff=ebdssbdestsearch,-37.7981335,144.9677286,Business/Networking
Bachata ConeXion 'Wednesdays',2025-06-25,18:30,160 Lygon St,"160 Lygon Street Carlton, VIC 3053",https://www.eventbrite.com.au/e/bachata-conexion-wednesdays-tickets-945471108537?aff=ebdssbdestsearch,-37.8034383,144.9667231,Social/Dating
Blowing up Negative Self Talk with TNT,2025-06-25,06:30,TreeHaus Williamstown Lucia Room,"95 Ferguson Street Williamstown, VIC 3016",https://www.eventbrite.com.au/e/blowing-up-negative-self-talk-with-tnt-tickets-1344982852919?aff=ebdssbdestsearch,-37.859053,144.896702,Talks/Workshops
Protecting the Pack: Dingo Conservation for Educators,2025-06-25,18:30,Ceres Community Hall,"Cnr Roberts & Stewart Streets Brunswick East, VIC 3057",https://www.eventbrite.com.au/e/protecting-the-pack-dingo-conservation-for-educators-tickets-1366706609259?aff=ebdssbdestsearch,-37.765435,144.9804242,Talks/Workshops
"PURE - Principles of Balayage Look & Learn - Melbourne, VIC",2025-06-25,13:30,shibui,"139 Toorak Road South Yarra, VIC 3141",https://www.eventbrite.com.au/e/pure-principles-of-balayage-look-learn-melbourne-vic-tickets-1253822259129?aff=ebdssbdestsearch,-37.8386846,144.991012,Talks/Workshops
Creative Movement,2025-06-25,12:30,Bundoora Homestead Art Centre,"7 Prospect Hill Drive Bundoora, VIC 3083",https://www.eventbrite.com.au/e/creative-movement-tickets-1263613234199?aff=ebdssbdestsearch,-37.7051404,145.0499516,Talks/Workshops
Beginners Kokedama Making Workshop,2025-06-25,15:00,be-ras creatives art cafe,"838 Collins Street #shop 6 Docklands, VIC 3008",https://www.eventbrite.com.au/e/beginners-kokedama-making-workshop-tickets-1232440545849?aff=ebdssbdestsearch,-37.8213428,144.9451296,Talks/Workshops
Paint and Sip: Mystery Painting,2025-06-25,18:30,Ladder Art Space,"4/81 Denmark St Kew, VIC 3101",https://www.eventbrite.com.au/e/paint-and-sip-mystery-painting-tickets-1252624626979?aff=ebdssbdestsearch,-37.8089958,145.0285779,Art
✨ Tango Wednesdays ✨,2025-06-25,19:00,1 Pitt St,"1 Pitt Street Brunswick, VIC 3056",https://www.eventbrite.com.au/e/tango-wednesdays-tickets-1351259165539?aff=ebdssbdestsearch,-37.7711984,144.9711714,Social/Dating
Lauren Roberts: Fearless,2025-06-25,00:00,The Wheeler Centre,"176 Little Lonsdale St, Melbourne VIC 3000, Australia",https://www.facebook.com/events/576509455477296/,-37.8101765,144.9652219,Other
Nobuntu,2025-06-25,19:30,Melbourne Recital Centre,"31 Sturt St, Southbank VIC 3006, Australia",https://www.facebook.com/events/8941433602577823/,-37.82408485,144.96758763141432,Other
Generation Women Melbourne: Love is Love- The Pride Show,2025-06-25,00:00,Howler,"7-11 Dawson St, Brunswick VIC 3056, Australia",https://www.facebook.com/events/700973682542756/,-37.7720304,144.9596527,Theatre
ENDS IN TRAGEDY & VENT (DEBUT SHOW),2025-06-25,19:00,The Last Chance,"238 Victoria St, Melbourne VIC 3000, Australia",https://www.facebook.com/events/1173185034559078/,-37.8059962,144.9585654,Music
Tromba Latin Fiesta/Ms Collins VIP Booth Packages,2025-06-26,22:00,Ms Collins,"425 Collins Street Melbourne, VIC 3000",https://www.eventbrite.com.au/e/tromba-latin-fiestams-collins-vip-booth-packages-tickets-206930012237?aff=ebdssbdestsearch,-37.8174496,144.9605918,Social/Dating
"The Pearlies, Live @ The Last Chance Ft. Elo and the Shinkicks & Mt Pleasant",2025-06-26,19:30,The Last Chance,"238 Victoria St, Melbourne VIC 3000, Australia",https://www.facebook.com/events/1708485763885454/,-37.8059962,144.9585654,Music
Matt Dwyer & Thursday Night Jam!,2025-06-26,00:00,Hume Blues Club Inc,"27 Ballantyne St, Thornbury VIC 3071, Australia",https://www.facebook.com/events/988454380111800/,-37.7588241,144.9985126,Music
Melbourne International Comedy Festival Roadshow,2025-06-26,19:30,Melbourne International Comedy Festival,Melbourne,https://www.facebook.com/events/1463613691408869/,-37.8136,144.9631,Comedy
"""FREE"" LIVE JAZZ: in Melbourne's Historic Bluestone Cellar c1854",2025-06-26,18:30,"Life's Too Short Bar, Tribeca Arcade, Victoria Parade, East Melbourne VIC, Australia","412 Victoria Parade #Shop 2 East Melbourne, VIC 3002",https://www.eventbrite.com.au/e/free-live-jazz-in-melbournes-historic-bluestone-cellar-c1854-tickets-805465849037?aff=ebdssbdestsearch,-37.8096207,144.985273,Music
BNI Business Accelerator - Weekly Networking Breakfast,2025-06-26,07:00,The Deck Brighton,"212 Bay Street Brighton, VIC 3186",https://www.eventbrite.com.au/e/bni-business-accelerator-weekly-networking-breakfast-tickets-589061076537?aff=ebdssbdestsearch,-37.9052818,144.999296,Business/Networking
Bringing real value to projects with Value Stream Mapping,2025-06-26,04:30,level 28/2 Southbank Blvd,"2 Southbank Boulevard #level 28 Southbank, VIC 3006",https://www.eventbrite.com.au/e/bringing-real-value-to-projects-with-value-stream-mapping-tickets-1414435948999?aff=ebdssbdestsearch,-37.8219679,144.962911,Talks/Workshops
Fresh Networking Doncaster - Guest Registration,2025-06-26,07:30,Secret Grounds Cafe Doncaster,"87 High Street Doncaster, VIC 3108",https://www.eventbrite.com.au/e/fresh-networking-doncaster-guest-registration-tickets-803814529897?aff=ebdssbdestsearch,-37.7818411,145.110126,Business/Networking
Comedy at Rubix Warehouse,2025-06-26,20:00,Rubix Warehouse,"36 Phoenix Street Brunswick, VIC 3056",https://www.eventbrite.com.au/e/comedy-at-rubix-warehouse-tickets-1394101989579?aff=ebdssbdestsearch,-37.7696975,144.9575115,Comedy
Reflexology student clinics,2025-06-26,09:30,St Joseph's By The Sea,"16 Esplanade (Entrance on Cole Street) Williamstown, VIC 3016",https://www.eventbrite.com.au/e/reflexology-student-clinics-tickets-782991136567?aff=ebdssbdestsearch,-37.8663466,144.9009808,Unknown
Creative Connections: A Night for Melbourne’s Curators,2025-06-26,06:30,SoHigh Gallery,"143a Chapel Street Windsor, VIC 3181",https://www.eventbrite.com.au/e/creative-connections-a-night-for-melbournes-curators-tickets-1381306608249?aff=ebdssbdestsearch,-37.8530576,144.9928172,Business/Networking
Wine Tasting at ReWine,2025-06-26,18:30,ReWine CBD,"460 Queen Street Melbourne, VIC 3000",https://www.eventbrite.com.au/e/wine-tasting-at-rewine-tickets-590789486257?aff=ebdssbdestsearch,-37.8077979,144.9582697,Talks/Workshops
"Kutcha, Cash and The Last Drinks",2025-06-26,12:00,Forum Melbourne,"150 Flinders St, Melbourne VIC 3000, Australia",https://premier.ticketek.com.au/shows/show.aspx?sh=UNCLEKUT25,-37.8166268,144.9695761,
Ballet Classes for 6-12 Year Olds,2025-06-26,05:45,Dance Factory,"225 Swan Street Richmond, VIC 3121",https://www.eventbrite.com.au/e/ballet-classes-for-6-12-year-olds-tickets-1321994554299?aff=ebdssbdestsearch,-37.8257587,144.999827,Sport
Private Hand Building Workshop with Glaze and Firing,2025-06-26,12:00,"Heer Pottery - unit 3/29-31 Clarice Rd, Box Hill South VIC","29-31 Clarice Road #unit 3 Box Hill South, VIC 3128",https://www.eventbrite.com.au/e/private-hand-building-workshop-with-glaze-and-firing-tickets-1059231723599?aff=ebdssbdestsearch,-37.8333911,145.1339829,Talks/Workshops
BNI City Business Networking Meeting,2025-06-26,06:45,DoubleTree by Hilton Hotel Melbourne - Flinders Street,"270 Flinders Street Melbourne, VIC 3000",https://www.eventbrite.com.au/e/bni-city-business-networking-meeting-tickets-586372484887?aff=ebdssbdestsearch,-37.8178194,144.9654173,Business/Networking
Private Hand Building Workshop with Kiln Firing,2025-06-26,12:00,"Heer Pottery - unit 3/29-31 Clarice Rd, Box Hill South VIC","29-31 Clarice Road #unit 3 Box Hill South, VIC 3128",https://www.eventbrite.com.au/e/private-hand-building-workshop-with-kiln-firing-tickets-1059244391489?aff=ebdssbdestsearch,-37.8333911,145.1339829,Art
City LOVE Scavenger Hunt Date Night For Couples - Melbourne Vic Area,2025-06-26,13:00,**Recommended starting point or another city spot of your choice! (MUST USE PDF TICKETS-NO QR CODES),"33 Lincoln Square South Carlton, VIC 3053",https://www.eventbrite.com/e/city-love-scavenger-hunt-date-night-for-couples-melbourne-vic-area-tickets-910283571667?aff=ebdssbdestsearch,-37.8033885,144.9623452,Social/Dating
Musical Theatre Classes for 6-12 Year Olds,2025-06-26,16:15,Dance Factory,"225 Swan Street Richmond, VIC 3121",https://www.eventbrite.com.au/e/musical-theatre-classes-for-6-12-year-olds-tickets-1321990702779?aff=ebdssbdestsearch,-37.8257587,144.999827,Theatre
Deep Roots Collective – Brasileiros Empreendedores em Melbourne – 3ª Edição,2025-06-26,18:00,Insight Academy,"399 Lonsdale Street #Level 2 Melbourne, VIC 3000",https://www.eventbrite.com.au/e/deep-roots-collective-brasileiros-empreendedores-em-melbourne-3a-edicao-tickets-1358061872619?aff=ebdssbdestsearch,-37.8130231,144.9606243,Business/Networking
City Business Networking,2025-06-26,06:45,DoubleTree by Hilton Hotel Melbourne - Flinders Street,"270 Flinders Street Melbourne, VIC 3000",https://www.eventbrite.com.au/e/city-business-networking-tickets-627532916847?aff=ebdssbdestsearch,-37.8178194,144.9654173,Business/Networking
END OF EXAMS BLOCK PARTY - Melb + Monash + Deakin + RMIT + ACU + LaTrobe,2025-06-26,21:00,Brown Alley,"585 Lonsdale St Melbourne, VIC 3000",https://www.eventbrite.com.au/e/end-of-exams-block-party-melb-monash-deakin-rmit-acu-latrobe-tickets-1343902130449?aff=ebdssbdestsearch,-37.8145646,144.9551429,Music
Breathwork and Meditation class,2025-06-26,09:30,Cypress Avenue,"Cypress Avenue Brooklyn, VIC 3012",https://www.eventbrite.com.au/e/breathwork-and-meditation-class-tickets-1323165346169?aff=ebdssbdestsearch,-37.8216107,144.843506,Talks/Workshops
Beyond Basic Airway Management,2025-06-26,09:00,RMH Simulation Centre,"Grattan Street Grattan Street Parkville, VIC 3050",https://www.eventbrite.com.au/e/beyond-basic-airway-management-tickets-1061845421239?aff=ebdssbdestsearch,-37.8002748,144.9624282,Talks/Workshops
ONE PIECE - Starter Deck Party - Gameology CLAYTON SOUTH - 26/06/2025,2025-06-26,06:30,Gameology,"12 Eileen Road Clayton South, VIC 3169",https://www.eventbrite.com.au/e/one-piece-starter-deck-party-gameology-clayton-south-26062025-tickets-1343412526029?aff=ebdssbdestsearch,-37.9512104,145.1347381,Games
Fresh Networking  Fitzroy - Guest Registration,2025-06-26,12:30,Bon Ap' Petit Bistro,"193 Brunswick Street Fitzroy, VIC 3065",https://www.eventbrite.com.au/e/fresh-networking-fitzroy-guest-registration-tickets-1232410134889?aff=ebdssbdestsearch,-37.801728,144.9776947,Business/Networking
Serious Women's Business EOFY Celebration,2025-06-26,18:00,Co-conspirators Brewpub,"377 Victoria Street Brunswick, VIC 3056",https://www.eventbrite.com.au/e/serious-womens-business-eofy-celebration-tickets-1341678298909?aff=ebdssbdestsearch,-37.7663084,144.9569078,Business/Networking
Queer Yoga,2025-06-26,05:45,Bridge Darebin - Preston,"218 High Street Preston, VIC 3072",https://www.eventbrite.com.au/e/queer-yoga-tickets-1352971025759?aff=ebdssbdestsearch,-37.744297,145.003275,Sport
Nature Loving Leaders - Network in the Gardens,2025-06-26,07:00,"Royal Botanical Gardens, Melbourne","Meet at Park Pantry cafe 119 Park Street South Yarra, VIC 3141",https://www.eventbrite.com.au/e/nature-loving-leaders-network-in-the-gardens-tickets-1089239357239?aff=ebdssbdestsearch,-37.8344267,144.9823078,Business/Networking
"Bollywood Club Presents FAKE SHAADI at Crown, Melbourne",2025-06-27,21:30,Crown Melbourne,"8 Whiteman Street Southbank, VIC 3006",https://www.eventbrite.com.au/e/bollywood-club-presents-fake-shaadi-at-crown-melbourne-tickets-1397924352369?aff=ebdssbdestsearch,-37.8239578,144.9594467,Social/Dating
"Paint and Sip Classes Melbourne : Acrylic Art, Canvas & Wine Fun",2025-06-27,18:00,"555 Flinders Ln, Melbourne VIC 3000, Australia","555 Flinders Ln Melbourne, VIC 3008",https://www.eventbrite.com.au/e/paint-and-sip-classes-melbourne-acrylic-art-canvas-wine-fun-tickets-1053155599749?aff=ebdssbdestsearch,-37.8209706,144.9565005,Art
BNI Success Alliance - Glen Waverley Networking,2025-06-27,10:15,ibis Melbourne Glen Waverley,"297 Springvale Road Glen Waverley, VIC 3150",https://www.eventbrite.com.au/e/bni-success-alliance-glen-waverley-networking-tickets-1137269566889?aff=ebdssbdestsearch,-37.8830226,145.1642179,Business/Networking
Startup Pitch Event Melbourne,2025-06-27,18:00,The National Hotel,"344 Victoria Street Richmond, VIC 3121",https://www.eventbrite.com/e/startup-pitch-event-melbourne-tickets-1371610416679?aff=ebdssbdestsearch,-37.8109096,145.0027956,Business/Networking
Bayside & Glen Eira ”How to Add Revenue Through Strategic Online Events”,2025-06-27,11:30,hotel brighton,"286 bay street brighton, VIC 4017",https://www.eventbrite.com.au/e/bayside-glen-eira-how-to-add-revenue-through-strategic-online-events-tickets-1393422095999?aff=ebdssbdestsearch,-37.9056749,145.0017201,Business/Networking
Soul Vibe Fridays - Music meets Healing,2025-06-27,19:00,Artful Yoga Gallery,"1 Vale Street St Kilda, VIC 3182",https://www.eventbrite.com.au/e/soul-vibe-fridays-music-meets-healing-tickets-1270075874129?aff=ebdssbdestsearch,-37.8661713,144.9817611,Music
FRI SAT & SUN SPEED FRIENDING language exchange karaoke boardgames open mic,2025-06-27,17:30,215 Queen's Bar,"215 Queen Street Melbourne, VIC 3000",https://www.eventbrite.com.au/e/fri-sat-sun-speed-friending-language-exchange-karaoke-boardgames-open-mic-tickets-1108456777059?aff=ebdssbdestsearch,-37.8137882,144.9598785,Social/Dating
North West Melb Event “Build a Brand They’ll Remember and Love”,2025-06-27,10:00,Velvet Bean Airport West,"35 Louis Street #shop 1002, 29 Airport West, VIC 3042",https://www.eventbrite.com.au/e/north-west-melb-event-build-a-brand-theyll-remember-and-love-tickets-1403487692469?aff=ebdssbdestsearch,-37.7138477,144.8882103,Business/Networking
Queen Rhapsody – The Australian Queen Tribute Show,2025-06-27,08:00,Altona Sports Club,"11 Altona Rd, Altona VIC 3018, Australia",https://www.facebook.com/events/955643833314999/,-37.85754867,144.85121805353086,Other
MIX'DUP at Lucky 13 Garage,2025-06-27,08:00,Lucky 13 Garage,"8 Cochranes Rd, Moorabbin VIC 3189, Australia",https://www.facebook.com/events/659491520299220/,-37.94349189,145.07036236060654,Music
Isolation x Revolver Fridays,2025-06-27,22:00,Revolver Upstairs,"Level 2/229 Chapel St, Prahran VIC 3181, Australia",https://www.facebook.com/events/1083380200304495/,-37.8505902,144.9933469,Music
DRIVEWAY: 'I Tell You Later' with Chelle Destefano,2025-06-27,14:00,69 Capel St,"69 Capel Street West Melbourne, VIC 3003",https://www.eventbrite.com/e/driveway-i-tell-you-later-with-chelle-destefano-tickets-1394586288129?aff=ebdssbdestsearch,-37.8065292,144.9547461,Art
Divination ft. COUSIN [All Night Long],2025-06-27,00:00,Sub Club Melbourne,"Flinders Ct, Melbourne VIC 3000, Australia",https://www.facebook.com/events/1236167021236175/,-37.81776587,144.96433104920948,Other
Ross Wilson & The Peaceniks - 50 Years of Hits Tour - Ballarat,2025-06-27,20:00,The Flying Saucer Club,"979-985 Nepean Hwy, Moorabbin VIC 3189, Australia",https://www.facebook.com/events/500935415689180/,-37.9369432,145.0373674,Music
The Paul Williamson Quartet plays the music of Thelonious Monk,2025-06-27,19:30,Uptown Jazz Cafe,"1/177 Brunswick St, Fitzroy VIC 3065, Australia",https://www.facebook.com/events/4182957371949546/,-37.79705404,144.97869049756974,Music
"RUSH : Euphoric, uplifting, inclusive AF!",2025-06-27,00:00,24 Moons,"2 Arthurton Rd, Northcote VIC 3070, Australia",https://www.facebook.com/events/706619715142636/,-37.7691418,144.9982614,Music
Melbourne International Comedy Festival Roadshow,2025-06-27,00:00,Melbourne International Comedy Festival,Melbourne,https://www.facebook.com/events/1841111576734993/,-37.8136,144.9631,Comedy
"Melbourne Language Exchange | Make Friends, Learn Languages & Culture",2025-06-27,17:30,215 Queen's Restaurant and Bar,"215 Queen St Melbourne, VIC 3000",https://www.eventbrite.com.au/e/melbourne-language-exchange-make-friends-learn-languages-culture-tickets-1059091584439?aff=ebdssbdestsearch,-37.8137882,144.9598785,Social/Dating
"CHEF'S TABLE: Eight-course ""Surprise"" Degustation",2025-06-27,18:30,"Life's Too Short Bar, Tribeca Arcade, Victoria Parade, East Melbourne VIC, Australia","412 Victoria Parade #Shop 2 East Melbourne, VIC 3002",https://www.eventbrite.com.au/e/chefs-table-eight-course-surprise-degustation-tickets-805462920277?aff=ebdssbdestsearch,-37.8096207,144.985273,Talks/Workshops
"Yin, Reiki, Sound",2025-06-27,06:30,At One Studio,"127 Buckley Street #L1 Essendon, VIC 3040",https://www.eventbrite.com/e/yin-reiki-sound-tickets-1326120936419?aff=ebdssbdestsearch,-37.7570386,144.9154857,Talks/Workshops
Death in a Cold Climate,2025-06-27,20:00,Rising Sun Hotel,"2 Raglan Street Upstairs - no lift South Melbourne, VIC 3205",https://www.eventbrite.com.au/e/death-in-a-cold-climate-tickets-1319532179269?aff=ebdssbdestsearch,-37.8361065,144.9666454,Talks/Workshops
"Lunch & Learn: Mould, Maintenance & Upcoming Changes",2025-06-27,10:00,Kew Golf Club,"120 Belford Road Kew East, VIC 3102",https://www.eventbrite.com.au/e/lunch-learn-mould-maintenance-upcoming-changes-tickets-1302754797669?aff=ebdssbdestsearch,-37.7887533,145.0488538,Talks/Workshops
"CVFFD Elysium: Melbourne Singles Mixer (20s, 30s, and 40s)",2025-06-27,19:00,Melbourne,"TBD Melbourne, VIC VIC 3000",https://www.eventbrite.com/e/cvffd-elysium-melbourne-singles-mixer-20s-30s-and-40s-tickets-1341684667959?aff=ebdssbdestsearch,-37.8152065,144.963937,Social/Dating
Lazr Bees  at The Lomond Hotel.,2025-06-27,21:00,The Lomond Hotel,"225 Nicholson Street Brunswick East, VIC 3057",https://www.eventbrite.com.au/e/lazr-bees-at-the-lomond-hotel-tickets-1397876499239?aff=ebdssbdestsearch,-37.7670861,144.9800057,Music
Venjent - Melbourne,2025-06-27,22:00,170 Russell St,"170 Russell Street Melbourne, VIC 3000",https://www.eventbrite.com.au/e/venjent-melbourne-tickets-1343842592369?aff=ebdssbdestsearch,-37.8119586,144.9679969,Comedy
The Australian Bon Jovi Show-Bon Jovi Forever,2025-06-27,20:30,Olympic Hotel,"31 Albert Street Preston, VIC 3072",https://www.eventbrite.com.au/e/the-australian-bon-jovi-show-bon-jovi-forever-tickets-1324732985019?aff=ebdssbdestsearch,-37.7465792,145.021604,Music
Mighty Morphin Power Rangers the Movie - 30th Anniversary Screening 4K,2025-06-27,06:45,Classic Cinemas,"9 Gordon Street Elsternwick, VIC 3185",https://www.eventbrite.com/e/mighty-morphin-power-rangers-the-movie-30th-anniversary-screening-4k-tickets-1323527108209?aff=ebdssbdestsearch,-37.8839277,145.0008158,Cinema
Data Science & Analytics meetup and chat Melbourne,2025-06-27,17:30,215 Queen's Restaurant and Bar,"215 Queen St Melbourne, VIC 3000",https://www.eventbrite.com.au/e/data-science-analytics-meetup-and-chat-melbourne-tickets-951030536937?aff=ebdssbdestsearch,-37.8137882,144.9598785,Business/Networking
Flower Extract “Trying” single launch,2025-06-27,19:30,280 Sydney Rd,"280 Sydney Road Brunswick, VIC 3056",https://www.eventbrite.com.au/e/flower-extract-trying-single-launch-tickets-1354352407509?aff=ebdssbdestsearch,-37.7711488,144.9616353,Music
Creating Psychological Safety in the Workplace -  Breakfast Bite 2025,2025-06-27,09:30,Melbourne,"Melbourne Melbourne, VIC 3000",https://www.eventbrite.com.au/e/creating-psychological-safety-in-the-workplace-breakfast-bite-2025-tickets-1082755192929?aff=ebdssbdestsearch,-37.8152065,144.963937,Talks/Workshops
TERRESTRIAL AWAKENING ECLECTIC TRIBE TAKEOVER,2025-06-27,21:00,my aeon,"791 Sydney Road Brunswick, VIC 3056",https://www.eventbrite.com/e/terrestrial-awakening-eclectic-tribe-takeover-tickets-1329713722539?aff=ebdssbdestsearch,-37.7581868,144.9633301,Unknown
MANIFEST - Launch Party,2025-06-27,22:00,Chasers Nightclub,"386 Chapel Street South Yarra, VIC 3141",https://www.eventbrite.com.au/e/manifest-launch-party-tickets-1341428230949?aff=ebdssbdestsearch,-37.8459028,144.9947039,Music
Meet People Social Melbourne | Cultural International Party,2025-06-27,17:30,215 Queen's Restaurant and Bar,"215 Queen St Melbourne, VIC 3000",https://www.eventbrite.com.au/e/meet-people-social-melbourne-cultural-international-party-tickets-951030677357?aff=ebdssbdestsearch,-37.8137882,144.9598785,Social/Dating
"Freak Out, Billie Jean.. Michael Jackson Tribute !!!",2025-06-27,21:00,Club Retro,"383 Lonsdale Street Melbourne, VIC 3000",https://www.eventbrite.com.au/e/freak-out-billie-jean-michael-jackson-tribute-tickets-1300289293279?aff=ebdssbdestsearch,-37.8128025,144.9611855,Music
Paint  And Sip: Painting Partners | Melbourne Painting Class,2025-06-27,18:45,Paint for Fun,"252 Graham Street #Unit 1 Port Melbourne, VIC 3207",https://www.eventbrite.com.au/e/paint-and-sip-painting-partners-melbourne-painting-class-tickets-1277354625069?aff=ebdssbdestsearch,-37.8386895,144.9385483,Art
RWND Di Riddim — Urban Multicultural Nightlife Returns,2025-06-27,21:00,Laundry Bar,"50 Johnston Street Fitzroy, VIC 3065",https://www.eventbrite.com.au/e/rwnd-di-riddim-urban-multicultural-nightlife-returns-tickets-1396209342729?aff=ebdssbdestsearch,-37.79831,144.976368,Music
"Bottomless Cocktails at Top Yard, Melb CBD",2025-06-27,17:00,Top Yard Rooftop,"Geddes Lane Melbourne, VIC 3000",https://www.eventbrite.com.au/e/bottomless-cocktails-at-top-yard-melb-cbd-tickets-859288333537?aff=ebdssbdestsearch,-37.8191519,144.9574746,Social/Dating
"IT Social Melbourne | Data, Technology, Cybersecurity, IT",2025-06-27,17:30,215 Queen's Restaurant and Bar,"215 Queen St Melbourne, VIC 3000",https://www.eventbrite.com.au/e/it-social-melbourne-data-technology-cybersecurity-it-tickets-951030647267?aff=ebdssbdestsearch,-37.8137882,144.9598785,Business/Networking
"El Bebe are launching their latest single ""Witch in the Road"" at Stay Gold.",2025-06-27,19:00,Stay Gold,"133 Sydney Road Brunswick, VIC 3056",https://www.eventbrite.com.au/e/el-bebe-are-launching-their-latest-single-witch-in-the-road-at-stay-gold-tickets-1417925105159?aff=ebdssbdestsearch,-37.77435880000001,144.9606103,Music
BNI Business By The Beach  Weekly Networking,2025-06-27,06:45,Royal Brighton Yacht Club,"253 Esplanade Middle Brighton, VIC 3186",https://www.eventbrite.com.au/e/bni-business-by-the-beach-weekly-networking-tickets-884664684887?aff=ebdssbdestsearch,-37.9171926,144.9870773,Business/Networking
2025 - Ratio Cocoa Roasters behind the scenes chocolate factory tour,2025-06-27,15:00,Ratio Cocoa Roasters,"186 Sydney Road Brunswick, VIC 3056",https://www.eventbrite.com.au/e/2025-ratio-cocoa-roasters-behind-the-scenes-chocolate-factory-tour-tickets-775425427327?aff=ebdssbdestsearch,-37.7735618,144.9611677,Talks/Workshops
"BOLLYWOOD CLUB Presents Friday Night at Crown, Melbourne",2025-06-27,21:30,Crown Melbourne,"8 Whiteman Street Southbank, VIC 3006",https://www.eventbrite.com.au/e/bollywood-club-presents-friday-night-at-crown-melbourne-tickets-999153042647?aff=ebdssbdestsearch,-37.8239578,144.9594467,Music
Bottomless Drinks for 2 Hours only $55 at Heroes Rooftop Bar!,2025-06-27,18:00,Heroes Bar Melbourne,"188 Bourke Street Melbourne, VIC 3000",https://www.eventbrite.com.au/e/bottomless-drinks-for-2-hours-only-55-at-heroes-rooftop-bar-tickets-1306686928779?aff=ebdssbdestsearch,-37.8126897,144.9676214,Social/Dating
Young IT Professionals in Melbourne Social,2025-06-27,17:30,215 Queen's Restaurant and Bar,"215 Queen St Melbourne, VIC 3000",https://www.eventbrite.com.au/e/young-it-professionals-in-melbourne-social-tickets-951030446667?aff=ebdssbdestsearch,-37.8137882,144.9598785,Business/Networking
"Bollywood Discoland at Inflation Nightclub, Melbourne",2025-06-28,22:00,Inflation Entertainment Complex,"60 King Street Melbourne, VIC 3000",https://www.eventbrite.com.au/e/bollywood-discoland-at-inflation-nightclub-melbourne-tickets-1365514854689?aff=ebdssbdestsearch,-37.8188863,144.9571605,Music
Bakery Hill Distillery Tour & Tasting,2025-06-28,11:00,411 Macaulay Rd,"411 Macaulay Road Kensington, VIC 3031",https://www.eventbrite.com.au/e/bakery-hill-distillery-tour-tasting-tickets-800417238507?aff=ebdssbdestsearch,-37.794873,144.9330843,Talks/Workshops
Speed Dating | Melbourne Saturday  Night | Ages 27-49 | SpeedMelbourne,2025-06-28,19:00,The Metropolitan Hotel,"265 William Street Melbourne, VIC 3000",https://www.eventbrite.com/e/speed-dating-melbourne-saturday-night-ages-27-49-speedmelbourne-tickets-1362441793079?aff=ebdssbdestsearch,-37.812902,144.9566615,Social/Dating
ReWine Bottling Party,2025-06-28,14:00,ReWine,"522 Lygon Street Brunswick East, VIC 3057",https://www.eventbrite.com.au/e/rewine-bottling-party-tickets-1354422276489?aff=ebdssbdestsearch,-37.7623902,144.9736184,Social/Dating
Solar Plexus Chakradance Journey,2025-06-28,16:00,Wild Grace Studio,"4a Canterbury Rd Toorak, VIC 3142",https://www.eventbrite.com.au/e/solar-plexus-chakradance-journey-tickets-1369999107209?aff=ebdssbdestsearch,-37.84860159999999,145.0094229,Talks/Workshops
Hotel of Beauty - Morning Retreat,2025-06-28,11:00,110 High St,"110 High Street Northcote, VIC 3070",https://www.eventbrite.com/e/hotel-of-beauty-morning-retreat-tickets-1375285027539?aff=ebdssbdestsearch,-37.7794915,144.9972195,Talks/Workshops
Psychic First: the missing key to evidential mediumship - masterclass,2025-06-28,09:00,Highett Neighbourhood Community House,"2 Livingston St Highett, VIC 3190",https://www.eventbrite.com.au/e/psychic-first-the-missing-key-to-evidential-mediumship-masterclass-tickets-1311351480579?aff=ebdssbdestsearch,-37.9476842,145.037952,Talks/Workshops
Adult Beginner Tap,2025-06-28,10:00,Dance Factory,"225 Swan Street Richmond, VIC 3121",https://www.eventbrite.com.au/e/adult-beginner-tap-tickets-1317170224599?aff=ebdssbdestsearch,-37.8257587,144.999827,Art
Speed Dating | Melbourne Saturday Night | Ages 27-49 | Do You Relish?,2025-06-28,19:00,The Metropolitan Hotel,"265 William Street Melbourne, VIC 3000",https://www.eventbrite.com/e/speed-dating-melbourne-saturday-night-ages-27-49-do-you-relish-tickets-1363817227039?aff=ebdssbdestsearch,-37.812902,144.9566615,Social/Dating
Unmarked Melbourne Tour 2025,2025-06-28,15:00,Seaworks Maritime Precinct,"82 Nelson Place #82 Williamstown, VIC 3016",https://www.eventbrite.com/e/unmarked-melbourne-tour-2025-tickets-1319602208729?aff=ebdssbdestsearch,-37.863536,144.9065415,Unknown
MIAA 31st Annual Conference 2025,2025-06-28,08:30,Treacy Centre,"126 The Avenue Parkville, VIC 3052",https://www.eventbrite.com/e/miaa-31st-annual-conference-2025-tickets-1305699966749?aff=ebdssbdestsearch,-37.78488919999999,144.9574958,Talks/Workshops
Soul Collage for Self-Care -Creative Workshop,2025-06-28,10:30,Cheltenham Community Centre,"8 Chesterville Road Cheltenham, VIC 3192",https://www.eventbrite.com.au/e/soul-collage-for-self-care-creative-workshop-tickets-1325467512009?aff=ebdssbdestsearch,-37.9623015,145.0566002,Talks/Workshops
An Introduction to tDCS: Practical Workshop - Melbourne,2025-06-28,11:00,neurocare clinics East Melbourne,"232 Victoria Parade East Melbourne, VIC 3002",https://www.eventbrite.com.au/e/an-introduction-to-tdcs-practical-workshop-melbourne-tickets-1291158683379?aff=ebdssbdestsearch,-37.8091875,144.9796418,Talks/Workshops
DBSC - SB-01 Pre-Release - Gameology CLAYTON SOUTH - 28/06/2025,2025-06-28,11:30,Gameology,"12 Eileen Road Clayton South, VIC 3169",https://www.eventbrite.com.au/e/dbsc-sb-01-pre-release-gameology-clayton-south-28062025-tickets-1343482555489?aff=ebdssbdestsearch,-37.9512104,145.1347381,Games
Log Deadlift Stone Championship 2025,2025-06-28,08:00,Iron Revolution Gym,"22 Disney Avenue #Unit 11 Keilor East, VIC 3033",https://www.eventbrite.com/e/log-deadlift-stone-championship-2025-tickets-1257323381079?aff=ebdssbdestsearch,-37.73328900000001,144.8546905,Sport
SKIP INTRO,2025-06-28,20:00,Shoppingtown Hotel,"19 Williamsons Road Doncaster, VIC 3108",https://www.eventbrite.com.au/e/skip-intro-tickets-1257400993219?aff=ebdssbdestsearch,-37.7851283,145.1227497,Music
Your Psychic Tool Kit - masterclass,2025-06-28,09:00,Highett Neighbourhood Community House,"2 Livingston St Highett, VIC 3190",https://www.eventbrite.com.au/e/your-psychic-tool-kit-masterclass-tickets-1311351480579?aff=ebdssbdestsearch,-37.9476842,145.037952,Talks/Workshops
K-POP Random Play Dance!,2025-06-28,20:00,215 Queen's Restaurant and Bar,"215 Queen Street Melbourne, VIC 3000",https://www.eventbrite.com.au/e/k-pop-random-play-dance-tickets-1054730389989?aff=ebdssbdestsearch,-37.8137882,144.9598785,Music
Saturday Kids’ Bootcamp in Bundoora,2025-06-28,09:30,Genesis Health + Fitness Bundoora,"24 Scholar Drive Bundoora, VIC 3083",https://www.eventbrite.com.au/e/saturday-kids-bootcamp-in-bundoora-tickets-1150304715369?aff=ebdssbdestsearch,-37.6827562,145.0733925,Sport
中国留学生交友活动，交友游戏、K-pop DJ、K-pop 随机 舞蹈，DJ、中国嘻哈DJ，EDM，卡拉OK，最后入场 8.30 点 。 免费食物！,2025-06-28,20:00,215 Queen's Bar,"215 Queen Street Melbourne, VIC 3000",https://www.eventbrite.com.au/e/k-pop-djk-pop-djdjedmok-830-tickets-668476289577?aff=ebdssbdestsearch,-37.8137882,144.9598785,Social/Dating
Bliss n Eso,2025-06-28,12:00,Forum Melbourne,"150 Flinders St, Melbourne VIC 3000, Australia",https://premier.ticketek.com.au/shows/show.aspx?sh=BLISSNE25,-37.8166268,144.9695761,
The Blinds | Casino | Secret Island (first show) @ The Curtin Front Bar (FREE) ,2025-06-28,00:00,THE CURTIN (John Curtin hotel),"29 Lygon St, Carlton VIC 3053, Australia",https://www.facebook.com/events/1898463177596823/,-37.8061581,144.9657057,Music
"""Raw Brit"" back @L13G",2025-06-28,20:00,Lucky 13 Garage,"8 Cochranes Rd, Moorabbin VIC 3189, Australia",https://www.facebook.com/events/4142960732693219/,-37.94349189,145.07036236060654,Music
Melbourne International Comedy Festival Roadshow,2025-06-28,22:00,Melbourne International Comedy Festival,Melbourne,https://www.facebook.com/events/926478252674432/,-37.8136,144.9631,Comedy
"Bliss n Eso at Forum, Melbourne (18+)",2025-06-28,19:00,Forum Melbourne,"154 Flinders St, Melbourne VIC 3000, Australia",https://www.facebook.com/events/613213878322347/,-37.81644145,144.9693768124984,Music
Sticky Carpet Returning to Sunshine City,2025-06-28,20:30,Sunshine City Club,"24 Talmage St, Albion VIC 3020, Australia",https://www.facebook.com/events/1203167734483807/,-37.779028,144.8243730166129,Music
MRB - The Mighty Marty Rose Band Are Back!,2025-06-28,00:00,arcobar heatherton,"8 Arco Ln, Heatherton VIC 3202, Australia",https://www.facebook.com/events/1290522805390095/,-37.94673685,145.07837928457485,Music
Killing Heidi | 25 Years of 'Reflector' Australian Tour | Melbourne,2025-06-28,19:00,Northcote Theatre,"216 High St, Northcote VIC 3070, Australia",https://www.facebook.com/events/1856017235139497/,-37.7737068,144.9982706,Music
Purple is the New Pink - A Fundraiser for the Burner Community,2025-06-28,20:00,24 Moons,"2 Arthurton Rd, Northcote VIC 3070, Australia",https://www.facebook.com/events/1696945147606437/,-37.7691418,144.9982614,Social/Dating
ZVI 'A Choice Not A Feeling' Album Launch,2025-06-28,19:00,Kindred Bandroom,"3 Harris St, Footscray VIC 3011, Australia",https://www.facebook.com/events/1669840903731943/,-37.8119001,144.9008247,Music
Mat Jodrell Quartet is back!,2025-06-28,19:30,Uptown Jazz Cafe,"1/177 Brunswick St, Fitzroy VIC 3065, Australia",https://www.facebook.com/events/730621349302218/,-37.79705404,144.97869049756974,Music
* SOLD OUT! * Ross Wilson & The Peaceniks - 50 Years of Hits Tour - Moonee Ponds,2025-06-28,20:00,The Flying Saucer Club,"979-985 Nepean Hwy, Moorabbin VIC 3189, Australia",https://www.facebook.com/events/606829861928626/,-37.9369432,145.0373674,Music
Palace - Australia 2025,2025-06-28,20:00,Palais Theatre,"Lower Esplanade, St Kilda VIC 3182, Australia",https://www.facebook.com/events/1560022924709690/,-37.86708671,144.97599656199426,Other
Beltin' Elton,2025-06-28,00:00,Ragtime Tavern,"206 Tyler St, Preston VIC 3072, Australia",https://www.facebook.com/events/575549375578081/?event_time_id=575549388911413,-37.7310367,145.0142411,Music
The Cinderella Escape in Melbourne,2025-06-28,10:00,Melbourne,"Melbourne Melbourne, VIC TBA",https://www.eventbrite.com/e/the-cinderella-escape-in-melbourne-tickets-1129514511309?aff=ebdssbdestsearch,-37.8136276,144.9630576,Games
Stay & Play,2025-06-28,10:00,Richmond Library Meeting Room (Level 2),"L2, 415 Church Street Richmond, VIC 3121",https://www.eventbrite.com.au/e/stay-play-tickets-1134282562679?aff=ebdssbdestsearch,-37.8252586,144.9982151,Games
Vocal Body Jam Workshop – A Guided Vocal Exploration with Murray Kyle.,2025-06-28,14:00,Centre of You,"Upstairs, 217 Chapel St Prahran Melbourne, VIC 3181",https://www.eventbrite.com.au/e/vocal-body-jam-workshop-a-guided-vocal-exploration-with-murray-kyle-tickets-1395617983959?aff=ebdssbdestsearch,-37.8509316,144.9933031,Talks/Workshops
ELDER EMO OVER 30’s NIGHT MELBOURNE,2025-06-28,20:00,Deluxe Bar,"595 Mount Alexander Road Moonee Ponds, VIC 3039",https://www.eventbrite.com.au/e/elder-emo-over-30s-night-melbourne-tickets-1318210486049?aff=ebdssbdestsearch,-37.768313,144.925046,Music
BROOKLYN SATURDAYS - RNB HIPHOP THROWBACKS PARTY LATIN,2025-06-28,21:00,The Black Rabbit,"85 Queen Street Melbourne, VIC 3000",https://www.eventbrite.com/e/brooklyn-saturdays-rnb-hiphop-throwbacks-party-latin-tickets-932351106257?aff=ebdssbdestsearch,-37.81636779999999,144.9611486,Music
Asian LGBT+ Social Night DJ+KARAOKE+KPOP (enter by 8pm) NON-ASIAN WELCOME,2025-06-28,20:00,215 Queen's Bar,"215 Queen Street Melbourne, VIC 3000",https://www.eventbrite.com.au/e/asian-lgbt-social-night-djkaraokekpop-enter-by-8pm-non-asian-welcome-tickets-1232670874769?aff=ebdssbdestsearch,-37.8137882,144.9598785,Social/Dating
ELDER EMO OVER 30’s NIGHT MELBOURNE ~ DELUXE,2025-06-28,20:00,Deluxe Bar,"595 Mount Alexander Road Moonee Ponds, VIC 3039",https://www.eventbrite.com.au/e/elder-emo-over-30s-night-melbourne-deluxe-tickets-1318210486049?aff=ebdssbdestsearch,-37.768307,144.9249239,Music
Acro/Cheer Classes for 6-12 Year Olds,2025-06-28,10:15,Dance Factory,"225 Swan Street Richmond, VIC 3121",https://www.eventbrite.com.au/e/acrocheer-classes-for-6-12-year-olds-tickets-1321985206339?aff=ebdssbdestsearch,-37.8257587,144.999827,Sport
Cabaret Ridiculous,2025-06-28,17:00,Speakeasy Theatre,"522 Flinders Street Melbourne, VIC 3000",https://www.eventbrite.com.au/e/cabaret-ridiculous-tickets-1114249944579?aff=ebdssbdestsearch,-37.8203505,144.956935,Theatre
Intro To Intimacy with Eve Morey,2025-06-28,10:00,16th Street Actors Studio,"715 Glen Huntly Road Caulfield, VIC 3162",https://www.eventbrite.com.au/e/intro-to-intimacy-with-eve-morey-tickets-1391923333159?aff=ebdssbdestsearch,-37.8863709,145.0197583,Talks/Workshops
Hip Hop/Jazz Classes for 6-12 Year Olds,2025-06-28,09:30,Dance Factory,"225 Swan Street Richmond, VIC 3121",https://www.eventbrite.com.au/e/hip-hopjazz-classes-for-6-12-year-olds-tickets-1321983039859?aff=ebdssbdestsearch,-37.8257587,144.999827,Art
Adult Beginner Lyrical,2025-06-28,12:00,Dance Factory,"225 Swan Street Richmond, VIC 3121",https://www.eventbrite.com.au/e/adult-beginner-lyrical-tickets-1317177105179?aff=ebdssbdestsearch,-37.8257587,144.999827,Art
Burlesque Bingo,2025-06-28,16:00,Speakeasy Theatre,"522 Flinders Street Melbourne, VIC 3000",https://www.eventbrite.com.au/e/burlesque-bingo-tickets-1112184165779?aff=ebdssbdestsearch,-37.8203505,144.956935,Games
Universal Yoga Master Class with Rita Madou - Melbourne 28 Jun 2025,2025-06-28,15:00,2 Chesterville Rd,"2 Chesterville Road Cheltenham, VIC 3192",https://www.eventbrite.com.au/e/universal-yoga-master-class-with-rita-madou-melbourne-28-jun-2025-tickets-1375350021939?aff=ebdssbdestsearch,-37.9627761,145.0564266,Talks/Workshops
Paint and Sip Class: Poppies à la Van Gogh,2025-06-28,14:00,Ladder Art Space,"4/81 Denmark St Kew, VIC 3101",https://www.eventbrite.com.au/e/paint-and-sip-class-poppies-a-la-van-gogh-tickets-106621732472?aff=ebdssbdestsearch,-37.8089958,145.0285779,Art
High Cheese at Rippon Lea Estate  presented by Showtime Event Group.,2025-06-28,11:00,Rippon Lea Estate,"192 Hotham Street Elsternwick, VIC 3185",https://www.eventbrite.com.au/e/high-cheese-at-rippon-lea-estate-presented-by-showtime-event-group-tickets-1054614904569?aff=ebdssbdestsearch,-37.8798368,144.9987066,Social/Dating
Japanese Art Workshop: Craft a One-of-a-Kind Photo Frame,2025-06-28,12:00,29 Victoria St,"29 Victoria Street Box Hill, VIC 3128",https://www.eventbrite.com.au/e/japanese-art-workshop-craft-a-one-of-a-kind-photo-frame-tickets-1320683202009?aff=ebdssbdestsearch,-37.8227931,145.129747,Talks/Workshops
rTMS in Depression: Practical Workshop - Melbourne,2025-06-28,14:00,neurocare clinics East Melbourne,"232 Victoria Parade East Melbourne, VIC 3002",https://www.eventbrite.com.au/e/rtms-in-depression-practical-workshop-melbourne-tickets-1002153727777?aff=ebdssbdestsearch,-37.8091875,144.9796418,Talks/Workshops
Adult Beginner Ballet,2025-06-28,11:00,Dance Factory,"225 Swan Street Richmond, VIC 3121",https://www.eventbrite.com.au/e/adult-beginner-ballet-tickets-1317173614739?aff=ebdssbdestsearch,-37.8257587,144.999827,Art
Techno vs Psytrance | June 28 | My Aeon,2025-06-28,21:00,my aeon,"791 Sydney Road Brunswick, VIC 3056",https://www.eventbrite.com.au/e/techno-vs-psytrance-june-28-my-aeon-tickets-1418060329619?aff=ebdssbdestsearch,-37.7581868,144.9633301,Music
Paint Your Dog | Melbourne Painting Class,2025-06-28,13:45,Paint for Fun's Studios,"252 Graham Street Port Melbourne, VIC 3207",https://www.eventbrite.com.au/e/paint-your-dog-melbourne-painting-class-tickets-1338025523359?aff=ebdssbdestsearch,-37.8386778,144.9385789,Art
Japanese Animation Art Workshop by The Warehouse Melbourne,2025-06-28,02:30,Studio Take Care,"1 Pitt Street Brunswick, VIC 3056",https://www.eventbrite.com.au/e/japanese-animation-art-workshop-by-the-warehouse-melbourne-tickets-1123361718139?aff=ebdssbdestsearch,-37.7711984,144.9711714,Art
Temptations MEL,2025-06-28,21:00,Ovia Bar Melbourne,"345 Clarendon Street South Melbourne, VIC 3205",https://www.eventbrite.com/e/temptations-mel-tickets-1411054174019?aff=ebdssbdestsearch,-37.83531900000001,144.9619407,Music
Sat 28th June : Casting Workshop  Stevie Ray : MELBOURNE,2025-06-28,10:00,Justin Lehmann Studio,"263 Barkly Street Footscray, VIC 3011",https://www.eventbrite.com.au/e/sat-28th-june-casting-workshop-stevie-ray-melbourne-tickets-1143780029859?aff=ebdssbdestsearch,-37.7994241,144.8954512,Talks/Workshops
Paint and Sip at Rhythm & Tonic,2025-06-28,15:00,44 Bay Rd,"44 Bay Road Sandringham, VIC 3191",https://www.eventbrite.com/e/paint-and-sip-at-rhythm-tonic-tickets-1377033296659?aff=ebdssbdestsearch,-37.9522274,145.0053997,Art
EMO NEVER SLEEPS: SATURDAY 28TH JUNE,2025-06-28,22:00,Royal Melbourne Hotel,"629 Bourke Street Melbourne, VIC 3000",https://www.eventbrite.com.au/e/emo-never-sleeps-saturday-28th-june-tickets-1332891968759?aff=ebdssbdestsearch,-37.8168528,144.9552468,Music
"Women's Dance Classes: Tango, Conditioning, and Salsa",2025-06-28,15:30,I.AM.DANCE,"Kerr Street Fitzroy, VIC 3065",https://www.eventbrite.com.au/e/womens-dance-classes-tango-conditioning-and-salsa-tickets-1353065999829?aff=ebdssbdestsearch,-37.7968685,144.9798521,Sport
Red Rave MELB - Sat 28th June,2025-06-28,22:00,Chasers Nightclub,"386 Chapel Street South Yarra, VIC 3141",https://www.eventbrite.com.au/e/red-rave-melb-sat-28th-june-tickets-1344917637859?aff=ebdssbdestsearch,-37.8459028,144.9947039,Music
How to Train Your Dragon Live Action @ Lido,2025-06-28,05:45,Lido Cinemas,"675 Glenferrie Road Hawthorn, VIC 3122",https://www.eventbrite.com.au/e/how-to-train-your-dragon-live-action-lido-tickets-1397832337149?aff=ebdssbdestsearch,-37.820536,145.0353953,Cinema
Antipasto Making & Aperitivo Masterclass,2025-06-28,02:30,Henry and the Fox,"525 Little Collins Street Melbourne, VIC 3000",https://www.eventbrite.com.au/e/antipasto-making-aperitivo-masterclass-tickets-1340107310039?aff=ebdssbdestsearch,-37.8172112,144.9572687,Talks/Workshops
VANGUARD - Vanguard Day June - Gameology CLAYTON SOUTH - 29/06/2025,2025-06-29,12:30,Gameology,"12 Eileen Road Clayton South, VIC 3169",https://www.eventbrite.com.au/e/vanguard-vanguard-day-june-gameology-clayton-south-29062025-tickets-1343497690759?aff=ebdssbdestsearch,-37.9512104,145.1347381,Games
Collingwood Puppy Pub Crawl,2025-06-29,15:00,The Yorkshire Stingo Hotel,"48 Hoddle Street Abbotsford, VIC 3067",https://www.eventbrite.com.au/e/collingwood-puppy-pub-crawl-tickets-155644194977?aff=ebdssbdestsearch,-37.8073236,144.9921058,Social/Dating
"Sunday School: Mud Bath, Gangrene Dream, Le Bonge",2025-06-29,16:00,Bergy Bandroom,"64 Sydney Rd, Brunswick VIC 3056, Australia",https://www.facebook.com/events/669381022603693/,-37.776327,144.9607158,Music
Bon But Not Forgotten celebrate AC/DC - Corner Hotel - with guests Poundcake - Van Halen Show,2025-06-29,13:00,The Corner Hotel,"57 Swan St, Richmond VIC 3121",https://www.facebook.com/events/1259871838599499/,-37.82464307,144.9926962,Music
"Конкурс ""ЛИРА-2025""",2025-06-29,14:00,Russian House Melbourne,"118 Greeves St, Fitzroy VIC 3065, Australia",https://www.facebook.com/events/593382906564877/,-37.79982794,144.97840274927256,Music
Ricky Muscat - Nothin' But Love Single Launch,2025-06-29,15:00,Kindred Bandroom,"3 Harris St, Footscray VIC 3011, Australia",https://www.facebook.com/events/690658270371491/,-37.8119001,144.9008247,Music
Maur (UK) | Winter Series pres. by Thick as Thieves,2025-06-29,00:00,Revolver Upstairs,"Level 2/229 Chapel St, Prahran VIC 3181, Australia",https://www.facebook.com/events/449820224823807/,-37.8505902,144.9933469,Music
Garden Party High Tea at Gardens House,2025-06-29,10:30,Gardens House,"Birdwood Avenue Melbourne, VIC 3004",https://www.eventbrite.com.au/e/garden-party-high-tea-at-gardens-house-tickets-1329227698829?aff=ebdssbdestsearch,-37.8311108,144.9767163,Social/Dating
Yoga for Tight Bodies,2025-06-29,11:00,Ashtanga Yoga Centre of Melbourne,"110-112 Argyle Street #Level 1 Fitzroy, VIC 3065",https://www.eventbrite.com.au/e/yoga-for-tight-bodies-tickets-1203694224829?aff=ebdssbdestsearch,-37.7977228,144.9791885,Talks/Workshops
Intro to Risograph Workshop with the Melbourne Art Book Fair,2025-06-29,10:00,Nicholas Building,"37 Swanston Street 5th Floor, Room 512 Melbourne, VIC 3000",https://www.eventbrite.com.au/e/intro-to-risograph-workshop-with-the-melbourne-art-book-fair-tickets-1277765814949?aff=ebdssbdestsearch,-37.8167028,144.9666895,Talks/Workshops
Baby Safe Program:  Baby First Aid/Baby Basic Life Support Small Group 2025,2025-06-29,13:30,Prahran High School,"138 High Street Windsor, VIC 3181",https://www.eventbrite.com.au/e/baby-safe-program-baby-first-aidbaby-basic-life-support-small-group-2025-tickets-1095760853209?aff=ebdssbdestsearch,-37.8517332,144.9913415,Talks/Workshops
POOF DOOF Drag Brunch at The Espy - Every Sunday,2025-06-29,12:00,Hotel Esplanade,"11 The Esplanade St Kilda, VIC 3182",https://www.eventbrite.com.au/e/poof-doof-drag-brunch-at-the-espy-every-sunday-tickets-1319647143129?aff=ebdssbdestsearch,-37.8641604,144.9730092,Music
Reiki  - Level 2 (Okuden) in person,2025-06-29,09:00,Hands Of Mine,"1354A Malvern Road Malvern, VIC 3144",https://www.eventbrite.com.au/e/reiki-level-2-okuden-in-person-tickets-1305708652729?aff=ebdssbdestsearch,-37.8533708,145.0410442,Talks/Workshops
BREATHWORK + AURA PHOTOGRAPHY EXPERIENCE,2025-06-29,19:00,14 Pakington St,"14 Pakington Street St Kilda, VIC 3182",https://www.eventbrite.com.au/e/breathwork-aura-photography-experience-tickets-1384658985299?aff=ebdssbdestsearch,-37.8655601,144.9873231,Talks/Workshops
Tantra Nights | Melbourne,2025-06-29,07:30,level 1/216 York St,"216 York Street #level 1 South Melbourne, VIC 3205",https://www.eventbrite.com.au/e/tantra-nights-melbourne-tickets-1302719381739?aff=ebdssbdestsearch,-37.8322093,144.9538918,Social/Dating
8Foot Felix Residency at The Lomond,2025-06-29,17:00,The Lomond Hotel,"225 Nicholson Street Brunswick East, VIC 3057",https://www.eventbrite.com.au/e/8foot-felix-residency-at-the-lomond-tickets-1326148127749?aff=ebdssbdestsearch,-37.7670861,144.9800057,Music
Sun 29th June : Casting Workshop  Stevie Ray : MELBOURNE,2025-06-29,10:00,Justin Lehmann Studio,"263 Barkly Street Footscray, VIC 3011",https://www.eventbrite.com.au/e/sun-29th-june-casting-workshop-stevie-ray-melbourne-tickets-1143781454119?aff=ebdssbdestsearch,-37.7994241,144.8954512,Talks/Workshops
INTRO TO GROOV3: Sundays in Richmond,2025-06-29,10:30,FOREVER DANCE,"432 Church Street #Unit 2, Level 1 Richmond, VIC 3121",https://www.eventbrite.com.au/e/intro-to-groov3-sundays-in-richmond-tickets-1306172339629?aff=ebdssbdestsearch,-37.8238936,144.9982667,Sport
Yoga Nidra Sound Journey,2025-06-29,19:00,Merkaba Studio,"15 Mills Street Cheltenham, VIC 3192",https://www.eventbrite.com.au/e/yoga-nidra-sound-journey-tickets-1352695050309?aff=ebdssbdestsearch,-37.9560125,145.0740554,Talks/Workshops
Sunday Singles Mingle 40+,2025-06-29,15:00,Pier Port Melbourne,"1 Bay Street Port Melbourne, VIC 3207",https://www.eventbrite.com.au/e/sunday-singles-mingle-40-tickets-1351237871849?aff=ebdssbdestsearch,-37.8428269,144.9380888,Social/Dating
Iconic Wire & Wine: Sculpting Workshop for the Stars,2025-06-29,01:45,Paint for Fun,"252 Graham Street #Unit 1 Port Melbourne, VIC 3207",https://www.eventbrite.com.au/e/iconic-wire-wine-sculpting-workshop-for-the-stars-tickets-1277356360259?aff=ebdssbdestsearch,-37.8386895,144.9385483,Art
SUNDAY - Fitzroy Market (May and June 2025),2025-06-29,10:00,Fitzroy Mills Market,"75 Rose Street Fitzroy, VIC 3065",https://www.eventbrite.com.au/e/sunday-fitzroy-market-may-and-june-2025-tickets-1298688344799?aff=ebdssbdestsearch,-37.7956693,144.9779514,Unknown
Red Sands Film Festival 2025,2025-06-29,15:00,Sun Theatre,"8 Ballarat Street Yarraville, VIC 3013",https://www.eventbrite.com/e/red-sands-film-festival-2025-tickets-1322679332489?aff=ebdssbdestsearch,-37.8157446,144.8905291,Cinema
Professional Photoshoot: Your Photoshoot - Their Rescue,2025-06-29,10:30,8-14 Albert St,"8-14 Albert Street 4 Preston, VIC 3072",https://www.eventbrite.com.au/e/professional-photoshoot-your-photoshoot-their-rescue-tickets-1352025116519?aff=ebdssbdestsearch,-37.7524699,145.0211718,Art
Personal Values Certification | Map of Me (Melbourne),2025-06-30,09:00,Melbourne CBD,"Melbourne, VIC 3000",https://www.eventbrite.com.au/e/personal-values-certification-map-of-me-melbourne-registration-1119454361129?aff=ebdssbdestsearch,-37.8152065,144.963937,Talks/Workshops
Puppy Yoga at Fitness Nation,2025-06-30,18:00,Fitness Nation Preston,"140 Bell Street Preston, VIC 3072",https://www.eventbrite.com/e/puppy-yoga-at-fitness-nation-tickets-1409940141919?aff=ebdssbdestsearch,-37.7465672,145.0204181,Talks/Workshops
WOMEN'S CIRCLES,2025-06-30,18:30,The Healing Garden Williamstown,"139 Nelson Place Williamstown, VIC 3016",https://www.eventbrite.com.au/e/womens-circles-tickets-1266853616269?aff=ebdssbdestsearch,-37.8634012,144.9046769,Talks/Workshops
Sensory Tray Session,2025-06-30,10:00,Fairfield Community Room,"121 Station Street Fairfield, VIC 3078",https://www.eventbrite.com.au/e/sensory-tray-session-tickets-1392254483639?aff=ebdssbdestsearch,-37.7775115,145.0190887,Talks/Workshops
"Social Sanctuary (NSC 20th Birthday Celebration!) with Owelu Dreamhouse, Eggy + Cong Josie",2025-06-30,19:00,Northcote Social Club,"301 High St, Northcote VIC 3070, Australia",https://www.facebook.com/events/1775952473265181/,-37.771471,144.998414,Music
Chris Hadfield,2025-07-01,12:00,Hamer Hall,"32 Southgate Ave, Southbank VIC 3006, Australia",https://premier.ticketek.com.au/shows/show.aspx?sh=CHRISHAD25,-37.8201455,144.9679946,
"FAULTY TOWERS | The Genuine, Award Winning Dining Experience (Only Four Tables Left!)",2025-07-01,19:00,arcobar heatherton,"8 Arco Ln, Heatherton VIC 3202, Australia",https://www.facebook.com/events/462110646891823/,-37.94673685,145.07837928457485,Theatre
Fresh Networking Melbourne CBD  -  Guest Registration,2025-07-01,07:30,Krimper Cafe,"20 Guildford Lane Melbourne, VIC 3000",https://www.eventbrite.com.au/e/fresh-networking-melbourne-cbd-guest-registration-tickets-105049435690?aff=ebdssbdestsearch,-37.8111993,144.9601337,Business/Networking
Generative AI for Society and Workplace | Melbourne,2025-07-01,15:00,Melbourne,"Online Event Melbourne, VIC 3000",https://www.eventbrite.com.au/e/generative-ai-for-society-and-workplace-melbourne-tickets-1147867816539?aff=ebdssbdestsearch,-37.8279601,144.9683224,Talks/Workshops
Christmas in July at The Stampton Bar and Restaurant,2025-07-01,17:00,The Stampton,"215 Bell Street Preston, VIC 3072",https://www.eventbrite.com/e/christmas-in-july-at-the-stampton-bar-and-restaurant-tickets-1420365424219?aff=ebdssbdestsearch,-37.7463305,145.008329,Social/Dating
Comedy at Jambo!,2025-07-01,19:00,Jambo Bar & Cafe,"195 Barkly Street Footscray, VIC 3011",https://www.eventbrite.com.au/e/comedy-at-jambo-tickets-623426745177?aff=ebdssbdestsearch,-37.7997437,144.8977187,Comedy
Stone Lithography,2025-07-01,10:00,Australian Print Workshop,"210 Gertrude St Fitzroy, VIC 3065",https://www.eventbrite.com.au/e/stone-lithography-tickets-1204027531759?aff=ebdssbdestsearch,-37.8064244,144.9815567,Talks/Workshops
Mindfulness Based Stillness Meditation | 8 Week Workshop Round 2/2025,2025-07-01,19:00,CoRize,"17 Everage Street #201 Moonee Ponds, VIC 3039",https://www.eventbrite.com.au/e/mindfulness-based-stillness-meditation-8-week-workshop-round-22025-tickets-1251598086569?aff=ebdssbdestsearch,-37.7654176,144.9220455,Talks/Workshops
Fresh Networking Balwyn  -  Guest Registration,2025-07-01,07:30,Stranger Coffeehouse & Kitchen,"208 Whitehorse Road Balwyn, VIC 3103",https://www.eventbrite.com.au/e/fresh-networking-balwyn-guest-registration-tickets-1088342865809?aff=ebdssbdestsearch,-37.8129294,145.0799533,Business/Networking
Non Profit Grant Writing Training - Melbourne - July 2025,2025-07-02,10:00,Melbourne,"Online Melbourne, VIC 3000",https://www.eventbrite.com.au/e/non-profit-grant-writing-training-melbourne-july-2025-registration-1323237321449?aff=ebdssbdestsearch,-37.8152065,144.963937,Talks/Workshops
Nature Writing Workshop,2025-07-02,10:00,Williamstown Botanic Gardens,"Osborne Street Williamstown, VIC 3016",https://www.eventbrite.com.au/e/nature-writing-workshop-tickets-1311290327669?aff=ebdssbdestsearch,-37.8658594,144.895693,Talks/Workshops
Speed Networking Commercial Lenders & Brokers Melbourne,2025-07-02,09:00,"Crowne Plaza Melbourne, an IHG Hotel","1-5 Spencer Street Docklands, VIC 3008",https://www.eventbrite.com.au/e/speed-networking-commercial-lenders-brokers-melbourne-tickets-1057817894799?aff=ebdssbdestsearch,-37.8228353,144.9551136,Business/Networking
Queer Writers Naarm -July,2025-07-02,18:30,The Hearth,"81 Denmark St Kew, VIC 3101",https://www.eventbrite.com.au/e/queer-writers-naarm-july-tickets-1344672153609?aff=ebdssbdestsearch,-37.8090764,145.028332,Talks/Workshops
Meditation and Mindfulness Session,2025-07-02,19:00,"Oracle of Crystals, 228 Glenferrie Road, Malvern VIC, Australia","228 Glenferrie Road Malvern, VIC 3144",https://www.eventbrite.com.au/e/meditation-and-mindfulness-session-tickets-1388656170989?aff=ebdssbdestsearch,-37.8585334,145.0292064,Talks/Workshops
Who Killed Anna Key?,2025-07-03,19:00,The Butterfly Club,"5 Carson Place Melbourne, VIC 3000",https://www.eventbrite.co.uk/e/who-killed-anna-key-tickets-1329354558269?aff=ebdssbdestsearch,-37.8154472,144.9652725,Theatre
Fresh Networking  South Melbourne - Guest Registration,2025-07-03,12:30,The Montague Hotel,"355 Park Street South Melbourne, VIC 3205",https://www.eventbrite.com.au/e/fresh-networking-south-melbourne-guest-registration-tickets-575146868767?aff=ebdssbdestsearch,-37.8376086,144.9540214,Business/Networking
Non Profit Governance Training - Melbourne - July 2025,2025-07-03,10:00,Melbourne,"Online Melbourne, VIC 3000",https://www.eventbrite.com.au/e/non-profit-governance-training-melbourne-july-2025-registration-1349449221949?aff=ebdssbdestsearch,-37.8152065,144.963937,Talks/Workshops
ASSCR VIC EMCR Symposium,2025-07-03,09:00,Learning and Teaching Building,"19 Ancora Imparo Way Clayton, VIC 3168",https://www.eventbrite.com.au/e/asscr-vic-emcr-symposium-tickets-1289072192629?aff=ebdssbdestsearch,-37.9139139,145.1325609,Talks/Workshops
Intersectional Practice,2025-07-03,09:30,100 Drummond St,"100 Drummond Street Carlton, VIC 3053",https://www.eventbrite.com.au/e/intersectional-practice-tickets-1252544356889?aff=ebdssbdestsearch,-37.8043894,144.9681606,Talks/Workshops
Paint n Sip in Melbourne | Midnight Glow,2025-07-03,18:30,Ladder Art Space,"4/81 Denmark St Kew, VIC 3101",https://www.eventbrite.com.au/e/paint-n-sip-in-melbourne-midnight-glow-tickets-130845647855?aff=ebdssbdestsearch,-37.8089958,145.0285779,Art
Working with relational trauma: Adult Exploration of Attachment Interview,2025-07-03,09:30,Elie - 27 Royal Parade Parkville (Gestalt Centre Training Campus),"27 Royal Parade Parkville, VIC 3052",https://www.eventbrite.com.au/e/working-with-relational-trauma-adult-exploration-of-attachment-interview-tickets-1066273746479?aff=ebdssbdestsearch,-37.7962081,144.9574069,Talks/Workshops
Sound Bath Meditation in an Art Gallery,2025-07-03,18:00,Artful Yoga Gallery,"1 Vale Street St Kilda, VIC 3182",https://www.eventbrite.com.au/e/sound-bath-meditation-in-an-art-gallery-tickets-1301630294249?aff=ebdssbdestsearch,-37.8661713,144.9817611,Talks/Workshops
Alicia Komaki Youth Girls Skills Clinic,2025-07-03,09:00,Melbourne Sports & Aquatic Centre,"30 Aughtie Dr Albert Park, VIC 3206",https://www.eventbrite.com.au/e/alicia-komaki-youth-girls-skills-clinic-tickets-1413183994369?aff=ebdssbdestsearch,-37.8433729,144.9613557,Sport
Baby Safe Program: Safe Sleeping Small Group Class 2025,2025-07-03,18:45,Prahran High School,"138 High Street Windsor, VIC 3181",https://www.eventbrite.com.au/e/baby-safe-program-safe-sleeping-small-group-class-2025-tickets-1095722799389?aff=ebdssbdestsearch,-37.8517332,144.9913415,Talks/Workshops
The Pearlies Live @ Bergy Bandroom,2025-07-03,19:00,Bergy Bandroom,"64 Sydney Rd, Brunswick VIC 3056, Australia",https://www.facebook.com/events/536381359185296/,-37.776327,144.9607158,Music
Queen: Its A Kinda Magic - Melbourne,2025-07-03,19:30,Palladium at Crown,"Level 1 Crown Towers, Crown Melbourne, 8 Whiteman St, Southbank VIC 3006, Australia",https://www.facebook.com/events/1621359165173105/,-37.822181,144.959875,Music
Paul Buchanans Blues Express & Thursday Night Jam!,2025-07-03,00:00,Hume Blues Club Inc,"27 Ballantyne St, Thornbury VIC 3071, Australia",https://www.facebook.com/events/1440848333759104/,-37.7588241,144.9985126,Music
DRAW/ME/YOU,2025-07-03,19:00,221 High St,"221 High Street Preston, VIC 3072",https://www.eventbrite.com.au/e/drawmeyou-tickets-1349257658979?aff=ebdssbdestsearch,-37.74535590000001,145.0025696,Art
Melbourne Lesbian Singles Night | MyCheekyGayDate | Lesbian Speed Dating,2025-07-03,19:00,The Metropolitan Hotel,"265 William Street Melbourne, VIC 3000",https://www.eventbrite.com/e/melbourne-lesbian-singles-night-mycheekygaydate-lesbian-speed-dating-tickets-1392611310919?aff=ebdssbdestsearch,-37.812902,144.9566615,Social/Dating
Networking Event (VIC) Food & Bev Market Update,2025-07-03,18:00,The Mission to Seafarers Victoria,"717 Flinders Street Docklands, VIC 3005",https://www.eventbrite.com.au/e/networking-event-vic-food-bev-market-update-tickets-1351375864589?aff=ebdssbdestsearch,-37.8225172,144.951249,Business/Networking
FRENCH DINNER WITH SAKE BREWERY,2025-07-03,19:00,Philippe,"115 Collins Street Melbourne, VIC 3000",https://www.eventbrite.com.au/e/french-dinner-with-sake-brewery-tickets-1400910363609?aff=ebdssbdestsearch,-37.8147295,144.9700165,Talks/Workshops
Fresh Networking  Hawthorn - Guest Registration,2025-07-03,07:30,Now & Then Cafe kew,"204 High Street Kew, VIC 3101",https://www.eventbrite.com.au/e/fresh-networking-hawthorn-guest-registration-tickets-105198467448?aff=ebdssbdestsearch,-37.806456,145.0322634,Business/Networking
"July 3 | Singles Mingles – Wine, Connection & Conversation  Ruelle Wine Bar",2025-07-03,19:00,Ruelle Wine Bar,"30 Chatham Street Prahran, VIC 3181",https://www.eventbrite.com.au/e/july-3-singles-mingles-wine-connection-conversation-ruelle-wine-bar-tickets-1414988200799?aff=ebdssbdestsearch,-37.8491103,144.9932617,Social/Dating
Plate Lithography,2025-07-03,10:00,Australian Print Workshop,"210 Gertrude Street Fitzroy, VIC 3065",https://www.eventbrite.com.au/e/plate-lithography-tickets-1119413398609?aff=ebdssbdestsearch,-37.8064244,144.9815567,Talks/Workshops
BNI Innovation - Weekly Networking Breakfast,2025-07-03,07:30,West Brighton Club,"22 Park Street Brighton, VIC 3186",https://www.eventbrite.com.au/e/bni-innovation-weekly-networking-breakfast-tickets-576604699177?aff=ebdssbdestsearch,-37.9134388,144.9892288,Business/Networking
Responding to emotions in cancer workshop #1,2025-07-03,09:00,Victorian Comprehensive Cancer Centre,"Level 13, Meeting Room 1 305 Grattan St Melbourne, VIC 3000",https://www.eventbrite.com.au/e/responding-to-emotions-in-cancer-workshop-1-tickets-1329323114219?aff=ebdssbdestsearch,-37.800197,144.9567095,Talks/Workshops
"Soil Science Australia 70 year Celebration - Past, Present and Future",2025-07-04,17:00,The Royal Society of Victoria,"8 La Trobe Street Melbourne, VIC 3000",https://www.eventbrite.com.au/e/soil-science-australia-70-year-celebration-past-present-and-future-tickets-1352789863899?aff=ebdssbdestsearch,-37.80765239999999,144.9693135,Talks/Workshops
BNI QUANTUM - In Person Networking Event,2025-07-04,06:45,SNA CAFE,"480 Saint Kilda Road Melbourne, VIC 3004",https://www.eventbrite.com.au/e/bni-quantum-in-person-networking-event-tickets-1040236233577?aff=ebdssbdestsearch,-37.8427264,144.9773176,Business/Networking
Melbourne speed dating Cheeky Events Australia in St. Kilda-ages 26-44,2025-07-04,06:45,Ellora St Kilda,"1 Fitzroy Street St Kilda Melbourne, VIC 3182",https://www.eventbrite.com.au/e/melbourne-speed-dating-cheeky-events-australia-in-st-kilda-ages-26-44-tickets-1246730156459?aff=ebdssbdestsearch,-37.8570977,144.9824706,Social/Dating
Josh Light and The Unfurling at The Lomond Hotel.,2025-07-04,21:00,The Lomond Hotel,"225 Nicholson Street Brunswick East, VIC 3057",https://www.eventbrite.com.au/e/josh-light-and-the-unfurling-at-the-lomond-hotel-tickets-1411329858599?aff=ebdssbdestsearch,-37.7670861,144.9800057,Music
Drag Bingo Dinner Show at Overnewton Castle,2025-07-04,19:00,Overnewton Castle,"51 Overnewton Road Keilor, VIC 3036",https://www.eventbrite.com.au/e/drag-bingo-dinner-show-at-overnewton-castle-tickets-1204335342429?aff=ebdssbdestsearch,-37.7048096,144.8209018,Comedy
Wingman's PM Roadshow - Melbourne July 2025,2025-07-04,08:00,Melbourne City,". Melbourne, VIC 3000",https://www.eventbrite.com.au/e/wingmans-pm-roadshow-melbourne-july-2025-tickets-1320815628099?aff=ebdssbdestsearch,-37.8152065,144.963937,Business/Networking
Candlelight and Sound Bath: rebalance and rejuvenate | Monthly Event,2025-07-04,18:30,96 Middlesex Rd,"96 Middlesex Road Surrey Hills, VIC 3127",https://www.eventbrite.com.au/e/candlelight-and-sound-bath-rebalance-and-rejuvenate-monthly-event-tickets-1316920016219?aff=ebdssbdestsearch,-37.8327671,145.0885317,Talks/Workshops
Rumble Coffee Roasters Coffee Cupping,2025-07-04,15:00,Rumble Coffee Roasters,"348 Macaulay Road Kensington, VIC 3031",https://www.eventbrite.com.au/e/rumble-coffee-roasters-coffee-cupping-tickets-1344966544139?aff=ebdssbdestsearch,-37.7947678,144.9342535,Talks/Workshops
Charades ft. PARIS [4 Hour Set],2025-07-04,23:00,Sub Club Melbourne,"Flinders Court Melbourne, VIC 3000",https://www.eventbrite.com.au/e/charades-ft-paris-4-hour-set-tickets-1393628222529?aff=ebdssbdestsearch,-37.8179755,144.9644539,Music
Tou-Can at the Retreat w/Sam Darcy band and Midnight Violet,2025-07-04,19:30,280 Sydney Rd,"280 Sydney Road Brunswick, VIC 3056",https://www.eventbrite.com.au/e/tou-can-at-the-retreat-wsam-darcy-band-and-midnight-violet-tickets-1398048062389?aff=ebdssbdestsearch,-37.7711488,144.9616353,Music
BNI Horizon Networking,2025-07-04,06:45,Sandringham Yacht Club,"32 Jetty Road Sandringham, VIC 3191",https://www.eventbrite.com.au/e/bni-horizon-networking-tickets-1022460947217?aff=ebdssbdestsearch,-37.9458013,144.9958227,Business/Networking
Authentic Relating Games night,2025-07-04,19:00,AKA Studio Yoga,"130C Nicholson Street Brunswick East, VIC 3057",https://www.eventbrite.com.au/e/authentic-relating-games-night-tickets-633255352807?aff=ebdssbdestsearch,-37.767095,144.980478,Games
"Ironstone w/ Ghostseeker, Arkángel and Chapel Hill (SA)",2025-07-04,19:00,Stay Gold,"133 Sydney Road Brunswick, VIC 3056",https://www.eventbrite.com.au/e/ironstone-w-ghostseeker-arkangel-and-chapel-hill-sa-tickets-1392043693159?aff=ebdssbdestsearch,-37.77435880000001,144.9606103,Music
Zoho Social Training Online - Melbourne,2025-07-04,08:00,Melbourne,"Zoom Melbourne, VIC 3000",https://www.eventbrite.com.au/e/zoho-social-training-online-melbourne-tickets-1258016173239?aff=ebdssbdestsearch,-37.8152065,144.963937,Talks/Workshops
Charades ft. PARIS [4 Hour Set],2025-07-04,00:00,Sub Club Melbourne,"Flinders Ct, Melbourne VIC 3000, Australia",https://www.facebook.com/events/656208904041067/,-37.81776587,144.96433104920948,Other
Up Late: Pursuits of Pleasure,2025-07-04,00:00,The Wheeler Centre,"176 Little Lonsdale St, Melbourne VIC 3000, Australia",https://www.facebook.com/events/1419714189444474/,-37.8101765,144.9652219,Talks/Workshops
Joey Lightbulb & Friends (Northcote SC 20th Birthday Opening Party!),2025-07-04,20:00,Northcote Social Club,"301 High St, Northcote VIC 3070, Australia",https://www.facebook.com/events/2135622393518248/,-37.771471,144.998414,Music
Little Birdy - Bigbiglove 21st Birthday Tour - Melbourne,2025-07-04,00:00,The Corner Hotel,"57 Swan St, Richmond VIC 3121",https://www.facebook.com/events/9279687805493137/,-37.82464307,144.9926962,Music
ZÖJ - Give Water to Birds,2025-07-04,19:00,Melbourne Recital Centre,"31 Sturt St, Southbank VIC 3006, Australia",https://www.facebook.com/events/1167751337986031/,-37.82408485,144.96758763141432,Other
Melbourne International Comedy Festival Roadshow,2025-07-04,19:30,Melbourne International Comedy Festival,Melbourne,https://www.facebook.com/events/555284244141074/,-37.8136,144.9631,Comedy
Stars of Countdown Live in Concert – The Palms at Crown,2025-07-04,19:30,Palladium at Crown,"Level 1 Crown Towers, Crown Melbourne, 8 Whiteman St, Southbank VIC 3006, Australia",https://www.facebook.com/events/569001592621976/,-37.822181,144.959875,Music
Melbourne DedCity Rumble Tour '25 'The Great Southern TakeOver Mr Boogie Man Bar,2025-07-04,18:00,Mr Boogie Man Bar,"160 Hoddle St, Abbotsford VIC 3067, Australia",https://www.facebook.com/events/609093291851339/,-37.80245,144.99295304614787,Music
Masterclass: Playwriting,2025-07-05,00:00,The Wheeler Centre,"176 Little Lonsdale St, Melbourne VIC 3000, Australia",https://www.facebook.com/events/1047169990659021/,-37.8101765,144.9652219,Talks/Workshops
Paws & Pints: Dog Lovers Social Event at the Angry Dog in Melbourne,2025-07-05,15:00,THE ANGRY DOG,"435 Spencer Street West Melbourne, VIC 3003",https://www.eventbrite.com.au/e/paws-pints-dog-lovers-social-event-at-the-angry-dog-in-melbourne-tickets-1381208143739?aff=ebdssbdestsearch,-37.8104755,144.9498932,Social/Dating
"Grounded in Breath, Connected in Presence",2025-07-05,11:00,Treasury Gardens,"2-18 Spring Street East Melbourne, VIC 3002",https://www.eventbrite.com.au/e/grounded-in-breath-connected-in-presence-tickets-1381175435909?aff=ebdssbdestsearch,-37.8143335,144.9759842,Talks/Workshops
Master the Art of Chocolate with Pidapipo: A Hands-On Experience,2025-07-05,10:00,Pidapipó Laboratorio,"429-431 Brunswick Street Fitzroy, VIC 3065",https://www.eventbrite.com.au/e/master-the-art-of-chocolate-with-pidapipo-a-hands-on-experience-tickets-1406793028819?aff=ebdssbdestsearch,-37.7941909,144.9789052,Talks/Workshops
LEVELS MELBOURNE 2025,2025-07-05,21:00,Brown Alley,"585 Lonsdale Street Melbourne, VIC 3000",https://www.eventbrite.com.au/e/levels-melbourne-2025-tickets-792933293827?aff=ebdssbdestsearch,-37.8145646,144.9551429,Music
"Bollywood Saturdays at Decibles, Melbourne",2025-07-05,22:00,Inflation Entertainment Complex,"60 King Street Melbourne, VIC 3000",https://www.eventbrite.com.au/e/bollywood-saturdays-at-decibles-melbourne-tickets-1407161290299?aff=ebdssbdestsearch,-37.8188863,144.9571605,Music
Lightweight Clay Accessories Workshop,2025-07-05,10:00,HEER POTTERY ART,"31 Clarice Road #unit3/29 Box Hill South, VIC 3128",https://www.eventbrite.com.au/e/lightweight-clay-accessories-workshop-tickets-1411362165229?aff=ebdssbdestsearch,-37.833062,145.1337404,Talks/Workshops
Felt Flowers: creative workshop,2025-07-05,14:00,Caelene Nee Glen,"143 Martin Street Brighton, VIC 3186",https://www.eventbrite.com.au/e/felt-flowers-creative-workshop-tickets-1418058935449?aff=ebdssbdestsearch,-37.8971051,145.0033783,Talks/Workshops
Electrique - Gangsta Funk Theme,2025-07-05,07:00,Joey Smalls,"284 Sydney Road Brunswick, VIC 3056",https://www.eventbrite.com.au/e/electrique-gangsta-funk-theme-tickets-1387298851209?aff=ebdssbdestsearch,-37.7710648,144.9616319,Music
Winter Hot Chocolate Scavenger Hunt,2025-07-05,09:00,Mont Albert Heritage Plaza,"18 Hamilton St Mont Albert, VIC 3127",https://www.eventbrite.com.au/e/winter-hot-chocolate-scavenger-hunt-tickets-1353033984069?aff=ebdssbdestsearch,-37.8207386,145.1053639,Games
The Ember Realm Fantasy Ball,2025-07-05,18:30,Wattle Park,"Riversdale Road Burwood, VIC 3125",https://www.eventbrite.com.au/e/the-ember-realm-fantasy-ball-tickets-1315783747609?aff=ebdssbdestsearch,-37.8375447,145.1100587,Social/Dating
Heathdale Netball Club Mid Year Award 2025,2025-07-05,17:30,AiroWorld Trampoline & Inflatable Park,"61 Dohertys Road Altona North, VIC 3025",https://www.eventbrite.com.au/e/heathdale-netball-club-mid-year-award-2025-tickets-1352080652629?aff=ebdssbdestsearch,-37.8323038,144.8252729,Sport
FANGFEST,2025-07-05,13:30,Fairfield Bowling Club,"125 Gillies Street Fairfield, VIC 3078",https://www.eventbrite.com/e/fangfest-tickets-1353028427449?aff=ebdssbdestsearch,-37.7749915,145.0180042,Music
BioEnergetic Yin Yoga Therapy Certification Training - Level 1.,2025-07-05,09:00,Centre of You,"Upstairs, 217 Chapel St Prahran Melbourne, VIC 3181",https://www.eventbrite.com.au/e/bioenergetic-yin-yoga-therapy-certification-training-level-1-tickets-1343644640289?aff=ebdssbdestsearch,-37.8509316,144.9933031,Talks/Workshops
Human Forest - A Regenerative & Connective Experience of Devotional Touch.,2025-07-05,18:45,Centre of You,"Upstairs, 217 Chapel St Prahran Melbourne, VIC 3181",https://www.eventbrite.com.au/e/human-forest-a-regenerative-connective-experience-of-devotional-touch-tickets-1352965649679?aff=ebdssbdestsearch,-37.8509316,144.9933031,Talks/Workshops
MCW Ballroom Brawl 2025,2025-07-05,19:00,Melbourne Pavilion,"135-157 Racecourse Road Kensington, VIC 3031",https://www.eventbrite.com.au/e/mcw-ballroom-brawl-2025-tickets-1266888610939?aff=ebdssbdestsearch,-37.7891081,144.9364233,Sport
SOCIAL SUPER SATURDAY - FIRELIGHT FESTIVAL + Il MERCATO EXPERIENCE - 4KM,2025-07-05,18:30,Flagstaff Gardens Playground (By the swings),"A'Beckett Street West Melbourne, VIC 3003",https://www.eventbrite.com.au/e/social-super-saturday-firelight-festival-il-mercato-experience-4km-tickets-1421279287609?aff=ebdssbdestsearch,-37.8106125,144.9558886,Social/Dating
Velvet Bloom Album Tour - Northcote Social Club,2025-07-05,20:30,Northcote Social Club,"301 High St, Northcote VIC 3070, Australia",https://www.facebook.com/events/627615203463939/,-37.771471,144.998414,Music
STAYC,2025-07-05,19:00,Festival Hall,"300 Dudley St, West Melbourne VIC 3003, Australia",https://www.facebook.com/events/590755566758149/,-37.8098193,144.9508057,Music
Chocolate Starfish Performs Bat Out Of Hell - The Return,2025-07-05,00:00,Palais Theatre,"Lower Esplanade, St Kilda VIC 3182, Australia",https://www.facebook.com/events/610234541762351/,-37.86708671,144.97599656199426,Music
KYLE LIONHART - MELBOURNE,2025-07-05,20:00,Chapel Off Chapel,"12 Little Chapel St, Prahran VIC 3181, Australia",https://www.facebook.com/events/2373547086363259/,-37.84832452,144.99496955222065,Music
Dirty Dike w/ Sammy B-Side: The Golden Lobster Tour // MELBOURNE,2025-07-05,19:00,Max Watts,"125 Swanston St, Melbourne VIC 3000, Australia",https://www.facebook.com/events/660655603517275/,-37.8147557,144.9659879,Music
𝐒𝐎𝐋𝐃 𝐎𝐔𝐓 | Void Of Vision Farewell @ The Forum Melbourne | July 5,2025-07-05,00:00,Forum Melbourne,"154 Flinders St, Melbourne VIC 3000, Australia",https://www.facebook.com/events/601637989001691/,-37.81644145,144.9693768124984,Music
Flemington Finals Race Day,2025-07-05,11:15,Flemington Racecourse,"448 Epsom Road, Flemington Flemington VIC 3031, Australia",https://www.facebook.com/events/3119084111588273/,-37.78925135,144.9127712588256,Sport
Brave New World with Special Guests,2025-07-05,19:30,Kindred Bandroom,"3 Harris St, Footscray VIC 3011, Australia",https://www.facebook.com/events/1849827322462190/,-37.8119001,144.9008247,Music
Direct from Las Vegas | A Tribute To BARBRA STREISAND Starring Sharon Owens | Dinner & Show ,2025-07-05,00:00,arcobar heatherton,"8 Arco Ln, Heatherton VIC 3202, Australia",https://www.facebook.com/events/1598194407493541/,-37.94673685,145.07837928457485,Music
Watercolour Embroidery Workshop  - Saturday July 5th,2025-07-05,11:30,Mystik River,"3 Southgate Avenue Southbank, VIC 3006",https://www.eventbrite.com.au/e/watercolour-embroidery-workshop-saturday-july-5th-tickets-1278974149109?aff=ebdssbdestsearch,-37.820556,144.965833,Talks/Workshops
The Solid GOLD Band Melb Live “Classic Hits” Dutch Club Carnegie ,2025-07-05,00:00,Carnegie Hall,"60 Rosstown Rd, Carnegie VIC 3163, Australia",https://www.facebook.com/events/1794627464740647/,-37.8864262,145.05686284914034,Music
Void of Vision: The Final Show Ever,2025-07-05,12:00,Forum Melbourne,"150 Flinders St, Melbourne VIC 3000, Australia",https://premier.ticketek.com.au/shows/show.aspx?sh=VOID25,-37.8166268,144.9695761,
"Sound of Being Journey: Breathwork, Mantra, Meditation & Sound Healing.",2025-07-06,06:30,Centre of You,"Upstairs, 217 Chapel St Prahran Melbourne, VIC 3181",https://www.eventbrite.com.au/e/sound-of-being-journey-breathwork-mantra-meditation-sound-healing-tickets-1347382189399?aff=ebdssbdestsearch,-37.8509316,144.9933031,Talks/Workshops
Moreland City Soul Revue Residency at The Lomond,2025-07-06,17:00,The Lomond Hotel,"225 Nicholson Street Brunswick East, VIC 3057",https://www.eventbrite.com.au/e/moreland-city-soul-revue-residency-at-the-lomond-tickets-1261832146919?aff=ebdssbdestsearch,-37.7670861,144.9800057,Music
Paint in the Dark© All Ages - Family Friendly Event,2025-07-06,14:00,Paint for Fun,"252 Graham Street #Unit 1 Port Melbourne, VIC 3207",https://www.eventbrite.com.au/e/paint-in-the-dark-all-ages-family-friendly-event-tickets-1362497208829?aff=ebdssbdestsearch,-37.8386895,144.9385483,Art
Sip n Paint in Melbourne: Make my Bunch,2025-07-06,17:30,Ladder Art Space,"4/81 Denmark St Kew, VIC 3101",https://www.eventbrite.com.au/e/sip-n-paint-in-melbourne-make-my-bunch-tickets-1413024898509?aff=ebdssbdestsearch,-37.8089958,145.0285779,Art
Breathwork with Joe,2025-07-06,10:00,Moss Studios,"101 Evans Street Brunswick, VIC 3056",https://www.eventbrite.com.au/e/breathwork-with-joe-tickets-1374166401699?aff=ebdssbdestsearch,-37.77035559999999,144.9709215,Talks/Workshops
MOSES JONES & LOVE IN VAIN,2025-07-06,14:00,Way Out West Roots Music Club,"4 Market St, Newport VIC 3015, Australia",https://www.facebook.com/events/2142298849567436/,-37.8439028,144.8823845,Music
Corner Hotel Record Fair (July),2025-07-06,00:00,The Corner Hotel,"57 Swan St, Richmond VIC 3121",https://www.facebook.com/events/529213780000520/,-37.82464307,144.9926962,Music
Jess Hitchcock & Penny Quartet,2025-07-07,19:30,Melbourne Recital Centre,"31 Sturt St, Southbank VIC 3006, Australia",https://www.facebook.com/events/1357515342237584/,-37.82408485,144.96758763141432,Music
2025 Literacy for All Intensive Course,2025-07-07,09:00,Glenroy Specialist School,"208 Hilton Street Glenroy, VIC 3046",https://www.eventbrite.com.au/e/2025-literacy-for-all-intensive-course-tickets-1078018033959?aff=ebdssbdestsearch,-37.6991225,144.9208392,Talks/Workshops
Have a Goodnight Walter,2025-07-07,19:00,The Butterfly Club,"5 Carson Place Melbourne, VIC 3000",https://www.eventbrite.co.uk/e/have-a-goodnight-walter-tickets-1285611722269?aff=ebdssbdestsearch,-37.8154472,144.9652725,Theatre
Sound Bath & iRest Yoga Nidra Emersion,2025-07-07,06:30,Castlefield Community Centre,"505 Bluff Road Hampton, VIC 3188",https://www.eventbrite.com.au/e/sound-bath-irest-yoga-nidra-emersion-tickets-1336196442529?aff=ebdssbdestsearch,-37.9329002,145.0244454,Talks/Workshops
School Holiday Workshop - Illusions in Art (Afternoon Session),2025-07-07,12:30,Paint for Fun,"252 Graham Street #Unit 1 Port Melbourne, VIC 3207",https://www.eventbrite.com.au/e/school-holiday-workshop-illusions-in-art-afternoon-session-tickets-1381232556759?aff=ebdssbdestsearch,-37.8386895,144.9385483,Art
"DAVINES - Services and More Workshop - Melbourne, VIC",2025-07-07,10:00,shibui,"139 Toorak Road South Yarra, VIC 3141",https://www.eventbrite.com.au/e/davines-services-and-more-workshop-melbourne-vic-tickets-1253931154839?aff=ebdssbdestsearch,-37.8386846,144.991012,Talks/Workshops
EM RUSCIANO | BRUNSWICK BALLROOM,2025-07-07,00:00,Brunswick Ballroom,"314 Sydney Rd, Brunswick VIC 3056, Australia",https://www.facebook.com/events/2069710233508003/?event_time_id=2069710250174668,-37.7704205,144.9617083,Comedy
"Art, War, and Other Catastrophes",2025-07-07,20:30,The Butterfly Club,"5 Carson Place Melbourne, VIC 3000",https://www.eventbrite.co.uk/e/art-war-and-other-catastrophes-tickets-1349305913309?aff=ebdssbdestsearch,-37.8154472,144.9652725,Theatre
Fermentation 101 Workshop with Caitlin Koether,2025-07-08,18:00,Little Molli,"66 Nicholson Street Abbotsford, VIC 3067",https://www.eventbrite.com/e/fermentation-101-workshop-with-caitlin-koether-tickets-1344936835279?aff=ebdssbdestsearch,-37.8069067,144.9966637,Talks/Workshops
MIG Workshop: Multivariate analysis for omics data integration (bulk),2025-07-08,09:30,The Florey Institute of Neuroscience and Mental Health,"30 Royal Parade Parkville, VIC 3010",https://www.eventbrite.com/e/mig-workshop-multivariate-analysis-for-omics-data-integration-bulk-tickets-1246825952989?aff=ebdssbdestsearch,-37.7982843,144.9585746,Talks/Workshops
Hakima – Bukjeh,2025-07-08,00:00,Melbourne Recital Centre,"31 Sturt St, Southbank VIC 3006, Australia",https://www.facebook.com/events/3689110251224257/?event_time_id=3689113927890556,-37.82408485,144.96758763141432,Other
"CAPM Exam Prep In-Person Course in Melbourne, VIC",2025-07-08,09:00,"Levels 31 & 50/120 Collins St, Melbourne, VIC, 3000, Australia","Levels 31 & 50/120 Collins St Melbourne, VIC 3000",https://www.eventbrite.com/e/capm-exam-prep-in-person-course-in-melbourne-vic-tickets-1350248061299?aff=ebdssbdestsearch,-37.8144291,144.9696066,Talks/Workshops
Roola Boola Chidren's Art Festival: Kids Clay Workshop at the Duldig Studio,2025-07-08,10:30,Duldig Studio Museum & Sculpture Garden,"92 Burke Road East Malvern, VIC 3145",https://www.eventbrite.com.au/e/roola-boola-chidrens-art-festival-kids-clay-workshop-at-the-duldig-studio-tickets-1319606692139?aff=ebdssbdestsearch,-37.8689721,145.0498034,Art
CAPM Pass Guarantee In-Person Training in Melbourne,2025-07-08,09:00,"Levels 31 & 50/120 Collins St, Melbourne, VIC, 3000, Australia","Levels 31 & 50/120 Collins St Melbourne, VIC 3000",https://www.eventbrite.com/e/capm-pass-guarantee-in-person-training-in-melbourne-tickets-1406420765369?aff=ebdssbdestsearch,-37.8144291,144.9696066,Talks/Workshops
PMP Pass Guarantee In-Person Training in Melbourne,2025-07-08,09:00,"Levels 31 & 50/120 Collins St, Melbourne, VIC, 3000, Australia","Levels 31 & 50/120 Collins St Melbourne, VIC 3000",https://www.eventbrite.com/e/pmp-pass-guarantee-in-person-training-in-melbourne-tickets-1397267327189?aff=ebdssbdestsearch,-37.8144291,144.9696066,Talks/Workshops
TSN Celebration: Reunions & Stories from the Community that built it,2025-07-08,18:00,The Commons QV,"3 Albert Coates Lane Melbourne, VIC 3000",https://www.eventbrite.com.au/e/tsn-celebration-reunions-stories-from-the-community-that-built-it-tickets-1088341240949?aff=ebdssbdestsearch,-37.8109508,144.9653291,Business/Networking
Waterloo,2025-07-08,19:30,Theatre Works,"Saint Leonards Avenue St Kilda, VIC 3182",https://www.eventbrite.com.au/e/waterloo-tickets-1110981518629?aff=ebdssbdestsearch,-37.8638328,144.9768976,Theatre
Brava  Women Networking IN PERSON July 8th 2025 - Brighton,2025-07-08,13:00,The Deck  Brighton,"212 Bay Street Brighton, VIC 3186",https://www.eventbrite.com.au/e/brava-women-networking-in-person-july-8th-2025-brighton-tickets-1277793949099?aff=ebdssbdestsearch,-37.9052818,144.999296,Business/Networking
Harnessing AI for Marketing Innovation | Melbourne,2025-07-08,15:00,Melbourne,"Online Event Melbourne, VIC 3000",https://www.eventbrite.com.au/e/harnessing-ai-for-marketing-innovation-melbourne-tickets-1052300297517?aff=ebdssbdestsearch,-37.8279601,144.9683224,Talks/Workshops
Founder Connect!,2025-07-08,18:00,The Commons QV,"3 Albert Coates Lane Melbourne, VIC 3000",https://www.eventbrite.com.au/e/founder-connect-tickets-1088341240949?aff=ebdssbdestsearch,-37.8109508,144.9653291,Business/Networking
Etching #1 - Hard-ground & Soft-ground,2025-07-08,10:00,Australian Print Workshop,"210 Gertrude Street Fitzroy, VIC 3065",https://www.eventbrite.com.au/e/etching-1-hard-ground-soft-ground-tickets-1204082054839?aff=ebdssbdestsearch,-37.8064244,144.9815567,Art
Speed Dating Glen Waverley | 25-38yrs | GUYS TIX SOLD OUT!,2025-07-09,19:00,Gambino Restaurant & Rooftop,"73-75 Kingsway #L5 Glen Waverley, VIC 3150",https://www.eventbrite.com.au/e/speed-dating-glen-waverley-25-38yrs-guys-tix-sold-out-tickets-1341819370859?aff=ebdssbdestsearch,-37.88046569999999,145.1634312,Social/Dating
BDM EOFY CELEBRATION  |  FLOW: Where Growth Meets Momentum,2025-07-09,17:00,Kolmeo HQ,"31 Queen Street #Level 6 Melbourne, VIC 3000",https://www.eventbrite.com.au/e/bdm-eofy-celebration-flow-where-growth-meets-momentum-registration-1302646523819?aff=ebdssbdestsearch,-37.81822349999999,144.9617763,Business/Networking
Speed Dating Glen Waverley | 25-38yrs | 20% OFF Promo,2025-07-09,19:00,Gambino Restaurant & Rooftop,"73-75 Kingsway #L5 Glen Waverley, VIC 3150",https://www.eventbrite.com.au/e/speed-dating-glen-waverley-25-38yrs-20-off-promo-tickets-1341819370859?aff=ebdssbdestsearch,-37.88046569999999,145.1634312,Social/Dating
Navigating Healthcare as a Person in a Bigger Body Workshop,2025-07-09,10:00,Heidelberg Repatriation Hospital,"300 Waterdale Road Ivanhoe, VIC 3079",https://www.eventbrite.com.au/e/navigating-healthcare-as-a-person-in-a-bigger-body-workshop-registration-1271846068829?aff=ebdssbdestsearch,-37.755455,145.045315,Talks/Workshops
Effie - UPYOURSELFNESS LIVE at Olympic Hotel!,2025-07-09,18:00,Olympic Hotel,"31 Albert Street Preston, VIC 3072",https://www.eventbrite.com.au/e/effie-upyourselfness-live-at-olympic-hotel-tickets-1295351403919?aff=ebdssbdestsearch,-37.7465792,145.021604,Comedy
.NET 9 Superpowers Tour - Melbourne,2025-07-09,09:00,SSW Melbourne,"Level 1/370 Little Bourke St MELBOURNE, VIC 3000",https://www.eventbrite.com.au/e/net-9-superpowers-tour-melbourne-tickets-1098433296559?aff=ebdssbdestsearch,-37.8132971,144.9615923,Talks/Workshops
Make your Happy Snowmen,2025-07-09,10:00,124 South Parade,"124 South Parade Blackburn, VIC 3130",https://www.eventbrite.com.au/e/make-your-happy-snowmen-tickets-1353035628989?aff=ebdssbdestsearch,-37.8205834,145.1523742,Art
Understand Weight Management Treatment Options as a Person with Obesity,2025-07-09,13:00,Heidelberg Repatriation Hospital,"300 Waterdale Road Ivanhoe, VIC 3079",https://www.eventbrite.com.au/e/understand-weight-management-treatment-options-as-a-person-with-obesity-registration-1315964979679?aff=ebdssbdestsearch,-37.755455,145.045315,Talks/Workshops
AusSTS 2025 “Signals & Noises” Conference,2025-07-09,08:30,"National Communication Museum, Hawthorn, Naarm, (Day1) and Deakin Downtown (Docklands) Day 2 and 3","NCM and Deakin Downtown Narrm, Melbourne, VIC 3008",https://www.eventbrite.com.au/e/aussts-2025-signals-noises-conference-tickets-1312609132249?aff=ebdssbdestsearch,-37.8206284,144.9500129,Talks/Workshops
Clonakilla Dinner Melbourne: Perfume & Power July 9th 2025 6.30pm,2025-07-09,06:30,Entrecôte,"142-144 Greville Street Prahran, VIC 3181",https://www.eventbrite.com.au/e/clonakilla-dinner-melbourne-perfume-power-july-9th-2025-630pm-tickets-1341726392759?aff=ebdssbdestsearch,-37.849427,144.991519,Social/Dating
Back Alley Sally & Thursday Night Jam!,2025-07-10,00:00,Hume Blues Club Inc,"27 Ballantyne St, Thornbury VIC 3071, Australia",https://www.facebook.com/events/1003879275182853/,-37.7588241,144.9985126,Music
Henry Manetta and the Trip Live at The Paris Cat,2025-07-10,00:00,Paris Cat Jazz Club,"6 Goldie Pl, Melbourne VIC 3000, Australia",https://www.facebook.com/events/1214175740211911/,-37.8133262,144.96060714767358,Music
A Bunch Of Smooth Operators at Paris Cat Jazz Club ,2025-07-10,19:00,Paris Cat Jazz Club,"6 Goldie Pl, Melbourne VIC 3000, Australia",https://www.facebook.com/events/2220949085028932/,-37.8133262,144.96060714767358,Music
Creative Tech | MELB July | School Holiday Workshop,2025-07-10,10:00,The Australian Institute of Music,"120 King Street Melbourne, VIC 3000",https://www.eventbrite.com.au/e/creative-tech-melb-july-school-holiday-workshop-tickets-1254001936549?aff=ebdssbdestsearch,-37.81714789999999,144.9564705,Talks/Workshops
Responding to Disclosures of Sexual Assault Workshop,2025-07-10,09:30,level 2/210 Lonsdale St,"210 Lonsdale Street #level 2 Melbourne, VIC 3000",https://www.eventbrite.com.au/e/responding-to-disclosures-of-sexual-assault-workshop-tickets-1301652029259?aff=ebdssbdestsearch,-37.8109379,144.9658254,Talks/Workshops
